[{"business_status": "OPERATIONAL", "formatted_address": "515 E 13th St, Cadillac, MI 49601, United States", "geometry": {"location": {"lat": 44.2671905, "lng": -85.3993883}, "viewport": {"northeast": {"lat": 44.26851227989272, "lng": -85.39803687010728}, "southwest": {"lat": 44.26581262010728, "lng": -85.40073652989271}}}, "icon": "https://maps.gstatic.com/mapfiles/place_api/icons/v1/png_71/shopping-71.png", "icon_background_color": "#4B96F3", "icon_mask_base_uri": "https://maps.gstatic.com/mapfiles/place_api/icons/v2/shopping_pinlet", "name": "Grahek's Inc", "opening_hours": {"open_now": true}, "photos": [{"height": 4032, "html_attributions": ["<a href=\"https://maps.google.com/maps/contrib/116520644512797812293\">Tina Paige</a>"], "photo_reference": "AXQCQNRWR8HpicmK-E8a0pDxpRxg4xC3ysJ_IwwlsO3eCMbR05gtuL2XXi52HV80LBe47e9VnyfySDYBfEQnVJxCRNLh1A9xZ1PA63649thOpTzpRH82BkkUX0zOXE_h3bZPlk2v0EUREcsGaSTeRrtMNkqfre09h6A1dvGfGPz-iAkwHhuXWfBoI3Iqo-SdmJXlVh3fPqS8ISwYJZK2CORt42GV96jY5-4K1wfnDj8j3IDcFFidJj_uopdJrUfT-3wX1MeaL-ldG544lqkjqMo0eudz9pGT1k4Ehk6NSlWcT2dzdTX8W8sKZUnH3_qHq026mZEL3HipsXY8x_-Z4JxPtsv-ZJaGlMjyG3WmDAQJLOtxIOPxz5cnWMl4ehsB08l3TuC3NXoENBiiImM_lNw5SP9ig8rnV6m_6wLZ_0QI3pUpIucxyLJ7OclU8CAIvm3MZj_v28ZFDkgJ-nECuyZnh8qn5Y5NhjOunHBbjliRlv6QSqDs6vVN2k-7gfNi_A-zbGzsAZnKv6ioLygeocb5v47jGeFBhro4HCwmvkaltn6NjgpexJA7_-z9ycInCdxy1RR_HPzr", "width": 3024}], "place_id": "ChIJMURGIf8IH4gR_rgFQBHCWqU", "plus_code": {"compound_code": "7J82+V6 Cadillac, Michigan", "global_code": "86PP7J82+V6"}, "rating": 4.4, "reference": "ChIJMURGIf8IH4gR_rgFQBHCWqU", "types": ["general_contractor", "store", "food", "point_of_interest", "establishment"], "user_ratings_total": 43}, {"business_status": "OPERATIONAL", "formatted_address": "180 W 13th St, Cadillac, MI 49601, United States", "geometry": {"location": {"lat": 44.2671624, "lng": -85.4078439}, "viewport": {"northeast": {"lat": 44.26840607989272, "lng": -85.40649587010728}, "southwest": {"lat": 44.26570642010727, "lng": -85.40919552989273}}}, "icon": "https://maps.gstatic.com/mapfiles/place_api/icons/v1/png_71/generic_business-71.png", "icon_background_color": "#7B9EB0", "icon_mask_base_uri": "https://maps.gstatic.com/mapfiles/place_api/icons/v2/generic_pinlet", "name": "Double J Lawn Care Plus LLC", "photos": [{"height": 3024, "html_attributions": ["<a href=\"https://maps.google.com/maps/contrib/102774334119756196400\">Tod Winkle</a>"], "photo_reference": "AXQCQNTopoV98zy1Tgm9xz2O0l5zuWlm5b_40_gOjgpDBdCUv13N-aW3cm4hXP97-AtCUAJoNgodeTvLWMPHP1kEHXc6JVKFcGlFM6ZZF51nKoNCwFdqK4QAcFkXEazrSNFy8L2ANP-jrmZU48RAH-GP6bIkTm8USWNgy07Mo7qfrMsJutKb7-jMlY2HqT0Ou1DXZ0pFR2kEsGlD39mZ3MJeyHyZx2NnLQhb9LgaYsKJt1UbJfvVqud5XXrJQFO4HKOmpFx9IG76eQQUWvqE57JASpLJhIpuAWy9ZtCdfYmbDGaGbAeg5CUASX2-DLcsepe-lT2eNoKpuf438m1lviCo_q5pNar-Y5z4pFiGzRxhOWDp0ajQG5VkndJ8zj4JDwjHWXjWiMynqWBMEzmEa2wNprMxR12ZruTq4XHlOVvZOipHl3E0KFBIoUH3KH_0m180sBmGJbJcltLNYQJMdZDgu8f9SCPhI5BEXYg0eveIdmWQ_U6E7ZuMMUQCg4jIIXHij2FgLHMz9vKBqRx1k1VgP7FGhIkn2a7-rWuYpTVBtzn-7EPNI1r2NM3bdb4anE7691nSGUiM", "width": 4032}], "place_id": "ChIJZxSbn_cIH4gRIb6cWh-DhsM", "plus_code": {"compound_code": "7H8R+VV Cadillac, Michigan", "global_code": "86PP7H8R+VV"}, "rating": 5, "reference": "ChIJZxSbn_cIH4gRIb6cWh-DhsM", "types": ["point_of_interest", "establishment"], "user_ratings_total": 1}, {"business_status": "OPERATIONAL", "formatted_address": "2405 S 29 Rd, Cadillac, MI 49601, United States", "geometry": {"location": {"lat": 44.3035488, "lng": -85.5390748}, "viewport": {"northeast": {"lat": 44.30489717989272, "lng": -85.53801897010727}, "southwest": {"lat": 44.30219752010728, "lng": -85.54071862989272}}}, "icon": "https://maps.gstatic.com/mapfiles/place_api/icons/v1/png_71/generic_business-71.png", "icon_background_color": "#7B9EB0", "icon_mask_base_uri": "https://maps.gstatic.com/mapfiles/place_api/icons/v2/generic_pinlet", "name": "Blessings Lawn & Outdoor Services", "opening_hours": {"open_now": true}, "photos": [{"height": 3024, "html_attributions": ["<a href=\"https://maps.google.com/maps/contrib/104473222948611601626\">Blessings Lawn &amp; Outdoor Services</a>"], "photo_reference": "AXQCQNQkEQ_dPk5bDFubCHD-4z2Pt9ltDPLrKYXWecuioQCLK0PGPWGzcEwx_XYFfPZecq_u4DLVPTPi0ZYd8IYlKdyDvb-RwCWutERKm6yPzJG1QwhjxJJy2AjSMl8-aP6KsNXPUr5Ax3QwGSr8Kad0WLOysPaJITMTME_g6lIGUIPdRb5aYtr_ShQVyVo6yRZEuKAMRxPXd7EerJoD9bVYzW0I10sjg6RHGiwL85mfuBpde8SwKgewp3VB8PgP_n3fk48Iwv5-ha9NzKlYBazUcQ_LQAgP6W6TxTzW_U0uF4yxF7Jg_ek", "width": 4032}], "place_id": "ChIJvyuXSJYBH4gRgzddeBOrxAU", "plus_code": {"compound_code": "8F36+C9 Cadillac, Michigan", "global_code": "86PP8F36+C9"}, "rating": 4.6, "reference": "ChIJvyuXSJYBH4gRgzddeBOrxAU", "types": ["general_contractor", "point_of_interest", "establishment"], "user_ratings_total": 9}, {"business_status": "OPERATIONAL", "formatted_address": "1212 S 37 Rd, Cadillac, MI 49601, United States", "geometry": {"location": {"lat": 44.32030340000001, "lng": -85.4603023}, "viewport": {"northeast": {"lat": 44.32148467989272, "lng": -85.45900542010726}, "southwest": {"lat": 44.31878502010728, "lng": -85.46170507989271}}}, "icon": "https://maps.gstatic.com/mapfiles/place_api/icons/v1/png_71/generic_business-71.png", "icon_background_color": "#7B9EB0", "icon_mask_base_uri": "https://maps.gstatic.com/mapfiles/place_api/icons/v2/generic_pinlet", "name": "Great Northern Lawn Services", "opening_hours": {"open_now": true}, "photos": [{"height": 4032, "html_attributions": ["<a href=\"https://maps.google.com/maps/contrib/102458311625057556956\">A Google User</a>"], "photo_reference": "AXQCQNTQy2pvh2Q6qxA4jrNbyPvX7MTCZ0LBHd2yZskv_fazLKfZQ7ycxVpPPFpxMwzeqRmkTWK3eiPgLfEJeAWgmKUrFbfBw9zquLxSFNFLIN9amOCN67Ey2s3nkLwiGg679Ff3k5OZQ8NwQzRft0zUr42oJ5ZDX2NqKCaF-7DW9Az_EGATm1fO3tJOnVRBzp0fh5nkcNaP3Z6S9HPfX9C4VgWVGDDUINGI4oveITjSo8ayRyxkFfncYTlfcoD8-8YTq1oW7aDBz89Cj0BINSbq8pq19dS_Gfor3OmXtcpzj6qhZW9f434", "width": 3024}], "place_id": "ChIJ58fOmsepH4gRM3HPIFy8Irk", "plus_code": {"compound_code": "8GCQ+4V Cadillac, Michigan", "global_code": "86PP8GCQ+4V"}, "rating": 4.2, "reference": "ChIJ58fOmsepH4gRM3HPIFy8Irk", "types": ["point_of_interest", "establishment"], "user_ratings_total": 26}, {"business_status": "OPERATIONAL", "formatted_address": "611 Seneca Pl, Cadillac, MI 49601, United States", "geometry": {"location": {"lat": 44.2536936, "lng": -85.4366287}, "viewport": {"northeast": {"lat": 44.25504367989272, "lng": -85.43530402010727}, "southwest": {"lat": 44.25234402010728, "lng": -85.43800367989272}}}, "icon": "https://maps.gstatic.com/mapfiles/place_api/icons/v1/png_71/generic_business-71.png", "icon_background_color": "#7B9EB0", "icon_mask_base_uri": "https://maps.gstatic.com/mapfiles/place_api/icons/v2/generic_pinlet", "name": "Fauble's Lawn & Landscape Services", "place_id": "ChIJQ294zp8IH4gRne0_SIN0COI", "plus_code": {"compound_code": "7H37+F8 Cadillac, Michigan", "global_code": "86PP7H37+F8"}, "rating": 4.5, "reference": "ChIJQ294zp8IH4gRne0_SIN0COI", "types": ["general_contractor", "point_of_interest", "establishment"], "user_ratings_total": 2}, {"business_status": "OPERATIONAL", "formatted_address": "1551 Filmore Ave, Cadillac, MI 49601, United States", "geometry": {"location": {"lat": 44.27385, "lng": -85.4075715}, "viewport": {"northeast": {"lat": 44.27520117989272, "lng": -85.40613222010728}, "southwest": {"lat": 44.27250152010728, "lng": -85.40883187989273}}}, "icon": "https://maps.gstatic.com/mapfiles/place_api/icons/v1/png_71/generic_business-71.png", "icon_background_color": "#7B9EB0", "icon_mask_base_uri": "https://maps.gstatic.com/mapfiles/place_api/icons/v2/generic_pinlet", "name": "ACE Property Maintenance & Snow Removal", "opening_hours": {"open_now": true}, "photos": [{"height": 3024, "html_attributions": ["<a href=\"https://maps.google.com/maps/contrib/110371397182594959382\">A Google User</a>"], "photo_reference": "AXQCQNT-OBc1VB-Gwujj4f2Mg2btyus2ZjMTA_i-JUHV1GfGl9cpWAtt6NMNp45dy8KtMkPn8lmEhu3ZNX7IYLH6vt9nqbXfLdVBQTP3zZrJ4yagINKnEfqCA-3ddex9DtkcdfVVPFpnS7NY14uiYkTvxjkIBr9XakmByQfMvM60Q6MC3XWHDgPc_m1zymDCgmEb6YX9poP-7hVlDwPUrCUJD2E43aK3FX8nd3XWA1zm1NTylai0CkAe8yG6IBCWLRTOoayrQTwU5cEfXN-dmd-f-OmLWFo-l_PN_3F3926httxAhHNajm4", "width": 3025}], "place_id": "ChIJGU_AupkJH4gRIvyREu5OFLQ", "plus_code": {"compound_code": "7HFR+GX Cadillac, Michigan", "global_code": "86PP7HFR+GX"}, "rating": 5, "reference": "ChIJGU_AupkJH4gRIvyREu5OFLQ", "types": ["general_contractor", "point_of_interest", "establishment"], "user_ratings_total": 8}, {"business_status": "OPERATIONAL", "formatted_address": "2350 E Lake Mitchell Dr, Cadillac, MI 49601, United States", "geometry": {"location": {"lat": 44.26739, "lng": -85.4746663}, "viewport": {"northeast": {"lat": 44.26863367989272, "lng": -85.47340302010727}, "southwest": {"lat": 44.26593402010728, "lng": -85.47610267989272}}}, "icon": "https://maps.gstatic.com/mapfiles/place_api/icons/v1/png_71/generic_business-71.png", "icon_background_color": "#7B9EB0", "icon_mask_base_uri": "https://maps.gstatic.com/mapfiles/place_api/icons/v2/generic_pinlet", "name": "T\u2019s Outdoor Services LLC", "photos": [{"height": 678, "html_attributions": ["<a href=\"https://maps.google.com/maps/contrib/103355910845013578452\">T\u2019s Outdoor Services LLC</a>"], "photo_reference": "AXQCQNSALhOSuguXCVCLY9zICOI-3QqZzZbOLI8CsCiARB1MZhjfjJya-UoJCm_4I2jVFCGj4PFmMzm4CC8yuF8aybiN-nPBRb3HAxhbbqPBq1oLLog4nqkQhFggW7XpIU7-bAqCHJiallufb3bYD7Tn1HahULxPhOoELlzq6RjoD1z6TXI7wzW9WQz0YvbCSLatZwOoRDLyDNhORwCwEDIN8zammGRJQ_0K0sQKLJc-ORIxYz29YtF5OHA4852j4KIT89YvCJPehl7E2Ln1cbbicrOPhW7BF_W0fr-Q-wClDk0t51Zytyk", "width": 1204}], "place_id": "ChIJ_4OcoFYGH4gR199OKmD2HC4", "plus_code": {"compound_code": "7G8G+X4 Cadillac, Michigan", "global_code": "86PP7G8G+X4"}, "rating": 5, "reference": "ChIJ_4OcoFYGH4gR199OKmD2HC4", "types": ["general_contractor", "point_of_interest", "establishment"], "user_ratings_total": 3}, {"business_status": "OPERATIONAL", "formatted_address": "3075 W 13th St STE 2, Cadillac, MI 49601, United States", "geometry": {"location": {"lat": 44.2686942, "lng": -85.4684089}, "viewport": {"northeast": {"lat": 44.27017797989271, "lng": -85.46707357010729}, "southwest": {"lat": 44.26747832010727, "lng": -85.46977322989272}}}, "icon": "https://maps.gstatic.com/mapfiles/place_api/icons/v1/png_71/generic_business-71.png", "icon_background_color": "#7B9EB0", "icon_mask_base_uri": "https://maps.gstatic.com/mapfiles/place_api/icons/v2/generic_pinlet", "name": "Bruce Helsel Tree Farm", "opening_hours": {"open_now": true}, "photos": [{"height": 1836, "html_attributions": ["<a href=\"https://maps.google.com/maps/contrib/104742273771065332629\">Rudy Baldwin</a>"], "photo_reference": "AXQCQNRVKR484KWQekFmvjzVn0CXEgLKpT_DNOwRSxk0d7KKST7RCzybgLbCE7xfMN7jHVHtvRmh6wWNehalEE2EQPykh6_ZRVRtCH12UumE4H2rjmqMFuzb6lfkEOcVBicZHZwTCX1mVgcQsG0lG3XNuB8gEgjYXz9VqJ2nbRXcN6jUkoKoWItli0y5OVI3J-odkZfA-Et3n3Sgrq_SKpMSKfp8Z0Ki6IMx2YtWs7XOReLMdss3Y0Uwhhw7cZMnl3k5dQESpOSfoJu0kpCYo92hZhHE-86iHZVPF_jL3M-eGU2fTqA4Fjp-C5gSz3eciqxOS-HzZNLbcVbanrTSeQl8PX5Gg09TvQa2n-ZV8LSbL1rJdXFrNPGcu1LJQRptS4BM2HPGvg-yFBHXKdT3t9o-jk5rdxBMMKARXW6h_YytVnAefpaH4vXcrWzG8Un9QgheWLZiZ3zc6Lq6bHl8bEPZddYBPLKuWwojCmd_uVz3SCgnnLsUTc2nR2BUZ7fTwtZwlvBJQYP3b-hbNOw-3Skww2Q4yqwmb70uZj3k7sNvzfOb7eM0g6-7-KB2ytQoCl7-eM-ZxB9r", "width": 3264}], "place_id": "ChIJ1wJMLDIGH4gRNMRymtKK2sA", "plus_code": {"compound_code": "7G9J+FJ Cadillac, Michigan", "global_code": "86PP7G9J+FJ"}, "rating": 4, "reference": "ChIJ1wJMLDIGH4gRNMRymtKK2sA", "types": ["general_contractor", "store", "point_of_interest", "establishment"], "user_ratings_total": 14}, {"business_status": "OPERATIONAL", "formatted_address": "8960 34 Rd building b, Cadillac, MI 49601, United States", "geometry": {"location": {"lat": 44.2810057, "lng": -85.39812289999999}, "viewport": {"northeast": {"lat": 44.28256847989272, "lng": -85.39677127010728}, "southwest": {"lat": 44.27986882010727, "lng": -85.39947092989273}}}, "icon": "https://maps.gstatic.com/mapfiles/place_api/icons/v1/png_71/generic_business-71.png", "icon_background_color": "#7B9EB0", "icon_mask_base_uri": "https://maps.gstatic.com/mapfiles/place_api/icons/v2/generic_pinlet", "name": "Rent-a-Gardener, LLC", "opening_hours": {"open_now": false}, "photos": [{"height": 2988, "html_attributions": ["<a href=\"https://maps.google.com/maps/contrib/100041210376678355239\">Phantom Haranguer</a>"], "photo_reference": "AXQCQNRwzjF-iBu_ZAhTi1cto93yrd04EgRrLkugQ3O1DI5zX8jjcpKdl90JZl3aOh6JxxyYKIqIsOF_rnWfK8DGgYv37Nid_PzmcPngvr-VsmaJ66QIXYdthLyIK0kpBeLZLluAVz2q7c8h_gPPvjB8iqCXWQgjXLYd3w0esVeoGbzNhSyV8F4j3sftHcwGo0rbwgFwfqdZ_wkx84qsCkuJZrCobhTDm9EgvmaALarj4bPUYkPhXQ-7xw8kytidHxWe13gWOUOjRo4OqNYpKe31X26F_cs77xCMT2CBWjXSN-5SwmrH0xXswKDZ4yoYOQAkzr9TZ5r542V2ASA9bcBJQDmXyxP8iafxJD3dstw6evqewx_-ZhOwkm0BWMKM4bIrgT5ZIDmBtsDlh-hqluKXsFlldQkV2Fqevh1okTwI11eXV75-ovHyiZq2hece9xOZjua5UEezFvyiVIcSavqYVK1-HBxWiyUMCc8XeVC6OqXInF64oEyLvrXkYQNoSyHjWmp5y1jwy7_Q0_Cq8akbHHIubCZHOZqWqieHhx8y2p-YL1ZB9ZjbvLXo8eTtWB9wzk8IWbQK", "width": 5312}], "place_id": "ChIJG_aD70wIH4gRVfU4RCtf9ZQ", "plus_code": {"compound_code": "7JJ2+CQ Cadillac, Michigan", "global_code": "86PP7JJ2+CQ"}, "reference": "ChIJG_aD70wIH4gRVfU4RCtf9ZQ", "types": ["general_contractor", "point_of_interest", "establishment"]}, {"business_status": "OPERATIONAL", "formatted_address": "6491 E 26 1/4 Rd, Cadillac, MI 49601, United States", "geometry": {"location": {"lat": 44.33512109999999, "lng": -85.45245249999999}, "viewport": {"northeast": {"lat": 44.33639347989272, "lng": -85.45110002010726}, "southwest": {"lat": 44.33369382010728, "lng": -85.45379967989271}}}, "icon": "https://maps.gstatic.com/mapfiles/place_api/icons/v1/png_71/generic_business-71.png", "icon_background_color": "#7B9EB0", "icon_mask_base_uri": "https://maps.gstatic.com/mapfiles/place_api/icons/v2/generic_pinlet", "name": "BW Land & Services", "opening_hours": {"open_now": true}, "photos": [{"height": 2080, "html_attributions": ["<a href=\"https://maps.google.com/maps/contrib/109533095142929388652\">BW Land &amp; Services</a>"], "photo_reference": "AXQCQNSjOnSJWPcNzBgubAwnTZQwp22-W9hxt2ZqIPIlpnfXL2nQ1JTH7F4aP7kmSDsljvbXQdk6y8peUG_Ge6EVCG9qKfR9ToCVfzw_zTM7xfwOhNK_2gko7TPfJ1Xv1ngdOhxdZMJdhT4hneMGzk_zExTq0BXfgPa9y5Hn0Gs50mIw3Fo0nKtpXAT7llt__fKrpntx-slrdK8Epg0FosOBdXQKhdo1Me4bL56DQHWh-2Sq-HHyhog58urSnXCgmpUCIb9QjJmkcW-VyiUeA9fuD6bXnPOs4vISz0EtKCs3XcMVAgBa1hM", "width": 4160}], "place_id": "ChIJJxRmwRypH4gRhuHplEAZRdw", "plus_code": {"compound_code": "8GPX+22 Cadillac, Michigan", "global_code": "86PP8GPX+22"}, "rating": 5, "reference": "ChIJJxRmwRypH4gRhuHplEAZRdw", "types": ["general_contractor", "point_of_interest", "establishment"], "user_ratings_total": 5}, {"business_status": "OPERATIONAL", "formatted_address": "414 S Mitchell St, Cadillac, MI 49601, United States", "geometry": {"location": {"lat": 44.2468279, "lng": -85.39717689999999}, "viewport": {"northeast": {"lat": 44.24827027989272, "lng": -85.39557442010727}, "southwest": {"lat": 44.24557062010728, "lng": -85.39827407989272}}}, "icon": "https://maps.gstatic.com/mapfiles/place_api/icons/v1/png_71/shopping-71.png", "icon_background_color": "#4B96F3", "icon_mask_base_uri": "https://maps.gstatic.com/mapfiles/place_api/icons/v2/shopping_pinlet", "name": "Lark Lawn & Garden Inc", "opening_hours": {"open_now": true}, "photos": [{"height": 1475, "html_attributions": ["<a href=\"https://maps.google.com/maps/contrib/104311046434284765945\">2000buellm2cyclone</a>"], "photo_reference": "AXQCQNTffzayt4VMvpbvRLjLtdf9qfraJnWOvZSZgx4W_Q6h7HRJzOVsv1m7tM820CbZVbEpQT7SKoB4Tpas6UonPZXsU1_FuJCDjcJ-TQDM_mKAvjwXOri0v4I-JkzcH8j3W9DnwIS95ExFilH_fLXjpk5zhbSea6XJT9sSczvx2qkd-AdiSaboM6HyePl3_B259CN67d0pPbkrkmCgeilTnlDe5pK85SIDTJZ29A1iGOpoWeSuTrruWSUVV57Fx_R2SnDbGTORzkALoE5b2fDgNyMyRr7XmjiX3pbL_k-yRrROhJ7KPJ7WulcdmEVI8oXSYJ0x5uCqF4XE-KqroCOFJNOCzw2mLwVsJWIoM9oB9xMuMznDn-TCEcpAkVtkJFogGnjEN4TK7ZpWZG9aThcL1bapuAyTcvN1DNezDAMTjqJZtAW0PQwYspUzg5oXavAYbTMJUMLqNoNUVwY4mVJfLv1rHp-mYAkkYE57_oipCQSrN60fJBgwYh_HoLWutAvbRfXT0E_eNDNZOAp8VraLzYxyDjmTtn97EZxYjmBLQAGQ1EaVb6kIGmB4pG0EUc_lE6lgsQ", "width": 2642}], "place_id": "ChIJ-WZ_et8IH4gRTtnpQC4q-pg", "plus_code": {"compound_code": "6JW3+P4 Cadillac, Michigan", "global_code": "86PP6JW3+P4"}, "rating": 3.9, "reference": "ChIJ-WZ_et8IH4gRTtnpQC4q-pg", "types": ["car_repair", "store", "food", "point_of_interest", "establishment"], "user_ratings_total": 54}, {"business_status": "OPERATIONAL", "formatted_address": "638 N Lake St, Cadillac, MI 49601, United States", "geometry": {"location": {"lat": 44.2552369, "lng": -85.405975}, "viewport": {"northeast": {"lat": 44.25652792989271, "lng": -85.40476262010726}, "southwest": {"lat": 44.25382827010727, "lng": -85.40746227989271}}}, "icon": "https://maps.gstatic.com/mapfiles/place_api/icons/v1/png_71/generic_business-71.png", "icon_background_color": "#7B9EB0", "icon_mask_base_uri": "https://maps.gstatic.com/mapfiles/place_api/icons/v2/generic_pinlet", "name": "R & E Snowplowing and Mowing Services LLC", "opening_hours": {"open_now": true}, "photos": [{"height": 3120, "html_attributions": ["<a href=\"https://maps.google.com/maps/contrib/111817704098703400043\">R &amp; E Snowplowing and Mowing Services LLC</a>"], "photo_reference": "AXQCQNTmRMTVHDzUPOSTpqpn2_G5NIf6l7PMmhRBc-1qsMaa7sq-Jly9czCPptT0pHPIUbBQ9HwVAinR1vG3jIh-kclDzV5J0ZmOZQ2ic-W5kxNDEZ-HFLgPW8thJWree__CEpCmz7OZ3cT4YQ8fV2eBQ79DZQqgb7qtqtLavWueU47htbkzo-uyeQ0--bb4_Gmd8_M1xtF_tjjgpdJqA2U4aufWVa88n2JENC_LKKDmNRDFpEn1QlyBi8_EQTyul-sv98Fy_ubG8DNzF1AQxreAZCCj--zOiu6of6B1XjNoqsMKB_dhTRw", "width": 3437}], "place_id": "ChIJlQ0Q-eUJH4gRzJcNLii5YhE", "plus_code": {"compound_code": "7H4V+3J Cadillac, Michigan", "global_code": "86PP7H4V+3J"}, "rating": 1.8, "reference": "ChIJlQ0Q-eUJH4gRzJcNLii5YhE", "types": ["point_of_interest", "establishment"], "user_ratings_total": 5}, {"business_status": "OPERATIONAL", "formatted_address": "9040 34 Rd, Cadillac, MI 49601, United States", "geometry": {"location": {"lat": 44.280304, "lng": -85.39612}, "viewport": {"northeast": {"lat": 44.28165367989273, "lng": -85.39490732010728}, "southwest": {"lat": 44.27895402010728, "lng": -85.39760697989271}}}, "icon": "https://maps.gstatic.com/mapfiles/place_api/icons/v1/png_71/shopping-71.png", "icon_background_color": "#4B96F3", "icon_mask_base_uri": "https://maps.gstatic.com/mapfiles/place_api/icons/v2/shopping_pinlet", "name": "Garden Center at Tractor Supply", "opening_hours": {"open_now": true}, "photos": [{"height": 940, "html_attributions": ["<a href=\"https://maps.google.com/maps/contrib/108318132948119842008\">Garden Center at Tractor Supply</a>"], "photo_reference": "AXQCQNSuocVO1LuESq9lczB-cUc1jE4t2MIe6O0Qe-qh5dz1xoZDPKBXo5fMscAUyg8-uhsGtzYQKzkPz4hwBuGOtnLvLqhEmhvBU8zXKV41I8V6F4GSETrXm_Ir152Hnk8YwGJPosgis6AaK4x_jeibnJ3lPM3gErHoSWX_aDa0GAe6fdyk6c9OdqpsHYoFtLPz7oCfNMOdZr3pDBn93jq3j1CTScaldrFEgrK_HjNcb0TJTgHSECv4njs3w-kcHybVMQ-bjPJPXZZYDYHuNwrpuTpIKw19zV_ARIJEtRZawEmUHvwqhX0", "width": 1254}], "place_id": "ChIJBdc8aHAJH4gRTqeQk6qJF0E", "plus_code": {"compound_code": "7JJ3+4H Cadillac, Michigan", "global_code": "86PP7JJ3+4H"}, "rating": 4.4, "reference": "ChIJBdc8aHAJH4gRTqeQk6qJF0E", "types": ["general_contractor", "store", "food", "point_of_interest", "establishment"], "user_ratings_total": 29}, {"business_status": "OPERATIONAL", "formatted_address": "931 Wheeler St, Cadillac, MI 49601, United States", "geometry": {"location": {"lat": 44.2602832, "lng": -85.40208489999999}, "viewport": {"northeast": {"lat": 44.26163277989272, "lng": -85.40059552010727}, "southwest": {"lat": 44.25893312010728, "lng": -85.40329517989271}}}, "icon": "https://maps.gstatic.com/mapfiles/place_api/icons/v1/png_71/generic_business-71.png", "icon_background_color": "#7B9EB0", "icon_mask_base_uri": "https://maps.gstatic.com/mapfiles/place_api/icons/v2/generic_pinlet", "name": "A1 Lawn Care", "opening_hours": {"open_now": true}, "place_id": "ChIJk4v9T_sIH4gRBsyyg061d-U", "plus_code": {"compound_code": "7H6X+45 Cadillac, Michigan", "global_code": "86PP7H6X+45"}, "rating": 3.7, "reference": "ChIJk4v9T_sIH4gRBsyyg061d-U", "types": ["point_of_interest", "establishment"], "user_ratings_total": 3}, {"business_status": "OPERATIONAL", "formatted_address": "6930 M-115, Cadillac, MI 49601, United States", "geometry": {"location": {"lat": 44.2236601, "lng": -85.43963269999999}, "viewport": {"northeast": {"lat": 44.22508762989272, "lng": -85.43809787010728}, "southwest": {"lat": 44.22238797010728, "lng": -85.44079752989272}}}, "icon": "https://maps.gstatic.com/mapfiles/place_api/icons/v1/png_71/generic_business-71.png", "icon_background_color": "#7B9EB0", "icon_mask_base_uri": "https://maps.gstatic.com/mapfiles/place_api/icons/v2/generic_pinlet", "name": "Yager Concrete Services LLC", "opening_hours": {"open_now": true}, "photos": [{"height": 4032, "html_attributions": ["<a href=\"https://maps.google.com/maps/contrib/113631559783530594490\">Kirk Warner</a>"], "photo_reference": "AXQCQNTyNs8aq2zoOnSuBUFrVBuQLxjHLNgJCGH3FU2CVZJcRzVhV17DOcJzqOvKqmqfUFspc9A9B3JeS6aRAWujsL8ZSg9O-Y8GE8ATjq3shF7mh05NGaF_jLectB-sRb5hWiKa2XnvJfJ2V0QqT3wRVzPEKckKOaO4wE9fIIis21DlSlATM9tVb6F5nqoPdI4aCODXGpecI-jK1-ioT8HHb0xFLYLHQwVxN0Weutzowj8PyZjdB-1iFCKQtpBZhNnl9QX2xNML7PPgjlw0g9CkYDFz_P87keHcfTECT5Dh_8MS1WdvIywFEFGU5YE541pW8JaPfTg6ZyvV2uYsi4FUFbpB-_qgvW49pHL8i08AWJpQhaZ0kSJsAp3mW1JGcxe-J06uUok8RSi877ny9krPcoKNPVAAycsR0b67aDcPDX-PBfegUmN4UgpWeqarkZdCTsbvSKictYZBJnj-d_bY1rBRfEwAoBrqM61oU7Mypvi6mtc29QSBTvjlkfMKnRdTD0P1WgJaG7nG-65qhIbj_C8DOvodNZH8JltEx5qU2LbVuYWkGQKGWhZTZ0-1hUg5B6_LR7V1Krp7ow", "width": 3024}], "place_id": "ChIJBcEoap0FH4gRpvfybJNJH94", "plus_code": {"compound_code": "6HF6+F4 Cadillac, Michigan", "global_code": "86PP6HF6+F4"}, "rating": 5, "reference": "ChIJBcEoap0FH4gRpvfybJNJH94", "types": ["general_contractor", "point_of_interest", "establishment"], "user_ratings_total": 26}, {"business_status": "OPERATIONAL", "formatted_address": "160 Simmons St, Cadillac, MI 49601, United States", "geometry": {"location": {"lat": 44.2749549, "lng": -85.4002919}, "viewport": {"northeast": {"lat": 44.27630287989272, "lng": -85.39905387010727}, "southwest": {"lat": 44.27360322010728, "lng": -85.40175352989272}}}, "icon": "https://maps.gstatic.com/mapfiles/place_api/icons/v1/png_71/generic_business-71.png", "icon_background_color": "#7B9EB0", "icon_mask_base_uri": "https://maps.gstatic.com/mapfiles/place_api/icons/v2/generic_pinlet", "name": "Quicklawn Hydroseeding", "opening_hours": {"open_now": true}, "photos": [{"height": 608, "html_attributions": ["<a href=\"https://maps.google.com/maps/contrib/102003788317489789229\">Quicklawn Hydroseeding</a>"], "photo_reference": "AXQCQNSWhb9ERc8aPBNLLAfYzWHQ55BWJyFp8f28KaA7v6x1OE06L_qrVakw1VxO7IvI2ZkNa5ETcEEJ_L6Bbf_Xbz9o3PjUYyGIyfTpEKcKParFPOdLumRqGK62_17LEV5EYTPRviOnzVRu5_Jy__ywRxdX9E96s8XiM5k0n9rPGMnaGStAwfBeup5M-R8n3cxSwbQRoa_sE_X6_XpH60YsLCzjkafSWkMJfogTC1iyYMBpj45ySZizV_lqZBQGPed8hPWHP0xOtAQ2o1Z2o8WdiNxY8TrZiiU_h233q0TPYORPHPJFw90", "width": 1080}], "place_id": "ChIJN_GA6lMIH4gR9m0d5n7Blxg", "plus_code": {"compound_code": "7HFX+XV Cadillac, Michigan", "global_code": "86PP7HFX+XV"}, "rating": 3.7, "reference": "ChIJN_GA6lMIH4gR9m0d5n7Blxg", "types": ["general_contractor", "point_of_interest", "establishment"], "user_ratings_total": 3}, {"business_status": "OPERATIONAL", "formatted_address": "6120 M-115, Cadillac, MI 49601, United States", "geometry": {"location": {"lat": 44.2366849, "lng": -85.4547803}, "viewport": {"northeast": {"lat": 44.23792172989272, "lng": -85.45343962010726}, "southwest": {"lat": 44.23522207010728, "lng": -85.45613927989271}}}, "icon": "https://maps.gstatic.com/mapfiles/place_api/icons/v1/png_71/shopping-71.png", "icon_background_color": "#4B96F3", "icon_mask_base_uri": "https://maps.gstatic.com/mapfiles/place_api/icons/v2/shopping_pinlet", "name": "Walraven's Market", "opening_hours": {"open_now": true}, "photos": [{"height": 2250, "html_attributions": ["<a href=\"https://maps.google.com/maps/contrib/102734122894795695833\">Bob Payne</a>"], "photo_reference": "AXQCQNRyuXexuWZOgOviboXL0aNf2ZXVx4lP23mVchfQw0kI9t-373_7umWUTXh9m9ecuna1xwzMSlLb8UPk0FDXKWhNTYSOR6EWPL5K_HjOLsyFJ1s6MsIIrzUq36AIKwUOMfHw9ociUmtgrEBMkR9p7_bM6wALmDn_SHBpzibrh6vegarCxkLVYDVUmrCPnwKy_sBb0jY4PhCZq-qHzHiK5npUl_h1EsJGq9LIkJe-wz3IJaKCM7js3v60SRT1PlGfRCla0p3V-2cLkqvX97Ieqi6fyNX0YOAMXjfMxwjTEoTl_8ojKTXeBxL6Rx5Ir2eXvg72pEeAW6oGU3yqvazX6oJzj6aAwazX5y43E1gHfTKW0SI6t7N0y2ohzTT1ZHxES7Eaa3sZZmtoth1BCbnyaaB-KOrJ17IE2EZ9cm_6TfGa4_4eyNOWLk_vxlaTnOfM9SiQNxURj5biGUnKtJyuuR61DcrvRXy3WZM1nozZUQVk5ug0BifkwTobyjzZNYHH4Jz9oKl7oRmK6qYDgQF1yT8o_ArDYMN2QtcaAUqu-N9KysPohUl4Blq7MWz3vsNdXEhdj2Rx", "width": 4000}], "place_id": "ChIJZcpVpGwGH4gRuXFlwqGv06Y", "plus_code": {"compound_code": "6GPW+M3 Cadillac, Michigan", "global_code": "86PP6GPW+M3"}, "rating": 4.7, "reference": "ChIJZcpVpGwGH4gRuXFlwqGv06Y", "types": ["grocery_or_supermarket", "general_contractor", "store", "food", "point_of_interest", "establishment"], "user_ratings_total": 400}, {"business_status": "OPERATIONAL", "formatted_address": "398 Chestnut St, Cadillac, MI 49601, United States", "geometry": {"location": {"lat": 44.2512902, "lng": -85.4107464}, "viewport": {"northeast": {"lat": 44.25249287989272, "lng": -85.40937092010728}, "southwest": {"lat": 44.24979322010728, "lng": -85.41207057989273}}}, "icon": "https://maps.gstatic.com/mapfiles/place_api/icons/v1/png_71/park-71.png", "icon_background_color": "#4DB546", "icon_mask_base_uri": "https://maps.gstatic.com/mapfiles/place_api/icons/v2/tree_pinlet", "name": "Cadillac Sound Garden", "opening_hours": {"open_now": true}, "photos": [{"height": 3000, "html_attributions": ["<a href=\"https://maps.google.com/maps/contrib/108619697054929988354\">Andrew Mcconnell</a>"], "photo_reference": "AXQCQNRzImSPqxsU1vv2ZLakd0EjLKLXwV-nbAo2-vkspsNBeNBGAW5eVBdRNAXJCmw32nkFv9gNELBBJ4DME7BcM1Fd2oh2-YP-VdyGVDa7Pg8y0Mr6yKBqWAN6ZCvuFtJKnCuR9riKLTYd221w99_9dMsZ2VIQcPBvQaAfLS3SiE6SFsRRUwF0-Dwh9xPcnmDYFI6ialOnvRUUgN80L572GMd7PKPWzU5zkhyNDvQiGfW9XsYkRpOT5ubayfQ0NhHiVrlScPd00_p9dR-Cn1YZGfVrKIGEk4zrXp8Tu1nKFWIQka2XEuYt2yGR6ni-kfXoUnsCZEtTd_SxrMS_9UW0rbwvFvOekJu4HDKe5AfMgZt8OgJKOmUOBVua6Is7JMkE-1pwQ1kz5CiU_dZ3niQNhj2jmuai8eEODmgZ9rDfYYnP4JKjXLerH7ddHG7kodtTTT3TbDk7XFGHYXa_BQrO9KURxtNiqYJXLmS1oX8fF86aPtYI65bcwIvUTQWqSCFsKgYSBh6PfGTs6GgdScwILmrWnNLcpAg4cFGni3FJiNDKGgIF5gmcC1ntuo07VusseuCOwAv9srs2KA", "width": 4000}], "place_id": "ChIJo3bG6OkIH4gR8BlMxi3WsDo", "plus_code": {"compound_code": "7H2Q+GP Cadillac, Michigan", "global_code": "86PP7H2Q+GP"}, "rating": 4.6, "reference": "ChIJo3bG6OkIH4gR8BlMxi3WsDo", "types": ["park", "tourist_attraction", "point_of_interest", "establishment"], "user_ratings_total": 159}, {"business_status": "OPERATIONAL", "formatted_address": "8917 34 Rd, Cadillac, MI 49601, United States", "geometry": {"location": {"lat": 44.284128, "lng": -85.39861359999999}, "viewport": {"northeast": {"lat": 44.28515947989272, "lng": -85.39695762010726}, "southwest": {"lat": 44.28245982010728, "lng": -85.39965727989271}}}, "icon": "https://maps.gstatic.com/mapfiles/place_api/icons/v1/png_71/generic_business-71.png", "icon_background_color": "#7B9EB0", "icon_mask_base_uri": "https://maps.gstatic.com/mapfiles/place_api/icons/v2/generic_pinlet", "name": "Walmart Patio & Garden Services", "opening_hours": {"open_now": true}, "photos": [{"height": 608, "html_attributions": ["<a href=\"https://maps.google.com/maps/contrib/103550626199456615716\">A Google User</a>"], "photo_reference": "AXQCQNTusDmcwqz0Sxsda6JWFx3V_fmjcjdxBC4o4LUqszHhrOqHm2QI1npYlEE6QGTyru26StA90aPgxTy4BG6-qsgTieKt9_u1aDi1PPJFE6kg-PcBaes3B0OvR1MMoGLkLiChhXP6JV_sHff0qh0l0fJLZABOktYMpu4QBPF43xnUgYhiVkArOOmr-Nnufw5KOaI2xN5YsaC3-OWF43CAQ45PV_xfwBnvXyrP3d5EI-Cx2690XjNodAnHQns3bO5ZzlfiN6cVS5Jq2DBIF86w8aGV-25Tpc4CNveha8sWRhw-prkZRQw", "width": 1080}], "place_id": "ChIJMYvIUbcJH4gR17ae0S-Ly_M", "plus_code": {"compound_code": "7JM2+MH Cadillac, Michigan", "global_code": "86PP7JM2+MH"}, "reference": "ChIJMYvIUbcJH4gR17ae0S-Ly_M", "types": ["general_contractor", "point_of_interest", "establishment"]}, {"business_status": "OPERATIONAL", "formatted_address": "6950 Whaley Rd, Cadillac, MI 49601, United States", "geometry": {"location": {"lat": 44.2381116, "lng": -85.38273650000001}, "viewport": {"northeast": {"lat": 44.23943192989272, "lng": -85.38137487010728}, "southwest": {"lat": 44.23673227010728, "lng": -85.38407452989271}}}, "icon": "https://maps.gstatic.com/mapfiles/place_api/icons/v1/png_71/generic_business-71.png", "icon_background_color": "#7B9EB0", "icon_mask_base_uri": "https://maps.gstatic.com/mapfiles/place_api/icons/v2/generic_pinlet", "name": "Dunbar Excavating, Inc.", "opening_hours": {"open_now": true}, "place_id": "ChIJIzGlIjEJH4gR13NCrhYZ3VA", "plus_code": {"compound_code": "6JQ8+7V Cadillac, Michigan", "global_code": "86PP6JQ8+7V"}, "rating": 4, "reference": "ChIJIzGlIjEJH4gR13NCrhYZ3VA", "types": ["general_contractor", "point_of_interest", "establishment"], "user_ratings_total": 3}]