[{"business_status": "OPERATIONAL", "formatted_address": "255 S Main St, Amherst, OH 44001, United States", "geometry": {"location": {"lat": 41.3977941, "lng": -82.2265998}, "viewport": {"northeast": {"lat": 41.39916502989271, "lng": -82.22524832010727}, "southwest": {"lat": 41.39646537010727, "lng": -82.22794797989272}}}, "icon": "https://maps.gstatic.com/mapfiles/place_api/icons/v1/png_71/generic_business-71.png", "icon_background_color": "#7B9EB0", "icon_mask_base_uri": "https://maps.gstatic.com/mapfiles/place_api/icons/v2/generic_pinlet", "name": "Amherst Dental Associates", "opening_hours": {"open_now": true}, "place_id": "ChIJL84Du5J1OogRfnPyHova9Ww", "plus_code": {"compound_code": "9QXF+49 Amherst, Ohio", "global_code": "86HV9QXF+49"}, "rating": 5, "reference": "ChIJL84Du5J1OogRfnPyHova9Ww", "types": ["dentist", "health", "point_of_interest", "establishment"], "user_ratings_total": 504}, {"business_status": "OPERATIONAL", "formatted_address": "401 N Leavitt Rd, Amherst, OH 44001, United States", "geometry": {"location": {"lat": 41.4106963, "lng": -82.2087913}, "viewport": {"northeast": {"lat": 41.41204977989272, "lng": -82.20763692010729}, "southwest": {"lat": 41.40935012010728, "lng": -82.21033657989273}}}, "icon": "https://maps.gstatic.com/mapfiles/place_api/icons/v1/png_71/generic_business-71.png", "icon_background_color": "#7B9EB0", "icon_mask_base_uri": "https://maps.gstatic.com/mapfiles/place_api/icons/v2/generic_pinlet", "name": "Amherst Family Dentistry", "opening_hours": {"open_now": true}, "photos": [{"height": 768, "html_attributions": ["<a href=\"https://maps.google.com/maps/contrib/108707547008665188457\">Amherst Family Dentistry</a>"], "photo_reference": "AXQCQNQaP90LNzKqwqIAHgR-LQaKdFUioFwhW5Psf9YFTBbjEyg09mPiT0Wo_L85ylKEPx4tPMI9Nx2KIYik5MwofshmLdY1u1KZ_1lO0q1Fuec7Zj8Yz6MK7NqjIuRD4DAQHeLpMWeoere2-dEYYPxyPErSKQRsy34WxLJRIyPZcaghGuy4d8EkfB0aFYcbvOU4BopNnMlBku1DezID69SRSd5fv_z5ypoOu2Xgsx-9Tl55oBN5aJolOlheC75Fx-gng3UldO-19pVclTLJmBlMqAX8XoVFn4vtH9t833sr7VY11uohqHg", "width": 1024}], "place_id": "ChIJYyNuXQGeMIgRUsdZf4FEgXA", "plus_code": {"compound_code": "CQ6R+7F Amherst, Ohio", "global_code": "86HVCQ6R+7F"}, "rating": 4.4, "reference": "ChIJYyNuXQGeMIgRUsdZf4FEgXA", "types": ["dentist", "health", "point_of_interest", "establishment"], "user_ratings_total": 50}, {"business_status": "OPERATIONAL", "formatted_address": "2266 Kresge Dr, Amherst, OH 44001, United States", "geometry": {"location": {"lat": 41.41724019999999, "lng": -82.2067299}, "viewport": {"northeast": {"lat": 41.41855912989272, "lng": -82.20539422010728}, "southwest": {"lat": 41.41585947010728, "lng": -82.20809387989273}}}, "icon": "https://maps.gstatic.com/mapfiles/place_api/icons/v1/png_71/generic_business-71.png", "icon_background_color": "#7B9EB0", "icon_mask_base_uri": "https://maps.gstatic.com/mapfiles/place_api/icons/v2/generic_pinlet", "name": "Amherst Neighborhood Dentistry", "opening_hours": {"open_now": true}, "photos": [{"height": 2124, "html_attributions": ["<a href=\"https://maps.google.com/maps/contrib/116021298125703958576\">Amherst Neighborhood Dentistry</a>"], "photo_reference": "AXQCQNQ5thXGIS77kGzsDAlXGQnkFFI2yhcvFtUMGxnWZ9fT79VJZktN8YC4ZxWZW96ecL_OP5ZS5uhlBPunj_pe3fq50XUvBs5GWjxus9R4EZbVsofLCsHYeyKrH9xGaANhdFGuU6kXaxsaIXCIgIFmKxIjGQiwUtrAs_DuNPll3UoDNvbgP16ps-OYSoqngQLFhBv8FBDGDIbDsxnX3pLy3457xr4ha_M3rGfAhMjihs4CbgzJKbXn_TfrUXgqlq0LTKgL8sRHnkpvkmR7Bz-HQhVFJOotxJepErvkTuXb7yPLcW4e", "width": 3775}], "place_id": "ChIJV7heh_2dMIgRuIxvjKcfZLE", "plus_code": {"compound_code": "CQ8V+V8 Amherst, Ohio", "global_code": "86HVCQ8V+V8"}, "rating": 5, "reference": "ChIJV7heh_2dMIgRuIxvjKcfZLE", "types": ["dentist", "doctor", "health", "point_of_interest", "establishment"], "user_ratings_total": 201}, {"business_status": "OPERATIONAL", "formatted_address": "1755 Cooper Foster Park Rd, Amherst, OH 44001, United States", "geometry": {"location": {"lat": 41.4177359, "lng": -82.19647049999999}, "viewport": {"northeast": {"lat": 41.41934742989272, "lng": -82.19511377010727}, "southwest": {"lat": 41.41664777010728, "lng": -82.19781342989272}}}, "icon": "https://maps.gstatic.com/mapfiles/place_api/icons/v1/png_71/generic_business-71.png", "icon_background_color": "#7B9EB0", "icon_mask_base_uri": "https://maps.gstatic.com/mapfiles/place_api/icons/v2/generic_pinlet", "name": "Gregory Sy DDS, & Associates, Inc.", "opening_hours": {"open_now": true}, "photos": [{"height": 3024, "html_attributions": ["<a href=\"https://maps.google.com/maps/contrib/113519778662580805059\">Gregory Sy DDS, &amp; Associates, Inc.</a>"], "photo_reference": "AXQCQNTj0FP_7T0gPoTGKImBBOoQMlNsoYQlzcSFP-g_p-iKQ4axZpY4mERRN-hdWZejCiECKc-FNLxqTwliOf16DaGCYJagOvGvlC269jzn8Lq7gzqU5ifz2dOtYwp2CkWyzQey8rATkb_VrvoDt0zaq04XljfnK_vErqF0TVrrbvyA7tIiYI9WClOy7aM-sfrEUk9aef6_d8ZM62tOpH_r77u-JyUWIsegjNFzeO7dfIVryQnz5RoEze9i18HW5VHheFXub6AFpywGuue1vzpYyHqDAf369KK4VM2MxKd-P-edarhE9Wk", "width": 4032}], "place_id": "ChIJ-7YTUuCdMIgR__dJ-CQPASA", "plus_code": {"compound_code": "CR93+3C Amherst, Ohio", "global_code": "86HVCR93+3C"}, "rating": 4.8, "reference": "ChIJ-7YTUuCdMIgR__dJ-CQPASA", "types": ["dentist", "health", "point_of_interest", "establishment"], "user_ratings_total": 105}, {"business_status": "OPERATIONAL", "formatted_address": "1495 Cooper Foster Park Rd, Amherst, OH 44001, United States", "geometry": {"location": {"lat": 41.4179315, "lng": -82.1920624}, "viewport": {"northeast": {"lat": 41.41943747989273, "lng": -82.19071287010728}, "southwest": {"lat": 41.41673782010728, "lng": -82.19341252989273}}}, "icon": "https://maps.gstatic.com/mapfiles/place_api/icons/v1/png_71/generic_business-71.png", "icon_background_color": "#7B9EB0", "icon_mask_base_uri": "https://maps.gstatic.com/mapfiles/place_api/icons/v2/generic_pinlet", "name": "Matthew J. Elbert, D.D.S. Amherst Dental Professionals", "opening_hours": {"open_now": true}, "photos": [{"height": 870, "html_attributions": ["<a href=\"https://maps.google.com/maps/contrib/102414589382046835392\">Matthew J. Elbert, D.D.S. Amherst Dental Professionals</a>"], "photo_reference": "AXQCQNQ-fqfEZmuPnuqvmRDCH_Hb8o7AnKDZQOBkyaAPvU4B9kUSwARkptk2QnxhwRLXfo5xJa1ppRk679XtmqV08TZeMuAf9LBYe1OWZ5MsRyW9U9mK6ijgq4bjI2o0Gwlpscm90LllgDQJw__EUfJDJ1Cd8eq6YAyJg30o5EFrOxgMc5xaxO8ZA4PSPPNE0CcWewOLYS1W_CWmZCuKCZq3-aYNc8g016IQ-XrCFjLUhDR_YA4FasNHtPPTVBb-GStdDpAUF4OWxIL3nQURPs3OqJ-l6xEdkX8bBNOKWXglSK5V9-yUItw", "width": 1086}], "place_id": "ChIJl6wfw9WdMIgRNelq1PRJ7b8", "plus_code": {"compound_code": "CR95+55 Amherst, Ohio", "global_code": "86HVCR95+55"}, "rating": 5, "reference": "ChIJl6wfw9WdMIgRNelq1PRJ7b8", "types": ["dentist", "health", "point_of_interest", "establishment"], "user_ratings_total": 123}, {"business_status": "OPERATIONAL", "formatted_address": "550 N Leavitt Rd, Amherst, OH 44001, United States", "geometry": {"location": {"lat": 41.4127379, "lng": -82.21178239999999}, "viewport": {"northeast": {"lat": 41.41410052989271, "lng": -82.21035162010726}, "southwest": {"lat": 41.41140087010727, "lng": -82.21305127989271}}}, "icon": "https://maps.gstatic.com/mapfiles/place_api/icons/v1/png_71/generic_business-71.png", "icon_background_color": "#7B9EB0", "icon_mask_base_uri": "https://maps.gstatic.com/mapfiles/place_api/icons/v2/generic_pinlet", "name": "Amherst Oral Surgery and Implant Center", "opening_hours": {"open_now": true}, "photos": [{"height": 1242, "html_attributions": ["<a href=\"https://maps.google.com/maps/contrib/112023984898962358113\">Lauren Pressley</a>"], "photo_reference": "AXQCQNT2lE4Vm8tQLyPn_zSUW3igN6osvaQ_b8FKILpjT8ldTWmIGxrp1tYvbOOft1KvP02Ezu2_CxG5t6JheNUt5clnc8eCHGjZ_uUGkvqPh4Pl41h7BJEZyjE0zasSMkZhlC8coaTU1kHkvVFR8LR4DozWl-lSvuNb4R5cFPS0bpBh0CpLYzyJIKXGkLcKtTz_wrwjzD4vX3eT1vriKjin20ok3o5NLpDzGrCDiTmHvTN34q6gYYDcKr2XUpRJ1t3t3s_U95M522tOl2NrLGsQsnblc24jYka0Fef1dsDjDVOe4FJYZN73DRg7vuyZXrDN_mIHhm0THcCUiRiiDbqCbMBweOFn7ek_x5_RSujvV02G4XDnbV5uWZuZtWLSKLzze9-RszKmRe6ybGcRU7IdornedvCOXR6KwgJtwKINXSALU9WEoatAMoaJu_1P0h1eSEK1XBe2wexJ9kQtVEgNGJfqFHjd6w3GdZ_bUA17Yzy1CNFqB2_QTO1AR5Ordqk-W_ltDKO0WSIwRZs_KNxebs4RfWPLVco9kB7DQIXSc6dB8SEFMbIuSRrjgx68aeUf3AcGi4PT", "width": 2208}], "place_id": "ChIJ1dGCOvrPJIgRartZEy6GjlY", "plus_code": {"compound_code": "CQ7Q+47 Amherst, Ohio", "global_code": "86HVCQ7Q+47"}, "rating": 4.9, "reference": "ChIJ1dGCOvrPJIgRartZEy6GjlY", "types": ["doctor", "health", "point_of_interest", "establishment"], "user_ratings_total": 392}, {"business_status": "OPERATIONAL", "formatted_address": "154 Park Ave, Amherst, OH 44001, United States", "geometry": {"location": {"lat": 41.3982711, "lng": -82.225923}, "viewport": {"northeast": {"lat": 41.39963527989272, "lng": -82.22457292010728}, "southwest": {"lat": 41.39693562010728, "lng": -82.22727257989273}}}, "icon": "https://maps.gstatic.com/mapfiles/place_api/icons/v1/png_71/generic_business-71.png", "icon_background_color": "#7B9EB0", "icon_mask_base_uri": "https://maps.gstatic.com/mapfiles/place_api/icons/v2/generic_pinlet", "name": "Dr. Scott A. Iliff, DDS", "opening_hours": {"open_now": true}, "place_id": "ChIJhzyrq5J1OogRzNQn3iHu0C8", "plus_code": {"compound_code": "9QXF+7J Amherst, Ohio", "global_code": "86HV9QXF+7J"}, "rating": 5, "reference": "ChIJhzyrq5J1OogRzNQn3iHu0C8", "types": ["dentist", "health", "point_of_interest", "establishment"], "user_ratings_total": 4}, {"business_status": "OPERATIONAL", "formatted_address": "550 N Leavitt Rd, Amherst, OH 44001, United States", "geometry": {"location": {"lat": 41.4127603, "lng": -82.2117909}, "viewport": {"northeast": {"lat": 41.41410122989272, "lng": -82.21030972010728}, "southwest": {"lat": 41.41140157010727, "lng": -82.21300937989272}}}, "icon": "https://maps.gstatic.com/mapfiles/place_api/icons/v1/png_71/generic_business-71.png", "icon_background_color": "#7B9EB0", "icon_mask_base_uri": "https://maps.gstatic.com/mapfiles/place_api/icons/v2/generic_pinlet", "name": "CLE Oral and Maxillofacial, Inc. - Amherst", "opening_hours": {"open_now": true}, "photos": [{"height": 1152, "html_attributions": ["<a href=\"https://maps.google.com/maps/contrib/111281180145138257342\">CLE Oral and Maxillofacial, Inc. - Amherst</a>"], "photo_reference": "AXQCQNRU4Y7qg6CIztg23knTEGRp3U1EBFzicWr8eNzNCtVncWLjuc9ncsSVn-mpGh3shGXv4iOgs-lIGIYCUmx-O-VeawBAXiCWL2JO8EHzmHPzuqOMCS3aDABtLhixXPZtuHobpzDrt5x7kd1IbMcuHUY6ge_Z40N0VVjIY-sqnkkNu5aSlAHTLwKZNJiTNy4fZm8i12hdf5rvF3vhYlukLxeqqXXavmBMhRVvBW8uJ9q_YJZ9vnb4hsdcnVkg0W6huk8qxIpiseFJIMTYtsaIA9c12tt0hqRhrV7bCF6a7O1LVV_Ab60", "width": 2048}], "place_id": "ChIJ34hAXxueMIgRG9ixTitwJwc", "plus_code": {"compound_code": "CQ7Q+47 Amherst, Ohio", "global_code": "86HVCQ7Q+47"}, "rating": 4.4, "reference": "ChIJ34hAXxueMIgRG9ixTitwJwc", "types": ["doctor", "health", "point_of_interest", "establishment"], "user_ratings_total": 12}, {"business_status": "OPERATIONAL", "formatted_address": "4785 N Leavitt Rd, Lorain, OH 44053, United States", "geometry": {"location": {"lat": 41.426752, "lng": -82.20479800000001}, "viewport": {"northeast": {"lat": 41.42797077989272, "lng": -82.20356402010728}, "southwest": {"lat": 41.42527112010728, "lng": -82.20626367989273}}}, "icon": "https://maps.gstatic.com/mapfiles/place_api/icons/v1/png_71/generic_business-71.png", "icon_background_color": "#7B9EB0", "icon_mask_base_uri": "https://maps.gstatic.com/mapfiles/place_api/icons/v2/generic_pinlet", "name": "Bright Now! Dental & Orthodontics", "opening_hours": {"open_now": true}, "photos": [{"height": 2268, "html_attributions": ["<a href=\"https://maps.google.com/maps/contrib/114124836312674038978\">Grace Williams</a>"], "photo_reference": "AXQCQNRPK8RVjYV6w7ZYjoWjUcIxt3d938_gM-uMbYQpkLS_YU3RGzYjqVE1dB_IOO2vtFyxOsZa3ttJ2vPljyEEwuUzDbQeC3So3SOuWYi0UmbSNpbl42G04vEe9vp5a_7dHBVuedgt53tlwq_0-NAHwL23zfwyJVHRIB80BSfwbouqXcmSU9TYu8gW3mV77JmPO81HYfL003Z8ua0a8NrPd2UDBvI9WAKhmavesjLi1ag3LcbGGNHm4rpCOcqgexFMlqCJ9q7xyDG2VbJxzRbaGG-SBSsvJuWUGgGDl2mKVYYO6X5ScC3iqFdxzOpt-b6R_z5XTtvPr2F-Y_e8YLuuA5B3sgmpRQg6enIutgKLGHzuzdhJv4Z33KtBFLxCyLkd8TuCtbFmgp5UlXWVvfvaH_fc8xlQwIoEqSWRsFTOol-h-52ldn9PF0JGIuE6OpDiyWbiicet8bcFsEwDKe2mReqNLpijz3-2oMaos3DKkjvRk2e5kvY-E1M1qwwJMTlxAE9afZWBxYe1NPRhzZ15UaBeg-s9fgZNe_DY5FndSTG-vCEwuuGiiARK35dRszC2RRDjFf27", "width": 4032}], "place_id": "ChIJ57pSkPqdMIgRqEFnQb7_HZE", "plus_code": {"compound_code": "CQGW+P3 Lorain, Ohio", "global_code": "86HVCQGW+P3"}, "rating": 3.8, "reference": "ChIJ57pSkPqdMIgRqEFnQb7_HZE", "types": ["dentist", "doctor", "health", "point_of_interest", "establishment"], "user_ratings_total": 498}, {"business_status": "OPERATIONAL", "formatted_address": "221 Church St, Amherst, OH 44001, United States", "geometry": {"location": {"lat": 41.3980589, "lng": -82.22494809999999}, "viewport": {"northeast": {"lat": 41.39940862989273, "lng": -82.22359357010727}, "southwest": {"lat": 41.39670897010728, "lng": -82.22629322989272}}}, "icon": "https://maps.gstatic.com/mapfiles/place_api/icons/v1/png_71/generic_business-71.png", "icon_background_color": "#7B9EB0", "icon_mask_base_uri": "https://maps.gstatic.com/mapfiles/place_api/icons/v2/generic_pinlet", "name": "Musengo Michael A DDS", "opening_hours": {"open_now": true}, "place_id": "ChIJS7eeTo11OogRWxswDA2ihxw", "plus_code": {"compound_code": "9QXG+63 Amherst, Ohio", "global_code": "86HV9QXG+63"}, "rating": 4, "reference": "ChIJS7eeTo11OogRWxswDA2ihxw", "types": ["dentist", "health", "point_of_interest", "establishment"], "user_ratings_total": 13}, {"business_status": "OPERATIONAL", "formatted_address": "211 N Leavitt Rd, Amherst, OH 44001, United States", "geometry": {"location": {"lat": 41.408415, "lng": -82.20877469999999}, "viewport": {"northeast": {"lat": 41.40977497989272, "lng": -82.20753532010728}, "southwest": {"lat": 41.40707532010728, "lng": -82.21023497989273}}}, "icon": "https://maps.gstatic.com/mapfiles/place_api/icons/v1/png_71/generic_business-71.png", "icon_background_color": "#7B9EB0", "icon_mask_base_uri": "https://maps.gstatic.com/mapfiles/place_api/icons/v2/generic_pinlet", "name": "Hudec Dental", "opening_hours": {"open_now": true}, "photos": [{"height": 2076, "html_attributions": ["<a href=\"https://maps.google.com/maps/contrib/109277573406186589449\">Hudec Dental</a>"], "photo_reference": "AXQCQNSAVTZwL_wXbtfmDtnQ__12r3-AFQaTJZZxEcBaNR_NCheoQtQmRLEGb1keOVbmeMiO6HANHWQge6Mss__JJ0UfSoBEV6AKQLWOZCkNL5rltuuN15wQgkLPapMIut2rpqAfoIwXqWypshDyMZNj8NByQV39hEgm8yL81oizYIo6_a6d-1fcEQ63a6mDtII1d3r0rGITbWww_MZkLzPE_OLrKOG_qISp-5UXeojH2DotpGX1R9SpFn7eDtXAOUkzmK2Qf7fTQuV6Mdq_muPfGJ0clz8Hd1WDX0M8NmmqCjqIbhUXVKA", "width": 3780}], "place_id": "ChIJyZbqz_mfMIgRe1S1CSBmwc8", "plus_code": {"compound_code": "CQ5R+9F Amherst, Ohio", "global_code": "86HVCQ5R+9F"}, "rating": 3.8, "reference": "ChIJyZbqz_mfMIgRe1S1CSBmwc8", "types": ["dentist", "doctor", "health", "point_of_interest", "establishment"], "user_ratings_total": 9}, {"business_status": "OPERATIONAL", "formatted_address": "1495 Cooper Foster Park Rd, Amherst, OH 44001, United States", "geometry": {"location": {"lat": 41.4178373, "lng": -82.1919983}, "viewport": {"northeast": {"lat": 41.41915892989272, "lng": -82.19077692010727}, "southwest": {"lat": 41.41645927010727, "lng": -82.19347657989272}}}, "icon": "https://maps.gstatic.com/mapfiles/place_api/icons/v1/png_71/generic_business-71.png", "icon_background_color": "#7B9EB0", "icon_mask_base_uri": "https://maps.gstatic.com/mapfiles/place_api/icons/v2/generic_pinlet", "name": "Patrick J. Elbert, DDS", "opening_hours": {"open_now": true}, "place_id": "ChIJf8wUxt-dMIgR4R8TNWvaaGg", "plus_code": {"compound_code": "CR95+46 Amherst, Ohio", "global_code": "86HVCR95+46"}, "rating": 4.2, "reference": "ChIJf8wUxt-dMIgR4R8TNWvaaGg", "types": ["dentist", "doctor", "health", "point_of_interest", "establishment"], "user_ratings_total": 15}, {"business_status": "OPERATIONAL", "formatted_address": "6100 S Broadway, Lorain, OH 44053, United States", "geometry": {"location": {"lat": 41.4170693, "lng": -82.16396429999999}, "viewport": {"northeast": {"lat": 41.41838077989271, "lng": -82.16254622010726}, "southwest": {"lat": 41.41568112010727, "lng": -82.16524587989271}}}, "icon": "https://maps.gstatic.com/mapfiles/place_api/icons/v1/png_71/generic_business-71.png", "icon_background_color": "#7B9EB0", "icon_mask_base_uri": "https://maps.gstatic.com/mapfiles/place_api/icons/v2/generic_pinlet", "name": "Team Leatherman Care Dentistry", "opening_hours": {"open_now": true}, "photos": [{"height": 720, "html_attributions": ["<a href=\"https://maps.google.com/maps/contrib/115849746474884859386\">Team Leatherman Care Dentistry</a>"], "photo_reference": "AXQCQNRB9JhVQJrfb5nHCHTBT6KUOMtazgjX5q6GV5F340EEN9OATwG6ieEiXvlPhtC4n7WjZ2RonakqyVa-BT4L-kU4Y2rJ9Ut7ZJbKYFfpqfEKOo2pDU9a85p7PkCkMYPf02Y8uY08BfmI6NbcfDjBKC85cAaMri3ueyIxPBTNzsGeeo6rJdEn0Bi6NL-q3BVPu_g6sPXBo4nW5a3o5Wt5TvOkmzKiQPY4Bjsnz_j4nM1Bh7HCT1qKDp8THYUM38kK15oJzPLMJ5fkfDnBk9Notn2L1SX9GPv2XUM8kDXu8aMbJzz1O_8", "width": 960}], "place_id": "ChIJ8fuQBimcMIgRGm7fxK3RwzI", "plus_code": {"compound_code": "CR8P+RC Lorain, Ohio", "global_code": "86HVCR8P+RC"}, "rating": 5, "reference": "ChIJ8fuQBimcMIgRGm7fxK3RwzI", "types": ["dentist", "doctor", "health", "point_of_interest", "establishment"], "user_ratings_total": 687}, {"business_status": "OPERATIONAL", "formatted_address": "1710 Cooper Foster Park Rd # A, Lorain, OH 44053, United States", "geometry": {"location": {"lat": 41.4184613, "lng": -82.1955698}, "viewport": {"northeast": {"lat": 41.41971702989272, "lng": -82.19428797010727}, "southwest": {"lat": 41.41701737010728, "lng": -82.19698762989272}}}, "icon": "https://maps.gstatic.com/mapfiles/place_api/icons/v1/png_71/generic_business-71.png", "icon_background_color": "#7B9EB0", "icon_mask_base_uri": "https://maps.gstatic.com/mapfiles/place_api/icons/v2/generic_pinlet", "name": "Douglas D. Means DMD", "opening_hours": {"open_now": true}, "photos": [{"height": 1600, "html_attributions": ["<a href=\"https://maps.google.com/maps/contrib/116952988610392684021\">Douglas D. Means DMD</a>"], "photo_reference": "AXQCQNTNvwY5wP_qcrCMh-pRPvqTchWx9zti6bvmiY7JJZS-VzW36H1tqCoYsiHXfrGSqwDIFz4pE2H4Fm5iUJmllpZOhauTg6nst6l2nVpoRJaskUKlhaM1VHrNeLM07WFc-YSLaDHgxveaARVVvE2G7bxHDon_IFZ9MoeAXBeozaLzhs5ydeDhiyib7pll85BND-EMKEWK5pWFBegbPxV9f9advcD418BhI9zu4SKuxBGnyNo_zZy0SCyJeLVW1zLO5JIAr88eqH7LxJ0JRVzC58_vycbVkOro4Hs0gSp9yMvicgKwRhg", "width": 2400}], "place_id": "ChIJp8CbreGdMIgRA0UTT6sCrGQ", "plus_code": {"compound_code": "CR93+9Q Lorain, Ohio", "global_code": "86HVCR93+9Q"}, "rating": 5, "reference": "ChIJp8CbreGdMIgRA0UTT6sCrGQ", "types": ["dentist", "health", "point_of_interest", "establishment"], "user_ratings_total": 19}, {"business_status": "OPERATIONAL", "formatted_address": "4800 Oberlin Ave, Lorain, OH 44053, United States", "geometry": {"location": {"lat": 41.425909, "lng": -82.1861382}, "viewport": {"northeast": {"lat": 41.42726022989272, "lng": -82.18474522010729}, "southwest": {"lat": 41.42456057010727, "lng": -82.18744487989272}}}, "icon": "https://maps.gstatic.com/mapfiles/place_api/icons/v1/png_71/generic_business-71.png", "icon_background_color": "#7B9EB0", "icon_mask_base_uri": "https://maps.gstatic.com/mapfiles/place_api/icons/v2/generic_pinlet", "name": "Oberlin Ave Dental", "opening_hours": {"open_now": true}, "photos": [{"height": 3024, "html_attributions": ["<a href=\"https://maps.google.com/maps/contrib/109517633879171704298\">Oberlin Ave Dental</a>"], "photo_reference": "AXQCQNQ6PKSYcYwo9YLq69V8ElEDyiyMsLoycUL45HV5MryO2LTzeMpfRmmIZeNGHCcr4YBzLsvDCG_H2EwZp99I01NSlVyL5jzidlF4ORaaPIjYYSnEnpYG89gwBckGvSyHP31VS761-h4q8D8nfeN5-3H8r4LDMwyzJgVNY2P9ZMdr4suMyq1rq8qZ6-gFvny30qAuHMS44_I4N6Dc7tt6QR9gftydzFmSucbKaWCDdrnxXl0M3ZpQjVyoAdFnr3z3Yb6xHrQoCAAgCY2zvzHA15aOg3GaZ_DPW9Cn5lyUIdZvfxpa9oY", "width": 4032}], "place_id": "ChIJySKXfqGdMIgRNSrGf5nqQfQ", "plus_code": {"compound_code": "CRG7+9G Lorain, Ohio", "global_code": "86HVCRG7+9G"}, "rating": 4.9, "reference": "ChIJySKXfqGdMIgRNSrGf5nqQfQ", "types": ["dentist", "health", "point_of_interest", "establishment"], "user_ratings_total": 195}, {"business_status": "OPERATIONAL", "formatted_address": "690 Cooper Foster Park Rd, Lorain, OH 44053, United States", "geometry": {"location": {"lat": 41.4186084, "lng": -82.1744581}, "viewport": {"northeast": {"lat": 41.41988922989272, "lng": -82.17310127010728}, "southwest": {"lat": 41.41718957010728, "lng": -82.17580092989273}}}, "icon": "https://maps.gstatic.com/mapfiles/place_api/icons/v1/png_71/generic_business-71.png", "icon_background_color": "#7B9EB0", "icon_mask_base_uri": "https://maps.gstatic.com/mapfiles/place_api/icons/v2/generic_pinlet", "name": "Whispering Pines Dental", "opening_hours": {"open_now": true}, "photos": [{"height": 2304, "html_attributions": ["<a href=\"https://maps.google.com/maps/contrib/113902831086703690020\">Whispering Pines Dental</a>"], "photo_reference": "AXQCQNTOxBfrHHC9prmcsa_IQGWUcKdFf633Xxzmi5KJQ70eUOuJwSHCkuDYX7EPFLvCui8C9M-o65F4ETY2XNEkvpWMquq_4VFBM3sphiyldRCjH74tS9AM8u0EmE_JmzjQ-hFiaAReXHTfwweHG_pNx2yB506sruZaLvobse_6ah7uL9XueEKAJknP_pnfdfjQxnK-dUNRekF5dzZkjmFnYBIPDBBywOqTDgY4ph_w5nMXIZcWxipEIuIu9mdVv3saFYgzIvjPSikiD_tdqGRRHyQ4D7zRophdetmU_2WZHvRzMwyp7JY", "width": 3456}], "place_id": "ChIJmwIHXtSdMIgRpUcAyczyUcw", "plus_code": {"compound_code": "CR9G+C6 Lorain, Ohio", "global_code": "86HVCR9G+C6"}, "rating": 4.3, "reference": "ChIJmwIHXtSdMIgRpUcAyczyUcw", "types": ["dentist", "health", "point_of_interest", "establishment"], "user_ratings_total": 39}, {"business_status": "OPERATIONAL", "formatted_address": "1300 Cooper Foster Park Rd, Lorain, OH 44053, United States", "geometry": {"location": {"lat": 41.4187425, "lng": -82.1878922}, "viewport": {"northeast": {"lat": 41.42005167989272, "lng": -82.18654237010728}, "southwest": {"lat": 41.41735202010727, "lng": -82.18924202989271}}}, "icon": "https://maps.gstatic.com/mapfiles/place_api/icons/v1/png_71/generic_business-71.png", "icon_background_color": "#7B9EB0", "icon_mask_base_uri": "https://maps.gstatic.com/mapfiles/place_api/icons/v2/generic_pinlet", "name": "C.R. Sfeir D.D.S., General Dentistry", "opening_hours": {"open_now": true}, "photos": [{"height": 517, "html_attributions": ["<a href=\"https://maps.google.com/maps/contrib/115294229346520365886\">Dr. Camille R. Sfeir, DDS</a>"], "photo_reference": "AXQCQNTvSfYpsWgTaYXqdUxh72t4K4UpSTT8zzmixg2rZqKsvcl25PP2Y34VQnqsckr98fAq4IWIGDoZgraq4xzhLtQKs2abRYxe7XIO1Jg6e_5hDCSNCfGmpsbNscOOZVM5W0D9lgluMOKwhZ_ToByrFyP0vwoBDSphdZmdO7DSIev-gMc1b2eo-K7FbjEkP-QQdY92VblE0pAqjKhQtA9UjpZTlqN8XuM574XjH65dReyXUfH4FhoxZRD36iRWzKWNfdsY5540JMhH2jHi1GhPaeaNBdiPf_GEQpKEdCgZbaeX6w9W", "width": 1359}], "place_id": "ChIJt6ar096dMIgRMKCQ5Vb_k0s", "plus_code": {"compound_code": "CR96+FR Lorain, Ohio", "global_code": "86HVCR96+FR"}, "rating": 4.4, "reference": "ChIJt6ar096dMIgRMKCQ5Vb_k0s", "types": ["dentist", "health", "point_of_interest", "establishment"], "user_ratings_total": 27}, {"business_status": "OPERATIONAL", "formatted_address": "1320 Cooper Foster Park Rd, Lorain, OH 44053, United States", "geometry": {"location": {"lat": 41.41886969999999, "lng": -82.1886881}, "viewport": {"northeast": {"lat": 41.42022237989271, "lng": -82.18740872010729}, "southwest": {"lat": 41.41752272010727, "lng": -82.19010837989272}}}, "icon": "https://maps.gstatic.com/mapfiles/place_api/icons/v1/png_71/generic_business-71.png", "icon_background_color": "#7B9EB0", "icon_mask_base_uri": "https://maps.gstatic.com/mapfiles/place_api/icons/v2/generic_pinlet", "name": "Jennifer G. Robb DMD", "opening_hours": {"open_now": true}, "photos": [{"height": 2448, "html_attributions": ["<a href=\"https://maps.google.com/maps/contrib/101495191863933348668\">John Mitchner</a>"], "photo_reference": "AXQCQNRI5D5Tb6ShNTDWKMAGmyh5ozR36WDQ5hwm9ycjBxuHg95hlv9zwUXS2DKuRPsgevmycFiPQCscicAn69juLv-Axt3VJ1NO6PgC8M6RSe99WcUIYl4vZmhRRtJBKkavrYeaqmTDhhnpcMLRpuQhQjcyKAs8tsHX6a271m5oVeGi9UH7nxMrkGBhBSVHTBn9A_NCJUIEJX6OMyes6XYXYXpI2KuZifSNUJ4jTR4dYlNovITY3bIu_ZzD4AkDV2BmUOu-lQCr6yJ8kTWzBpMxrkAgsDQcXva3tTEc_3FnB2i0iplMkTmvEjeCZLQzK-zVpmzx9-AYX6vfYrTINh0ZMnMPKGb_TVKucch5qXuQRsu9l3yjfZvoDSLko_LlowL1WuTQuJBjT8Ci1rT-yPaIJgT9934MON_poBH8DWor6NbOCqsj0-syjhHd9Byl10GBXgybBE76UfOmw1MJnNKdM4TuTd9dHuNSyGsY65Ki8bZYV2Q3TuOg4FoBhDBdYFXZBkBtkZ_dkTgoB8c3TJRBaxxm-h4YIP6fwxVnFP6VUln5BfB1i2zhby8qRY8eBbP3RkjPL8PSL2GE3XKF769xAsbCAEKy0A", "width": 3264}], "place_id": "ChIJ0Q36ieCdMIgR45rZ6kk5o2o", "plus_code": {"compound_code": "CR96+GG Lorain, Ohio", "global_code": "86HVCR96+GG"}, "rating": 4.7, "reference": "ChIJ0Q36ieCdMIgR45rZ6kk5o2o", "types": ["dentist", "health", "point_of_interest", "establishment"], "user_ratings_total": 56}, {"business_status": "OPERATIONAL", "formatted_address": "199 N Leavitt Rd #100, Amherst, OH 44001, United States", "geometry": {"location": {"lat": 41.4078328, "lng": -82.2087023}, "viewport": {"northeast": {"lat": 41.40908917989272, "lng": -82.20751622010728}, "southwest": {"lat": 41.40638952010728, "lng": -82.21021587989273}}}, "icon": "https://maps.gstatic.com/mapfiles/place_api/icons/v1/png_71/generic_business-71.png", "icon_background_color": "#7B9EB0", "icon_mask_base_uri": "https://maps.gstatic.com/mapfiles/place_api/icons/v2/generic_pinlet", "name": "Jacko Anne DDS", "opening_hours": {"open_now": false}, "place_id": "ChIJnT9EYBueMIgRfdWHucXiPh4", "plus_code": {"compound_code": "CQ5R+4G Amherst, Ohio", "global_code": "86HVCQ5R+4G"}, "rating": 5, "reference": "ChIJnT9EYBueMIgRfdWHucXiPh4", "types": ["dentist", "health", "point_of_interest", "establishment"], "user_ratings_total": 7}, {"business_status": "OPERATIONAL", "formatted_address": "4560 Oberlin Ave, Lorain, OH 44053, United States", "geometry": {"location": {"lat": 41.4290799, "lng": -82.1861018}, "viewport": {"northeast": {"lat": 41.43047297989273, "lng": -82.18465522010727}, "southwest": {"lat": 41.42777332010728, "lng": -82.18735487989271}}}, "icon": "https://maps.gstatic.com/mapfiles/place_api/icons/v1/png_71/generic_business-71.png", "icon_background_color": "#7B9EB0", "icon_mask_base_uri": "https://maps.gstatic.com/mapfiles/place_api/icons/v2/generic_pinlet", "name": "Lorain Family Dental", "opening_hours": {"open_now": true}, "photos": [{"height": 1606, "html_attributions": ["<a href=\"https://maps.google.com/maps/contrib/118105209327656130982\">Lorain Family Dental</a>"], "photo_reference": "AXQCQNRn4-eVZ-wGQGHK72V4Q4d4lK3_Z1UZHNtKqqe34_SLqyZrZUOuX3kA9X9nnMRESEUQzSp5BPZsKe24knfvsnns7Ch375hN8ouzwnebf1qknKHLd1tjxVqAT_8QLu5-aMWNeTrq-POxBO1Q81wjUY0J5Zu0W1HBq1r8P8GWEn7KNgKcZml4dhkFzqAWLtP6wouwE_jIlCwOIQvQR0Hh9vpLYgwPYba6oENb3G2lyGuK6OaaHnYEI3xxSLdZojC_jOIg479Nlba5XHvrG-55SC396sCyzEAmsSe2hSK172We_ZEq0Bg", "width": 2406}], "place_id": "ChIJ__9vQcSdMIgRg847LljVJm0", "plus_code": {"compound_code": "CRH7+JH Lorain, Ohio", "global_code": "86HVCRH7+JH"}, "rating": 4.8, "reference": "ChIJ__9vQcSdMIgRg847LljVJm0", "types": ["dentist", "health", "point_of_interest", "establishment"], "user_ratings_total": 185}]