[{"business_status": "OPERATIONAL", "formatted_address": "6971 Junction Rd Suite 100, Bridgeport, MI 48722, United States", "geometry": {"location": {"lat": 43.336215, "lng": -83.8168723}, "viewport": {"northeast": {"lat": 43.33751187989272, "lng": -83.81524287010728}, "southwest": {"lat": 43.33481222010727, "lng": -83.81794252989273}}}, "icon": "https://maps.gstatic.com/mapfiles/place_api/icons/v1/png_71/generic_business-71.png", "icon_background_color": "#7B9EB0", "icon_mask_base_uri": "https://maps.gstatic.com/mapfiles/place_api/icons/v2/generic_pinlet", "name": "Victors Home Solutions", "opening_hours": {"open_now": true}, "photos": [{"height": 3801, "html_attributions": ["<a href=\"https://maps.google.com/maps/contrib/113102358910480056077\">Victors Home Solutions</a>"], "photo_reference": "AXQCQNRxY6EH_pNaO1sLWGzrB5MaaDmQf_dLLHdpL7NPUO3mCjUgbZZjRxIem-tjuCRRKfMiBoEwi0vEMVTKxr17Hj8SC55-2dDjOr5RhB2Fm7RzQfeUgD3HEIXcKMpVIT5KgrcwsWAUGuN_LUUSRNmg6m_rMAn7OxHBN3D8u-oKA4uYZwlrTigtBn2eRXWa7_kpF-5gyDNA5_pG4AOIc0CEK7yiRNsvJoUJmqnP6if9t6mVUXr-x2YreU6gKjQ9B7vl4GH1GnHnsT-M71_PT3w7xXC7sc79xDfpg-l4Bs9Lz9GJpN4rUdA", "width": 5702}], "place_id": "ChIJPT3gl3rtI4gRM4Wlag7WaVE", "plus_code": {"compound_code": "85PM+F7 Bridgeport, Michigan", "global_code": "86MR85PM+F7"}, "rating": 4.9, "reference": "ChIJPT3gl3rtI4gRM4Wlag7WaVE", "types": ["roofing_contractor", "general_contractor", "point_of_interest", "establishment"], "user_ratings_total": 266}, {"business_status": "OPERATIONAL", "formatted_address": "527 N Woodbridge St, Saginaw, MI 48602, United States", "geometry": {"location": {"lat": 43.4264141, "lng": -83.96672939999999}, "viewport": {"northeast": {"lat": 43.42790167989271, "lng": -83.96549747010728}, "southwest": {"lat": 43.42520202010727, "lng": -83.96819712989272}}}, "icon": "https://maps.gstatic.com/mapfiles/place_api/icons/v1/png_71/generic_business-71.png", "icon_background_color": "#7B9EB0", "icon_mask_base_uri": "https://maps.gstatic.com/mapfiles/place_api/icons/v2/generic_pinlet", "name": "Wobig Construction Co", "opening_hours": {"open_now": true}, "photos": [{"height": 4096, "html_attributions": ["<a href=\"https://maps.google.com/maps/contrib/102103792438987870230\">Gregory Kotlark</a>"], "photo_reference": "AXQCQNSYrl_92D3meCxOE2bDrgRqWSIB58lvg0vAhBWKxtFkC2Wkb0ZqFG_0DvpYF7wnCQPu6XH0p_jcfRvSEblDNWd9LqRfxBRn0PbvDdB3p8CQ2nR_x-7Heerxry-Cg9XHKtHREPZlwHXEf1zXHrP8wdMJkZsD01fpKOFxJodetSdaFpiIBG9xlzHb4VWtOV-oA_Yt60zOJEY5u8VR0CndScC0iE9S43I7HeCN6ZWid5fGazLpj-HNPjVq25HH51KmO45YZJh8TAcyRtdmhBpXDuyL3zYNXxxAmt_q5-VEtnI7IM3iU6X3vQnP9d5N4DyR81rMVu64YiIht3YojJtIO2VBMujyPJhvyA6pam6xfaT-IE8d9hmL4GkfEQDr_ER2Zecpout2TTvvHWclrmo6XGSnVSBXatFJGLXCMGJiThuAt4pbY1NHJ1eBNjmS9hsj8KBbOFu8KYCtpODzn4KspKb-Y03kGvrszwzllKcwi0jbOPVR_ynshiWby0ikauMja-FUHSXDy4XzKOf1vvCMAm_ziciXNrErR_SMXQEFTbt818AP_0jvxTLVAlbCEZU1P8_kDw", "width": 3072}], "place_id": "ChIJC6CL2k7CI4gRaYto2mJxBXc", "plus_code": {"compound_code": "C2GM+H7 Saginaw, Michigan", "global_code": "86MRC2GM+H7"}, "rating": 4.5, "reference": "ChIJC6CL2k7CI4gRaYto2mJxBXc", "types": ["general_contractor", "point_of_interest", "establishment"], "user_ratings_total": 14}, {"business_status": "OPERATIONAL", "formatted_address": "1674 Champagne Dr N, Saginaw, MI 48604, United States", "geometry": {"location": {"lat": 43.4851465, "lng": -83.9509173}, "viewport": {"northeast": {"lat": 43.48629402989272, "lng": -83.94940177010727}, "southwest": {"lat": 43.48359437010728, "lng": -83.95210142989272}}}, "icon": "https://maps.gstatic.com/mapfiles/place_api/icons/v1/png_71/generic_business-71.png", "icon_background_color": "#7B9EB0", "icon_mask_base_uri": "https://maps.gstatic.com/mapfiles/place_api/icons/v2/generic_pinlet", "name": "Pumford Construction, Inc.", "opening_hours": {"open_now": true}, "photos": [{"height": 3934, "html_attributions": ["<a href=\"https://maps.google.com/maps/contrib/113759673137902496642\">Pumford Construction, Inc.</a>"], "photo_reference": "AXQCQNREFhuTIGZ_r-l7ibv3_Bw9SdORJf2W5a1oy8GR6nWebHDqLZ5O91sgnFOo2Zy7hdZdVi3Ri8Bwk88g-NR0BlnRc4b24EVmi-VMcX0Q9kUwfL8sZeEFNWePkxFfT6JF91ZJ6qJJ16Q84iqzpiM3x2B23c5NGaViRuN917fLWmC9MhnIsTU_T8nYFuzIJW5u90rHWo0bMi27PHLzKpGggMmBb3osvTontG76Viqjf3I8tBaHAQX6VCCgbSlUCpYW_zTxzKMK-aTumiw8Z9Dmg7_ITxUNYznIxKZm5MlDv-cMAXcNlhg", "width": 5253}], "place_id": "ChIJo6Dv5kjdI4gRDJh5w-jUd-U", "plus_code": {"compound_code": "F2PX+3J Saginaw, Michigan", "global_code": "86MRF2PX+3J"}, "rating": 4.8, "reference": "ChIJo6Dv5kjdI4gRDJh5w-jUd-U", "types": ["general_contractor", "point_of_interest", "establishment"], "user_ratings_total": 16}, {"business_status": "OPERATIONAL", "formatted_address": "Birch Run, MI 48415, United States", "geometry": {"location": {"lat": 43.3225693, "lng": -83.8995604}, "viewport": {"northeast": {"lat": 43.32365962989272, "lng": -83.89821142010727}, "southwest": {"lat": 43.32095997010727, "lng": -83.90091107989272}}}, "icon": "https://maps.gstatic.com/mapfiles/place_api/icons/v1/png_71/generic_business-71.png", "icon_background_color": "#7B9EB0", "icon_mask_base_uri": "https://maps.gstatic.com/mapfiles/place_api/icons/v2/generic_pinlet", "name": "Bridgeport Builders", "place_id": "ChIJq-JOJhXCI4gRREBRRROUFRc", "plus_code": {"compound_code": "84F2+25 Birch Run, Michigan", "global_code": "86MR84F2+25"}, "reference": "ChIJq-JOJhXCI4gRREBRRROUFRc", "types": ["general_contractor", "point_of_interest", "establishment"]}, {"business_status": "OPERATIONAL", "formatted_address": "5563 Dixie Hwy, Saginaw, MI 48601, United States", "geometry": {"location": {"lat": 43.3783446, "lng": -83.89516549999999}, "viewport": {"northeast": {"lat": 43.37976342989273, "lng": -83.89381792010727}, "southwest": {"lat": 43.37706377010728, "lng": -83.89651757989272}}}, "icon": "https://maps.gstatic.com/mapfiles/place_api/icons/v1/png_71/generic_business-71.png", "icon_background_color": "#7B9EB0", "icon_mask_base_uri": "https://maps.gstatic.com/mapfiles/place_api/icons/v2/generic_pinlet", "name": "Mid-Michigan Contracting, Inc", "opening_hours": {"open_now": true}, "photos": [{"height": 1920, "html_attributions": ["<a href=\"https://maps.google.com/maps/contrib/113298808967228345902\">Steve Badour</a>"], "photo_reference": "AXQCQNQ0bM6PNj17ueLJpqtp3jqlgQPqECx_KkfHeNnH9DtCQXYLTrCqf9g6rpt90R9_T14M1L9oF7X1jWupt_hjvSM8b3OY0fjkwS9Bgd7vxCOZ0Mjoxoy6HVe9lDH26RLp3iEXWgH3NVAoWRnUKcP-s2M1Eh6x_piY2AaMhqNkWHTkxQj3e-LO_GNCIcdDWzld1j_zlhSBrXmJmlbsZav_6n5x_XJE2AUF8pCuUbVhS4lgyF1D6alRayvqsumwdGmkumcvMpajIDemNSkzGQAbIPwjT1kzDAhQpKfb2MLT0LG7iZvUwYmzOE3_rr5UkUtQWaWVLAYPKafsiwIFEDJi9mt4C8Y7SS9FbrvuhsVBaVljp97zCZV1hjUxLT1no-NZpRevNb8sCuNklML_kDcIqtKrtH_Uo2YeTvFkKc6d4GaWledGWxJ6OFF7y1WUa7nYxGyeE52hEj_Q7DGrhksaZ7Y7l8b37tE9Nur9YyXpq0xf3IzTVtY7xEOHy75MiKSe5TgD7OG3vPPwj2NIhaG-7JICiQk2fGtQGulaoFmnftROryozoGQxKQ3o4mSjDr6XmCrrYbql", "width": 2560}], "place_id": "ChIJKWDuAkrqI4gRKADZwKbPyPA", "plus_code": {"compound_code": "94H3+8W Saginaw, Michigan", "global_code": "86MR94H3+8W"}, "rating": 3.5, "reference": "ChIJKWDuAkrqI4gRKADZwKbPyPA", "types": ["general_contractor", "point_of_interest", "establishment"], "user_ratings_total": 8}, {"business_status": "OPERATIONAL", "formatted_address": "9742 Gratiot Rd, Saginaw, MI 48609, United States", "geometry": {"location": {"lat": 43.4164869, "lng": -84.1061493}, "viewport": {"northeast": {"lat": 43.41781987989272, "lng": -84.10475312010729}, "southwest": {"lat": 43.41512022010727, "lng": -84.10745277989272}}}, "icon": "https://maps.gstatic.com/mapfiles/place_api/icons/v1/png_71/generic_business-71.png", "icon_background_color": "#7B9EB0", "icon_mask_base_uri": "https://maps.gstatic.com/mapfiles/place_api/icons/v2/generic_pinlet", "name": "Beagle Construction", "opening_hours": {"open_now": true}, "photos": [{"height": 3662, "html_attributions": ["<a href=\"https://maps.google.com/maps/contrib/114931374652650312749\">Beagle Construction</a>"], "photo_reference": "AXQCQNSUE2mmbAzrbr-_xDll4nLelCSij2y641wTP-wKfLIN82OIkYtzbnmRO4migBDtLWt1v30N1zcGAF2xsNuR5FTu_cnwNH_YaC0MRCyEwi__IEMVxAXRzonRW1dyYuH2-yCcrwQmC7DqFYjFgxUYu6NCA9nbaYJ6qA5AFgTvxCPMfHRqs311_sqOZcgdrEtxtcBtvFv6JSbiYq2UaUyC_fMeNcbRgSoln9QS6qvKafrTFO4c1PJaz1d5-7MC3t0Bs4CybwedRJUTR1dK9C7cGewUJwLl92QoQBgxk35fKh4cO_qXUNs", "width": 5495}], "place_id": "ChIJB3Tc11bPI4gREiZcyI00IUg", "plus_code": {"compound_code": "CV8V+HG Saginaw, Michigan", "global_code": "86MQCV8V+HG"}, "rating": 4.6, "reference": "ChIJB3Tc11bPI4gREiZcyI00IUg", "types": ["home_goods_store", "general_contractor", "store", "point_of_interest", "establishment"], "user_ratings_total": 9}, {"business_status": "OPERATIONAL", "formatted_address": "203 S Washington Ave Suite 360 3rd Floor, Saginaw, MI 48607, United States", "geometry": {"location": {"lat": 43.4316325, "lng": -83.94016839999999}, "viewport": {"northeast": {"lat": 43.43296542989273, "lng": -83.93863822010728}, "southwest": {"lat": 43.43026577010728, "lng": -83.94133787989271}}}, "icon": "https://maps.gstatic.com/mapfiles/place_api/icons/v1/png_71/generic_business-71.png", "icon_background_color": "#7B9EB0", "icon_mask_base_uri": "https://maps.gstatic.com/mapfiles/place_api/icons/v2/generic_pinlet", "name": "Spence Brothers Construction", "opening_hours": {"open_now": true}, "photos": [{"height": 1333, "html_attributions": ["<a href=\"https://maps.google.com/maps/contrib/102216759813897523728\">Spence Brothers Construction</a>"], "photo_reference": "AXQCQNR5l4cBT5vT1FJAvGY_Snvt4CF04M0lM_eTXqAOOBwfVYliH3NqiwGkZhOgOZgsd7tAqKouZBSGemWSGvLrTwbzcQhCQrLQ76vgeKN_8LCQsNWnLv6D9Nj7QvWud26d-IzJZrwQ8DvbAtwoBZGMYyXrr3y5BK9H-VyP5sJ9d0cux46A75a-JAaK_bNSOeT1xiO-knYcgtRhPOqPvGdtoKQ0yyEMFpBlfT6i8LGMqDNbZgK9fngSk0lRa8YL44Hl0H5e-DFUIcoAekxQwkQ0JSn5JwqoJzxPPp-qXhmYtPu-u2IQ0sA", "width": 2000}], "place_id": "ChIJ-S1I9XLCI4gR08kDULn-__Y", "plus_code": {"compound_code": "C3J5+MW Saginaw, Michigan", "global_code": "86MRC3J5+MW"}, "rating": 4.4, "reference": "ChIJ-S1I9XLCI4gR08kDULn-__Y", "types": ["general_contractor", "point_of_interest", "establishment"], "user_ratings_total": 8}, {"business_status": "OPERATIONAL", "formatted_address": "7240 Trinklein Rd, Saginaw, MI 48609, United States", "geometry": {"location": {"lat": 43.3865951, "lng": -84.0568571}, "viewport": {"northeast": {"lat": 43.38786132989271, "lng": -84.05551072010726}, "southwest": {"lat": 43.38516167010727, "lng": -84.05821037989271}}}, "icon": "https://maps.gstatic.com/mapfiles/place_api/icons/v1/png_71/generic_business-71.png", "icon_background_color": "#7B9EB0", "icon_mask_base_uri": "https://maps.gstatic.com/mapfiles/place_api/icons/v2/generic_pinlet", "name": "J & J Contracting", "opening_hours": {"open_now": true}, "photos": [{"height": 4032, "html_attributions": ["<a href=\"https://maps.google.com/maps/contrib/101716960507751661922\">Victoria Krupnek</a>"], "photo_reference": "AXQCQNTRYSX6GH4wzj5ygKD8ZN2enksdiaJYNoVpXIah3EPeKN7K3Ntv2hRTO62TlvMGQL9v4QNkB6tdxusrzKJ7tA2UcomNmGsRfxDjWz5zvnfXYEUvAFf91oYYoyT8w1sopLJhFzoyd2koQZjb8Fsn1BLzqSXoegFJ5kWBuCgv5rhN4e-IjotLTWKI2mWWQnZLXLGfDjxBXOBLRpSH-3joZ65mkw0JA8v5OJLXO4zFTVfnHWwFr3fDyCBArOToojyC0MrES0cAVwe8uZaJy_1Eew7pU2pOF5BBIfPL1tnCbFLI-8YqCVe12bdxOMMCXNRihZmHDhWOmwfIk773Yavo4zIJ3KIFQpBsEbmLOgR6-N6CUGsU_86A1bx5jZxmVb8gFHFGFgQ4baWAwR_muHMYC1er3A7-Lc9xKQixEJP5Bi7FXV5aFpfhpCsTHOzr8vGdFvH2ZTKhs40m74q1oIAQU_Y7ObQ7ttLLy6JBEGEu7W6fQLT8yiIIXnOR7oatzj9GE87pWMUlNA60yhnI-B9t5Rg0QqmlVQprh62VAw1L6te9Au57ur1hxM-7HSr_VG9O_GyJqKknAC-DJXeN3NT5JTfFKag_SA", "width": 3024}], "place_id": "ChIJJZF4L_XGI4gROZn4IiuTmrk", "plus_code": {"compound_code": "9WPV+J7 Saginaw, Michigan", "global_code": "86MQ9WPV+J7"}, "rating": 3.3, "reference": "ChIJJZF4L_XGI4gROZn4IiuTmrk", "types": ["general_contractor", "point_of_interest", "establishment"], "user_ratings_total": 14}, {"business_status": "OPERATIONAL", "formatted_address": "7190 Rookway Rd, Bridgeport, MI 48722, United States", "geometry": {"location": {"lat": 43.3186735, "lng": -83.84818399999999}, "viewport": {"northeast": {"lat": 43.32018342989272, "lng": -83.84651072010726}, "southwest": {"lat": 43.31748377010728, "lng": -83.84921037989271}}}, "icon": "https://maps.gstatic.com/mapfiles/place_api/icons/v1/png_71/generic_business-71.png", "icon_background_color": "#7B9EB0", "icon_mask_base_uri": "https://maps.gstatic.com/mapfiles/place_api/icons/v2/generic_pinlet", "name": "Taylor Construction LLC.", "opening_hours": {"open_now": true}, "place_id": "ChIJs4FNHXHrI4gRI4wsfHTnkaM", "plus_code": {"compound_code": "8592+FP Bridgeport, Michigan", "global_code": "86MR8592+FP"}, "reference": "ChIJs4FNHXHrI4gRI4wsfHTnkaM", "types": ["general_contractor", "point_of_interest", "establishment"]}, {"business_status": "OPERATIONAL", "formatted_address": "4900 Zelle Dr, Bridgeport, MI 48722, United States", "geometry": {"location": {"lat": 43.3518997, "lng": -83.8617238}, "viewport": {"northeast": {"lat": 43.35313057989271, "lng": -83.86009807010727}, "southwest": {"lat": 43.35043092010727, "lng": -83.8627977298927}}}, "icon": "https://maps.gstatic.com/mapfiles/place_api/icons/v1/png_71/generic_business-71.png", "icon_background_color": "#7B9EB0", "icon_mask_base_uri": "https://maps.gstatic.com/mapfiles/place_api/icons/v2/generic_pinlet", "name": "Asi Building Products LLC", "opening_hours": {"open_now": true}, "photos": [{"height": 2448, "html_attributions": ["<a href=\"https://maps.google.com/maps/contrib/103045858297377592926\">Asi Building Products LLC</a>"], "photo_reference": "AXQCQNTrRI4b2DsUnFgnWBuAaqOAH0cpatl-F2zKHxIjq9xlpgvYMaiXFYoOAoasecGxJ4zyIG19S-VBe9qMlMUmtE25-_XuoACFclhm_OTbpx5-o3zj_4LxuF1ksWQ5rtg0l-vGlJpmT4XHNFasOTYYRF3iH6u8FMyTnvqL7HtB3uHciqHdjzZ4BBVEEZ2i3yaZv6evcm7A3eK7AzM2dCeGu1-0g2tHbCnrOVZe8Kw5uodMAIGxTS2I_c-EosUPtTAzIPk3ODhjdGHGo5KKJ9-h_nvtMBWwF_JbYbzY61ShjELWS10BlpE", "width": 3264}], "place_id": "ChIJ_3SIGhXpI4gRP5oX_QhYC14", "plus_code": {"compound_code": "942Q+Q8 Bridgeport, Michigan", "global_code": "86MR942Q+Q8"}, "rating": 4.6, "reference": "ChIJ_3SIGhXpI4gRP5oX_QhYC14", "types": ["point_of_interest", "establishment"], "user_ratings_total": 25}, {"business_status": "OPERATIONAL", "formatted_address": "10219 Evans Rd, Saginaw, MI 48609, United States", "geometry": {"location": {"lat": 43.4123609, "lng": -84.11669160000001}, "viewport": {"northeast": {"lat": 43.41371437989272, "lng": -84.11516242010728}, "southwest": {"lat": 43.41101472010728, "lng": -84.11786207989273}}}, "icon": "https://maps.gstatic.com/mapfiles/place_api/icons/v1/png_71/generic_business-71.png", "icon_background_color": "#7B9EB0", "icon_mask_base_uri": "https://maps.gstatic.com/mapfiles/place_api/icons/v2/generic_pinlet", "name": "Schiebner Construction", "opening_hours": {"open_now": true}, "photos": [{"height": 3024, "html_attributions": ["<a href=\"https://maps.google.com/maps/contrib/106414711902625755696\">Benjamin Adams</a>"], "photo_reference": "AXQCQNQxBMvnL5npYxD5u1rP-YidnhqixD-ph_NEzABU9f9yemB8tlFEtid6rB_NISUxVWMKyGqz2Fg9QIhL_388s7Yzysl4R32lyY-X24pd0buK02uru7GZuUlQhLcL8NZG5HE9nrnxYChjRWbVygqaRa3apZILn_oBZ38bX0eO8rhdr-FcZR1PYYFcAKzz2v4TAoWE7QsF7Uhwze5HQHYleuvytvLI7qaxjP6P4vWqF3PuyaFwNt7UT1SqZrLTSH7-54HBiU8MMDxW9NgkhYvLhJZ8CKYJTC7Hy-Ht5LqHZG0a1r-SL035FLzF-pQaHZQhpvoIn7SLYGSFo76pBxmkb6BetoRakmngRfoPKxSyf_3kPZ5N6ZsylS4J_dcjPu0UUEkdOz8kqwurRMALzFB5XwPXm16T8ghfoU36LzYtk5Ad1vXyXtd0NmkWpVmBaQeW0s4SXBuDMju7aSYbCb8pLIkpKucbeU3xcvGB21yeemXu36pZH8GDZl6kKH6oZBTln7gOMiQ7C1l3MokNgP_2NH4BR54cyxObCas6s75lJPH0n-LPaoJZEwMctMKhjDj1ttl3YCHw", "width": 4032}], "place_id": "ChIJKQebb0zPI4gRN0YLDOvtDq4", "plus_code": {"compound_code": "CV6M+W8 Saginaw, Michigan", "global_code": "86MQCV6M+W8"}, "rating": 4.3, "reference": "ChIJKQebb0zPI4gRN0YLDOvtDq4", "types": ["general_contractor", "point_of_interest", "establishment"], "user_ratings_total": 3}, {"business_status": "OPERATIONAL", "formatted_address": "4097 Pierce Rd, Saginaw, MI 48604, United States", "geometry": {"location": {"lat": 43.5081801, "lng": -83.99597150000001}, "viewport": {"northeast": {"lat": 43.50972587989272, "lng": -83.99460752010728}, "southwest": {"lat": 43.50702622010728, "lng": -83.99730717989273}}}, "icon": "https://maps.gstatic.com/mapfiles/place_api/icons/v1/png_71/generic_business-71.png", "icon_background_color": "#7B9EB0", "icon_mask_base_uri": "https://maps.gstatic.com/mapfiles/place_api/icons/v2/generic_pinlet", "name": "Agnew Concrete Construction", "opening_hours": {"open_now": true}, "photos": [{"height": 720, "html_attributions": ["<a href=\"https://maps.google.com/maps/contrib/110995506644442555631\">A Google User</a>"], "photo_reference": "AXQCQNS_h0ZkM-Xn2nXrdPCeMUwTfKIm_ub4IJAIn3v389eYgbZYfga-FZC3lTYfJXujWPBQouJu7WxZJWZVwFLXmdme2DPtlJtLCIDPSVg0zYBbg5Lff4rO6KFDtLbSeuHORCusdVDFr-SSxJQ2oguBkXF-QQvI-JWipWmeNG59eakeSRmL3BRSJEq-xlBffpGZDDQXI2mirzhDHgw-82iegk5vvWmj1HW2giUw8IfvXOWCuTR86v0QMz471gLi0QXOlGexf2pRjADi8_j7Jhd_qv4gYRooTIQW2T6lSlAlWMSdq5qngmQ", "width": 960}], "place_id": "ChIJGWZH-zHdI4gRo5BDL_EbvtA", "plus_code": {"compound_code": "G253+7J Saginaw, Michigan", "global_code": "86MRG253+7J"}, "rating": 4.9, "reference": "ChIJGWZH-zHdI4gRo5BDL_EbvtA", "types": ["general_contractor", "point_of_interest", "establishment"], "user_ratings_total": 8}, {"business_status": "OPERATIONAL", "formatted_address": "372 List St, Frankenmuth, MI 48734, United States", "geometry": {"location": {"lat": 43.3202882, "lng": -83.731011}, "viewport": {"northeast": {"lat": 43.32148627989272, "lng": -83.72991882010729}, "southwest": {"lat": 43.31878662010728, "lng": -83.73261847989274}}}, "icon": "https://maps.gstatic.com/mapfiles/place_api/icons/v1/png_71/generic_business-71.png", "icon_background_color": "#7B9EB0", "icon_mask_base_uri": "https://maps.gstatic.com/mapfiles/place_api/icons/v2/generic_pinlet", "name": "Eagle Construction", "opening_hours": {"open_now": true}, "photos": [{"height": 1536, "html_attributions": ["<a href=\"https://maps.google.com/maps/contrib/102037159770557247486\">A Google User</a>"], "photo_reference": "AXQCQNQ1i-j5UDM88CRGoNUpfdOELCsVC9Ebid40NduribED70Ud917kg8ceUMzIcfE651ABb8A_Di0E_ZxbdGwJFp49Jl5_Z4cEB3jWyJ-dya_QqbVt7-9GoUfj5ORF0mcDWV8zvYSaYSqA0RHzP-r3qzpHWZkzc1NwwWsemx0wEWvfSIKEEDfN_-pcbtXmhH--MxkYT9oSiqYPFNhn2KLiPCLuVurw3-mvb0v59hw3bQA0bZovnVPuPLkYqhsuPh00mNnSx4GRhJpfp8U2bP-IMlpMp6efyW99DtE9vyIjDpg1jqhn06A", "width": 2048}], "place_id": "ChIJYwpuB_2MI4gRODZRHJDcMuk", "plus_code": {"compound_code": "87C9+4H Frankenmuth, Michigan", "global_code": "86MR87C9+4H"}, "rating": 4.7, "reference": "ChIJYwpuB_2MI4gRODZRHJDcMuk", "types": ["general_contractor", "point_of_interest", "establishment"], "user_ratings_total": 26}, {"business_status": "OPERATIONAL", "formatted_address": "913 Ridgeland Dr, Saginaw, MI 48604, United States", "geometry": {"location": {"lat": 43.459925, "lng": -83.953935}, "viewport": {"northeast": {"lat": 43.46136607989272, "lng": -83.95258372010728}, "southwest": {"lat": 43.45866642010727, "lng": -83.95528337989272}}}, "icon": "https://maps.gstatic.com/mapfiles/place_api/icons/v1/png_71/generic_business-71.png", "icon_background_color": "#7B9EB0", "icon_mask_base_uri": "https://maps.gstatic.com/mapfiles/place_api/icons/v2/generic_pinlet", "name": "Affordable Remodeling & Home Improvements LLC", "opening_hours": {"open_now": true}, "photos": [{"height": 1152, "html_attributions": ["<a href=\"https://maps.google.com/maps/contrib/115496710066898030891\">Affordable Remodeling &amp; Home Improvements LLC</a>"], "photo_reference": "AXQCQNSHoH7g9r4xRFMvXjPEKiaT57774cywGyjFArcDFuKQEWZzhpVfu9kYNRMgzoxRBaqayT1J18UBeDHaQ-5XbW6Ll91cHYnbgj5VvocRIJZaEBPVSjL5iiCc8DvsEtFDSUEa1lV-9d7bpDZ_5d9iuVFgnWl52-MUVJHkDiXGKgDChTfnjzBerEqocXOLcgRc5HUDOXgQR6C763qcwi09Ku936V-C_YTqorhxymPMyeHLF8UK5gtHSs4-LSwGXZKMNwtBAH6k_Q6vcJzYAO0Up8K0BZhwXbivX2MUvCj26gRxFCWtX1Y", "width": 2048}], "place_id": "ChIJyz6eEsDCI4gRBmMeSzEM-UA", "plus_code": {"compound_code": "F25W+XC Saginaw, Michigan", "global_code": "86MRF25W+XC"}, "rating": 5, "reference": "ChIJyz6eEsDCI4gRBmMeSzEM-UA", "types": ["general_contractor", "roofing_contractor", "home_goods_store", "store", "point_of_interest", "establishment"], "user_ratings_total": 2}, {"business_status": "OPERATIONAL", "formatted_address": "6971 Junction Rd, Bridgeport, MI 48722, United States", "geometry": {"location": {"lat": 43.3362979, "lng": -83.816957}, "viewport": {"northeast": {"lat": 43.33758637989272, "lng": -83.81528762010728}, "southwest": {"lat": 43.33488672010728, "lng": -83.81798727989272}}}, "icon": "https://maps.gstatic.com/mapfiles/place_api/icons/v1/png_71/generic_business-71.png", "icon_background_color": "#7B9EB0", "icon_mask_base_uri": "https://maps.gstatic.com/mapfiles/place_api/icons/v2/generic_pinlet", "name": "HELP LLC", "opening_hours": {"open_now": true}, "photos": [{"height": 675, "html_attributions": ["<a href=\"https://maps.google.com/maps/contrib/104487644754463418551\">A Google User</a>"], "photo_reference": "AXQCQNRIvvoWSaxzA7DvJLTStYDGDYYa-rWKSNN2lqTNli5XNBYUhqdpap7sxnKq9K-TI_ZubpdanLYPy8WwMNfU7iycAAKBkjmEgy4hYNsnqF4P4uMmDDtP9fumDI0DDhx404VdrDdgaAdDSkIOMZ4ESHgWyuB-pdruZ5YE_DksoRzi12AISDsbiLEa2sy8GB6xiHFRDucXp-khqz9PrtboHEZA7pmtO_eyOWlRQNtIkXOdNlLAxLupi8kXp2_po7YGOel-Nt_VawsanPZUn6eQoCWW4sqBwtrQNceD6kOBAJRqjVlnUCQ", "width": 1089}], "place_id": "ChIJ7wYPCz7tI4gRiU8F3bD_yI8", "plus_code": {"compound_code": "85PM+G6 Bridgeport, Michigan", "global_code": "86MR85PM+G6"}, "rating": 4.6, "reference": "ChIJ7wYPCz7tI4gRiU8F3bD_yI8", "types": ["point_of_interest", "establishment"], "user_ratings_total": 118}, {"business_status": "OPERATIONAL", "formatted_address": "3145 S Airport Rd, Bridgeport, MI 48722, United States", "geometry": {"location": {"lat": 43.3771431, "lng": -83.8564542}, "viewport": {"northeast": {"lat": 43.37848912989272, "lng": -83.85527807010727}, "southwest": {"lat": 43.37578947010727, "lng": -83.85797772989272}}}, "icon": "https://maps.gstatic.com/mapfiles/place_api/icons/v1/png_71/generic_business-71.png", "icon_background_color": "#7B9EB0", "icon_mask_base_uri": "https://maps.gstatic.com/mapfiles/place_api/icons/v2/generic_pinlet", "name": "Bergman Electric LLC", "opening_hours": {"open_now": true}, "photos": [{"height": 3024, "html_attributions": ["<a href=\"https://maps.google.com/maps/contrib/112087399219804041587\">Bergman Electric LLC</a>"], "photo_reference": "AXQCQNTgU350wfYKleGynaZJx3_xJJyVQSFQjcrOsmYuYJ7B7Phy9DFoLCTspLUfh_hhdumRG-dbOOeBpXbdH6SgD6HzjvjtqixbHQgYc9I0JyGRtYf9VVlJ1ZxTJJMJL5ROrXo1nj7_ss2aVokDpQQ-_4bGM96kf6J_VMZlVUUfWf5AXf0x5jYOHDD5jLl-OjAggs_klTwlLj9iETjI07SxwAn5W_PNNMsALQMSFyxwYFljKR0ILJbt0W2apreXJ_6k36Fh591-_K985IWm-Q2gKZG0KN8b8Vqd0sd7tuD6Nz06PFaTHB0", "width": 4032}], "place_id": "ChIJyYEofMDyI4gReFKlxKki9Ls", "plus_code": {"compound_code": "94GV+VC Bridgeport, Michigan", "global_code": "86MR94GV+VC"}, "rating": 4.9, "reference": "ChIJyYEofMDyI4gReFKlxKki9Ls", "types": ["electrician", "point_of_interest", "establishment"], "user_ratings_total": 110}, {"business_status": "OPERATIONAL", "formatted_address": "4857 Reimer Rd, Bridgeport, MI 48722, United States", "geometry": {"location": {"lat": 43.351408, "lng": -83.816171}, "viewport": {"northeast": {"lat": 43.35275257989272, "lng": -83.81511057010728}, "southwest": {"lat": 43.35005292010728, "lng": -83.81781022989273}}}, "icon": "https://maps.gstatic.com/mapfiles/place_api/icons/v1/png_71/generic_business-71.png", "icon_background_color": "#7B9EB0", "icon_mask_base_uri": "https://maps.gstatic.com/mapfiles/place_api/icons/v2/generic_pinlet", "name": "Frankenmuth Kitchens", "place_id": "ChIJmeVWQ_fsI4gRQiNAvOo2BAg", "plus_code": {"compound_code": "952M+HG Bridgeport, Michigan", "global_code": "86MR952M+HG"}, "rating": 5, "reference": "ChIJmeVWQ_fsI4gRQiNAvOo2BAg", "types": ["general_contractor", "point_of_interest", "establishment"], "user_ratings_total": 1}, {"business_status": "OPERATIONAL", "formatted_address": "2035 Mahar Dr, Saginaw, MI 48601, United States", "geometry": {"location": {"lat": 43.3206932, "lng": -83.95431160000001}, "viewport": {"northeast": {"lat": 43.32213637989273, "lng": -83.95296302010726}, "southwest": {"lat": 43.31943672010728, "lng": -83.95566267989271}}}, "icon": "https://maps.gstatic.com/mapfiles/place_api/icons/v1/png_71/generic_business-71.png", "icon_background_color": "#7B9EB0", "icon_mask_base_uri": "https://maps.gstatic.com/mapfiles/place_api/icons/v2/generic_pinlet", "name": "NexGen Asphalt and Sealcoating", "opening_hours": {"open_now": true}, "photos": [{"height": 3000, "html_attributions": ["<a href=\"https://maps.google.com/maps/contrib/106747102323779742442\">NexGen Asphalt and Sealcoating</a>"], "photo_reference": "AXQCQNScCvkHCxoDPUxpGAj3YT0V8AbmEroiXPxYCc6s0f8xkbBAKb10eKxz-679roZI5LYJTQ0SylpkKE_maT1nlPHA4fZSM-00_K8DuQe9sOVZZujTDZ2f5V5LTjMjSPYVYXmYmfYwHKgXSr9yAa9d3jqol_q5qjXWiFvl3qF_0UGn9Xi2ml-ymw1KWcPWsahU2c1XdyLx_i-FeXJGZgBJukbFUyn_sTBzYzHpULtqZ-ksZWn16EDlSzpD7h_-WSMZTGs8Usx2mzOIEKew4YPtBW5r1KBmoL1gXbIlPqhp9J-Axb4WG2k", "width": 4000}], "place_id": "ChIJ795xfAG_I4gRPHqmeTAHvio", "plus_code": {"compound_code": "82CW+77 Saginaw, Michigan", "global_code": "86MR82CW+77"}, "rating": 4.3, "reference": "ChIJ795xfAG_I4gRPHqmeTAHvio", "types": ["general_contractor", "point_of_interest", "establishment"], "user_ratings_total": 6}, {"business_status": "OPERATIONAL", "formatted_address": "4600 AIS Dr, Bridgeport, MI 48722, United States", "geometry": {"location": {"lat": 43.3562044, "lng": -83.86508859999999}, "viewport": {"northeast": {"lat": 43.35756262989272, "lng": -83.86369852010726}, "southwest": {"lat": 43.35486297010728, "lng": -83.86639817989271}}}, "icon": "https://maps.gstatic.com/mapfiles/place_api/icons/v1/png_71/generic_business-71.png", "icon_background_color": "#7B9EB0", "icon_mask_base_uri": "https://maps.gstatic.com/mapfiles/place_api/icons/v2/generic_pinlet", "name": "Contractors Rental Corp", "place_id": "ChIJJ2xvoALrI4gR6JpNU6Hx7HM", "plus_code": {"compound_code": "944P+G3 Bridgeport, Michigan", "global_code": "86MR944P+G3"}, "reference": "ChIJJ2xvoALrI4gR6JpNU6Hx7HM", "types": ["point_of_interest", "establishment"]}, {"business_status": "OPERATIONAL", "formatted_address": "1445 Liberty Rd, Saginaw, MI 48604, United States", "geometry": {"location": {"lat": 43.501113, "lng": -83.9443927}, "viewport": {"northeast": {"lat": 43.50250522989273, "lng": -83.94304097010728}, "southwest": {"lat": 43.49980557010728, "lng": -83.94574062989271}}}, "icon": "https://maps.gstatic.com/mapfiles/place_api/icons/v1/png_71/generic_business-71.png", "icon_background_color": "#7B9EB0", "icon_mask_base_uri": "https://maps.gstatic.com/mapfiles/place_api/icons/v2/generic_pinlet", "name": "Champagne & Marx Excavating", "opening_hours": {"open_now": true}, "photos": [{"height": 1536, "html_attributions": ["<a href=\"https://maps.google.com/maps/contrib/106933769534792759865\">Champagne &amp; Marx Excavating</a>"], "photo_reference": "AXQCQNQeya05sVLUo1fzyx8-4jIOnpvYqP8_NxxpVRd_5xDl7vTw7HkLjaBYDxRZFwRb-jo7cg1WqmPBMKTBZfw9XtbaJv-J2vOs9S7Vimd1hGyq9j3qGNG__pA-KVy_xBrzNThaKtvNdq4wjiTsWho1vSK6ezccaeqLqoeWnXv84a0BwYjoeoL_9GZeeD1M53cohajBE9chH6ZbrUoa0biHjwK1hwkSwWjyFWgx-hdmvawQ9X77R78Tp7UOACtxbz7IZ_gAY6QmXrJmZIbP7XPu0OpxAfZLqSJBoNvrpIDvMqzKeHXPmGo", "width": 2048}], "place_id": "ChIJU-35zGjdI4gR6ffKl-A2j9I", "plus_code": {"compound_code": "G324+C6 Saginaw, Michigan", "global_code": "86MRG324+C6"}, "rating": 4.5, "reference": "ChIJU-35zGjdI4gR6ffKl-A2j9I", "types": ["general_contractor", "point_of_interest", "establishment"], "user_ratings_total": 26}]