[{"business_status": "OPERATIONAL", "formatted_address": "26704 Van Dyke Ave, Center Line, MI 48015, United States", "geometry": {"location": {"lat": 42.4899953, "lng": -83.02745850000001}, "viewport": {"northeast": {"lat": 42.49134352989272, "lng": -83.02623207010727}, "southwest": {"lat": 42.48864387010727, "lng": -83.02893172989272}}}, "icon": "https://maps.gstatic.com/mapfiles/place_api/icons/v1/png_71/generic_business-71.png", "icon_background_color": "#7B9EB0", "icon_mask_base_uri": "https://maps.gstatic.com/mapfiles/place_api/icons/v2/generic_pinlet", "name": "Fairfield Construction LLC", "opening_hours": {"open_now": true}, "place_id": "ChIJy_kDkYTQJIgRXOd2L636hng", "plus_code": {"compound_code": "FXQF+X2 Center Line, Michigan", "global_code": "86JRFXQF+X2"}, "rating": 4.7, "reference": "ChIJy_kDkYTQJIgRXOd2L636hng", "types": ["general_contractor", "point_of_interest", "establishment"], "user_ratings_total": 13}, {"business_status": "OPERATIONAL", "formatted_address": "8281 E 10 Mile Rd, Center Line, MI 48015, United States", "geometry": {"location": {"lat": 42.4779456, "lng": -83.02261229999999}, "viewport": {"northeast": {"lat": 42.47909362989272, "lng": -83.02128372010728}, "southwest": {"lat": 42.47639397010728, "lng": -83.02398337989271}}}, "icon": "https://maps.gstatic.com/mapfiles/place_api/icons/v1/png_71/generic_business-71.png", "icon_background_color": "#7B9EB0", "icon_mask_base_uri": "https://maps.gstatic.com/mapfiles/place_api/icons/v2/generic_pinlet", "name": "LANDMARKER CONSTRUCTION", "opening_hours": {"open_now": false}, "photos": [{"height": 3024, "html_attributions": ["<a href=\"https://maps.google.com/maps/contrib/101015118366978232001\">A Google User</a>"], "photo_reference": "AXQCQNSlEjPCfkdCEk-bcjED0FZfgYWunRKROGBR0b5NiuTDxkRdzeq_L2N541UCjf-DOUc6kwNCDhKa9KvMCGx5mEGV324R6HNpFlwfeDBw8MWlYVxSA6VjbDn5tR1AlrHa2RIdpkiWC0D3VpEq7MZdLy_7XFVcVrZtxR-48fDbWg2iiW08cnWNjuntWopRDVr0oL8ImFqIPD2XJNPC7_RQ3zr6dLLaFFxS5ztsGKr8105LJg2ndT8-cg_7olKlRde2uMgPLRj53aUXigDJYTIAuLaG_ObsQE8c9sWEfy4QsPPcd3h6cY4", "width": 4032}], "place_id": "ChIJvSZx75vRJIgReCGlvQTkxCE", "plus_code": {"compound_code": "FXHG+5X Center Line, Michigan", "global_code": "86JRFXHG+5X"}, "rating": 5, "reference": "ChIJvSZx75vRJIgReCGlvQTkxCE", "types": ["general_contractor", "point_of_interest", "establishment"], "user_ratings_total": 2}, {"business_status": "OPERATIONAL", "formatted_address": "25180 Thomas Dr, Warren, MI 48091, United States", "geometry": {"location": {"lat": 42.4779018, "lng": -83.0703796}, "viewport": {"northeast": {"lat": 42.47923462989272, "lng": -83.06916707010727}, "southwest": {"lat": 42.47653497010727, "lng": -83.07186672989272}}}, "icon": "https://maps.gstatic.com/mapfiles/place_api/icons/v1/png_71/generic_business-71.png", "icon_background_color": "#7B9EB0", "icon_mask_base_uri": "https://maps.gstatic.com/mapfiles/place_api/icons/v2/generic_pinlet", "name": "Mike's Construction", "photos": [{"height": 3024, "html_attributions": ["<a href=\"https://maps.google.com/maps/contrib/114315948342844888816\">Mike&#39;s Construction</a>"], "photo_reference": "AXQCQNQqV1G-R93bEr4sJqlKyD2X56F_e6FDaLjULk9nGnusFwJ0yR8pKlhyNHtA8WjY-vPx6n0Mz-0-V57_O74Tiyd4lLoJml2hkXoSVdCxHpXWBR6-t06a8HlKiC7_PL5UsD8R5-ol5KtYgc1wjWqykpE63maywdlX8wfFSTK0Tnw2JvwKuRk3AFwWugrcxeMd6NVuMmDp1OL64Gqs27t-QTjDrGLc-UJwZ3LTPPvaVRRXIcpN4ob6KdvFZzpFxFwbBHsDR8wB-hmqm_EB5xq-_EQQ8L62GmTE6VtxbpgKCapihy2VJ6Q", "width": 4032}], "place_id": "ChIJJzrpdRjQJIgRLyeQox9RsB0", "plus_code": {"compound_code": "FWHH+5V Warren, Michigan", "global_code": "86JRFWHH+5V"}, "rating": 4.9, "reference": "ChIJJzrpdRjQJIgRLyeQox9RsB0", "types": ["roofing_contractor", "general_contractor", "point_of_interest", "establishment"], "user_ratings_total": 37}, {"business_status": "OPERATIONAL", "formatted_address": "17805 E 10 Mile Rd, Roseville, MI 48066, United States", "geometry": {"location": {"lat": 42.4800869, "lng": -82.9381191}, "viewport": {"northeast": {"lat": 42.48138922989272, "lng": -82.93676942010727}, "southwest": {"lat": 42.47868957010728, "lng": -82.93946907989272}}}, "icon": "https://maps.gstatic.com/mapfiles/place_api/icons/v1/png_71/generic_business-71.png", "icon_background_color": "#7B9EB0", "icon_mask_base_uri": "https://maps.gstatic.com/mapfiles/place_api/icons/v2/generic_pinlet", "name": "Affordable Construction & Remodeling", "opening_hours": {"open_now": true}, "place_id": "ChIJ2cJOH5DXJIgRGDnOKNg7WMw", "plus_code": {"compound_code": "F3J6+3Q Roseville, Michigan", "global_code": "86JVF3J6+3Q"}, "rating": 4.3, "reference": "ChIJ2cJOH5DXJIgRGDnOKNg7WMw", "types": ["general_contractor", "point_of_interest", "establishment"], "user_ratings_total": 6}, {"business_status": "OPERATIONAL", "formatted_address": "22120 Ryan Rd, Warren, MI 48091, United States", "geometry": {"location": {"lat": 42.45739409999999, "lng": -83.06317299999999}, "viewport": {"northeast": {"lat": 42.45881452989271, "lng": -83.06182667010727}, "southwest": {"lat": 42.45611487010727, "lng": -83.06452632989271}}}, "icon": "https://maps.gstatic.com/mapfiles/place_api/icons/v1/png_71/generic_business-71.png", "icon_background_color": "#7B9EB0", "icon_mask_base_uri": "https://maps.gstatic.com/mapfiles/place_api/icons/v2/generic_pinlet", "name": "In-Line Construction", "opening_hours": {"open_now": true}, "place_id": "ChIJc9Z2YMvRJIgR5gBYWkjCSSM", "plus_code": {"compound_code": "FW4P+XP Warren, Michigan", "global_code": "86JRFW4P+XP"}, "rating": 3.7, "reference": "ChIJc9Z2YMvRJIgR5gBYWkjCSSM", "types": ["general_contractor", "point_of_interest", "establishment"], "user_ratings_total": 6}, {"business_status": "OPERATIONAL", "formatted_address": "26820 Dequindre Rd, Warren, MI 48091, United States", "geometry": {"location": {"lat": 42.4901744, "lng": -83.0846076}, "viewport": {"northeast": {"lat": 42.49141257989272, "lng": -83.08320892010728}, "southwest": {"lat": 42.48871292010728, "lng": -83.08590857989272}}}, "icon": "https://maps.gstatic.com/mapfiles/place_api/icons/v1/png_71/generic_business-71.png", "icon_background_color": "#7B9EB0", "icon_mask_base_uri": "https://maps.gstatic.com/mapfiles/place_api/icons/v2/generic_pinlet", "name": "Creative Building & Remodeling", "opening_hours": {"open_now": true}, "photos": [{"height": 720, "html_attributions": ["<a href=\"https://maps.google.com/maps/contrib/115238174277887150405\">Creative Building &amp; Remodeling</a>"], "photo_reference": "AXQCQNTgUaZhNk2bTKQ3mokmqisBKh3KcTmt1vu57klX_uUh1kp5fescld0Jck2YjyHr2DYPbGxPbf6HQO3cp9VxW9UEmVlIbSAyZTTlpt9trKtPOTeAM5lRxHjzqMEnO8EsUiR0aVSoIYNqTHCOtlPCz7ukbhHjz4R-KDOGuuQ1yxmwzfXhIgoEozZEbQcox_mt_xJim7AZO6_7Q5E-KN5k3UvJUYa_oaZxP-Me_1zV4fmAmeXb59feyMqvr2Lphl4yRHq8zrALTSCMtdk6J40zYy2CnS8VVlOZzNnBXcyA9icLSvA5DZc", "width": 720}], "place_id": "ChIJ_9XHXPvPJIgRZ34ojeVEa_M", "plus_code": {"compound_code": "FWR8+35 Warren, Michigan", "global_code": "86JRFWR8+35"}, "rating": 4.6, "reference": "ChIJ_9XHXPvPJIgRZ34ojeVEa_M", "types": ["home_goods_store", "general_contractor", "store", "point_of_interest", "establishment"], "user_ratings_total": 228}, {"business_status": "OPERATIONAL", "formatted_address": "26300 Sherwood Ave, Warren, MI 48091, United States", "geometry": {"location": {"lat": 42.4862777, "lng": -83.04061089999999}, "viewport": {"northeast": {"lat": 42.48767752989271, "lng": -83.03899277010728}, "southwest": {"lat": 42.48497787010727, "lng": -83.04169242989272}}}, "icon": "https://maps.gstatic.com/mapfiles/place_api/icons/v1/png_71/generic_business-71.png", "icon_background_color": "#7B9EB0", "icon_mask_base_uri": "https://maps.gstatic.com/mapfiles/place_api/icons/v2/generic_pinlet", "name": "Angelo Iafrate Construction", "opening_hours": {"open_now": true}, "photos": [{"height": 3640, "html_attributions": ["<a href=\"https://maps.google.com/maps/contrib/107925598610430406914\">Zach Wolfe</a>"], "photo_reference": "AXQCQNTupNv6rnSi1NcQ3biGQcz3MydNxDLQsSQKej5jgusmrrDp0qfjyNEVktW5q_f1lGC5WY1WkSeEai7X0HS0z51ghA0y98HQBGAr_VkKN5QsTwvMF2lvXghtPgeNxJjv7GTk1Z7Z4f01sa_os6-kOA4Cqvba2hy--p5r9eD4xU0rk4Vf_c41R4O3rzH4OxRXmoFLrPB3XzszdUeHT9U4KA6cAW8hSaJ8s4IpAPHjjVZ2sdtLGkr-JQjtMHWWAIbcCeTQT9JaYoJS959xcTkniYXVZj3P2yF1f-MoG9QWk4qstKq77gmALel-VBS4YtaIXbco3VVMTafqQT4_JDveeJus2VBPaXTCVUQX2UEByT6nMssib3zGBQdubdtosfphc5Su-jnjZxK6qiW2LWHg-xyGNlqzJU1h0jzh0UKMc5dRrAEbPr2yYG3EIoWooyWcWC-_D4WFRKhx11QsmU8l9Dq-YvFH-UPJxQ_e22oI9aTIZXmH_C6cnZMRH4i6cVFjbdwvNedq4yCQoDZzIkLkpvevFhKvwaUGDpuED8HEw97vzfmf6uh9ohwDoKFctniWuj0y99bx", "width": 5464}], "place_id": "ChIJEdaPMWPQJIgRgZvqc1leDM8", "plus_code": {"compound_code": "FXP6+G3 Warren, Michigan", "global_code": "86JRFXP6+G3"}, "rating": 4.1, "reference": "ChIJEdaPMWPQJIgRgZvqc1leDM8", "types": ["general_contractor", "point_of_interest", "establishment"], "user_ratings_total": 41}, {"business_status": "OPERATIONAL", "formatted_address": "203 S Lafayette Blvd, Warren, MI 48091, United States", "geometry": {"location": {"lat": 42.4504252, "lng": -83.07470300000001}, "viewport": {"northeast": {"lat": 42.45181677989272, "lng": -83.07335792010728}, "southwest": {"lat": 42.44911712010728, "lng": -83.07605757989273}}}, "icon": "https://maps.gstatic.com/mapfiles/place_api/icons/v1/png_71/generic_business-71.png", "icon_background_color": "#7B9EB0", "icon_mask_base_uri": "https://maps.gstatic.com/mapfiles/place_api/icons/v2/generic_pinlet", "name": "Enochs construction llc", "opening_hours": {"open_now": true}, "photos": [{"height": 4000, "html_attributions": ["<a href=\"https://maps.google.com/maps/contrib/104039476463507215224\">A Google User</a>"], "photo_reference": "AXQCQNQOVXBOH-QJUBhwruyTKojA_diCyECjEKCFg7mTt068LpXMtbhivr0G93oudFchqZGrt7-y_5FPztAyEJIUs5v1gYgY0asQl6vs_EAS6MuDVr4mtjZCeH5ryfaRC7j4vcTAaLe_bEUJ-u1U9aLIeyoFaVek3ZvTaR25F_9fyZtPeKNR13ZYSrt82HJgsXGT4ZaJISmkkzjeCRjLw5Uf2ewGlua6nTpA2Cs53RKHqeGLzmDZrQoB9SvALVSsW7SDWKjQ4ReCJgpqxa8BT92m2FjZUKha58iHveotffHk53AFaPBnaK0", "width": 3000}], "place_id": "ChIJKZc7B57PJIgRT765KxTd3C4", "plus_code": {"compound_code": "FW2G+54 Warren, Michigan", "global_code": "86JRFW2G+54"}, "rating": 5, "reference": "ChIJKZc7B57PJIgRT765KxTd3C4", "types": ["roofing_contractor", "general_contractor", "point_of_interest", "establishment"], "user_ratings_total": 10}, {"business_status": "OPERATIONAL", "formatted_address": "26304 Falmouth Dr, Warren, MI 48089, United States", "geometry": {"location": {"lat": 42.4870577, "lng": -83.009183}, "viewport": {"northeast": {"lat": 42.48841002989273, "lng": -83.00789547010727}, "southwest": {"lat": 42.48571037010728, "lng": -83.01059512989272}}}, "icon": "https://maps.gstatic.com/mapfiles/place_api/icons/v1/png_71/generic_business-71.png", "icon_background_color": "#7B9EB0", "icon_mask_base_uri": "https://maps.gstatic.com/mapfiles/place_api/icons/v2/generic_pinlet", "name": "Hensler Remodeling, LLC", "opening_hours": {"open_now": true}, "place_id": "ChIJ26C-dQTRJIgRFAbQarFK_Yc", "plus_code": {"compound_code": "FXPR+R9 Warren, Michigan", "global_code": "86JRFXPR+R9"}, "rating": 3, "reference": "ChIJ26C-dQTRJIgRFAbQarFK_Yc", "types": ["point_of_interest", "establishment"], "user_ratings_total": 2}, {"business_status": "OPERATIONAL", "formatted_address": "32640 Dequindre Rd B, Warren, MI 48092, United States", "geometry": {"location": {"lat": 42.5319844, "lng": -83.0857011}, "viewport": {"northeast": {"lat": 42.53341297989272, "lng": -83.08413222010728}, "southwest": {"lat": 42.53071332010727, "lng": -83.08683187989273}}}, "icon": "https://maps.gstatic.com/mapfiles/place_api/icons/v1/png_71/generic_business-71.png", "icon_background_color": "#7B9EB0", "icon_mask_base_uri": "https://maps.gstatic.com/mapfiles/place_api/icons/v2/generic_pinlet", "name": "My Quality Construction of Warren", "opening_hours": {"open_now": true}, "photos": [{"height": 5161, "html_attributions": ["<a href=\"https://maps.google.com/maps/contrib/106867116084602194647\">leslie tonon</a>"], "photo_reference": "AXQCQNRd-zdjfkD8DW8UbkK4yLNOoZrIHC9ZmYZKhSBFBTtfgZbzmnIKpbU4zWNP03sMJ9XnqHe0yWZoHivX0y4ytIIwHkQ9_fMb_eQ_UVq5f9gidbMfM_Q9iYXjnwAeBBoyW5IAGGyF5dU8yUmaw0Fqf-56dZoJ0HyJ16zBUjUMz3O7zDjtaL8-mYEHzwqfJdHwpPsJxBPQe7IcoYemvktDvbfk2kfLqJ1Zjf0wz5ccnaDyrbKbpeegLMbMknFyl_Vs_fClJo7qPzvt74xUeHVj_ZEd4Av5wdD2b_E9PC6hLc9_X_zmCmUx8nASSQrQ1eFEdsVpPp2EyDinQBvszCudFRI4Ey0kH_Ij5h8Nx2WJ5b-imRsmJBUtjafyd64R_qWxscZ2oHWSJFjNJ_0W3-dM6Futetbmp8w-BiQCV4Xde9-LFZxZ5X0Dq3yJHFiOLkhsa53S2i3KbEXuWY2aevmXSzRVPmYJMlKMjj1Y8YZ2fRG3d2bD8LD0I_MRQuruxigGwUYtcs97_GOWElA4jRdIj7Xd47Pomxxp0RTXg2Ve4QxIWvvRkeJCrV_4A01Be9s4K6B6Dg", "width": 4281}], "place_id": "ChIJ18j_CSjFJIgRI_mbEsJazTA", "plus_code": {"compound_code": "GWJ7+QP Warren, Michigan", "global_code": "86JRGWJ7+QP"}, "rating": 4.9, "reference": "ChIJ18j_CSjFJIgRI_mbEsJazTA", "types": ["roofing_contractor", "general_contractor", "point_of_interest", "establishment"], "user_ratings_total": 42}, {"business_status": "OPERATIONAL", "formatted_address": "13491 8 Mile Rd, Warren, MI 48089, United States", "geometry": {"location": {"lat": 42.44978140000001, "lng": -82.9866739}, "viewport": {"northeast": {"lat": 42.45101752989272, "lng": -82.98531962010728}, "southwest": {"lat": 42.44831787010728, "lng": -82.98801927989273}}}, "icon": "https://maps.gstatic.com/mapfiles/place_api/icons/v1/png_71/generic_business-71.png", "icon_background_color": "#7B9EB0", "icon_mask_base_uri": "https://maps.gstatic.com/mapfiles/place_api/icons/v2/generic_pinlet", "name": "Lunar Home Improvement", "opening_hours": {"open_now": true}, "photos": [{"height": 3024, "html_attributions": ["<a href=\"https://maps.google.com/maps/contrib/118367396816488565656\">Lea Madjoff</a>"], "photo_reference": "AXQCQNTrqC8s1m3bsXXRviaOopuBmns0BVS9QncjColo9qScS7uZDTeuOKysPXXL5CKNrmXaBi0rD4VDCJaMZFg3KXeiQKUgkeWhIrgZlXxbWQ1O_veFQeEfpzlNPSBjfP9O-VpHynfcL_R53C9jmPafS0ca-Y5dJPiB8QY1UGoLOmGP3qdT2qPjGeThmK_WRxi0f7fwjrLx_vBgEDfpE9a7OEwn2H1bevfSt6WqDYHZOEkwUiy5lpGpxFKyz-3B0GabtNVCaL6s9WENscYPdpeS943DWwF2vQCSV1Oe0595mgaI7IEKX02aIUCUb-F6wBlTrSTwLeW_90s5Hdo6xXfWfA8MBG8xT9f1VLGHp1cIA8na8KNCMWQIP1yFbnrW-rOD_XhdVDm8AehrId6C6jbqnvenVeXfmcwwcIvh_sKVMh3ih5_nsHco1MJJTh0JY6hipCzFr4f7aDYqk937BCTCLi130PUx9sB3GvdppmxHvv0Zl3Mw5V-QHvhSYzwzqSjZwWpyZqFraB03KXsUVsFT36ESBn1gdSUCjvRd0S7gdFqeeg174Qt_ThQZr9leP7lhl3DOracU", "width": 4032}], "place_id": "ChIJC1uEkczXJIgRbX2TEk2zaIo", "plus_code": {"compound_code": "C2X7+W8 Warren, Michigan", "global_code": "86JVC2X7+W8"}, "rating": 3.8, "reference": "ChIJC1uEkczXJIgRbX2TEk2zaIo", "types": ["general_contractor", "roofing_contractor", "home_goods_store", "store", "point_of_interest", "establishment"], "user_ratings_total": 22}, {"business_status": "OPERATIONAL", "formatted_address": "6770 E 10 Mile Rd, Center Line, MI 48015, United States", "geometry": {"location": {"lat": 42.4767837, "lng": -83.03576129999999}, "viewport": {"northeast": {"lat": 42.47820342989272, "lng": -83.03446832010727}, "southwest": {"lat": 42.47550377010727, "lng": -83.03716797989271}}}, "icon": "https://maps.gstatic.com/mapfiles/place_api/icons/v1/png_71/generic_business-71.png", "icon_background_color": "#7B9EB0", "icon_mask_base_uri": "https://maps.gstatic.com/mapfiles/place_api/icons/v2/generic_pinlet", "name": "TRJ Construction Group, LLC", "opening_hours": {"open_now": true}, "photos": [{"height": 480, "html_attributions": ["<a href=\"https://maps.google.com/maps/contrib/106695467736819615400\">A Google User</a>"], "photo_reference": "AXQCQNQYkk-LWBWEcaXimk9aDciD17kngaf2yjVZhzp_-VQoL6FeUBcytBChp-_IaRv5tWP31ktGuDw4lcIM7Ed-mLs--GcQnPLlUJMtWODX8BOaZbC0BUW9BG3itH3KE191vFD5D9Hdq2_mItwriHk5GkHfHG_f_1g_Cx5akSEhwVBK6ADJbdbLA8wJl-bCOWzDkUXFgt20DCIoqkKaL2tyPPVgNcCMNhp3hVxbb6TwlEfjNcaPgUI3LKDtNz0JQ4d7G-CF68JRqxc5oN9YtnX9Mr42QSlv9PEhC4KnKDAjp-1NAZEEQqE", "width": 640}], "place_id": "ChIJ75W8eljRJIgRiRaWAz8bGu0", "plus_code": {"compound_code": "FXG7+PM Center Line, Michigan", "global_code": "86JRFXG7+PM"}, "reference": "ChIJ75W8eljRJIgRiRaWAz8bGu0", "types": ["home_goods_store", "general_contractor", "store", "point_of_interest", "establishment"]}, {"business_status": "OPERATIONAL", "formatted_address": "425 S Main St, Clawson, MI 48017, United States", "geometry": {"location": {"lat": 42.5297086, "lng": -83.14579909999999}, "viewport": {"northeast": {"lat": 42.53105697989272, "lng": -83.14450967010727}, "southwest": {"lat": 42.52835732010728, "lng": -83.14720932989272}}}, "icon": "https://maps.gstatic.com/mapfiles/place_api/icons/v1/png_71/generic_business-71.png", "icon_background_color": "#7B9EB0", "icon_mask_base_uri": "https://maps.gstatic.com/mapfiles/place_api/icons/v2/generic_pinlet", "name": "Kastler Construction Inc", "opening_hours": {"open_now": true}, "photos": [{"height": 485, "html_attributions": ["<a href=\"https://maps.google.com/maps/contrib/102752902273746930875\">Kastler Construction Inc</a>"], "photo_reference": "AXQCQNRpskp83TDrgV0lnHlahmMRGIhKI3JMC-7uSU5NLMxWqxVn2T67BdLtr2w_zIkPvsOqJtYpZypld4sRReSinDVunszq1i9xAMF_nLQoS864tZ3jNW-9ekqX9msiYpYBZjbbHqZK4OsFDuK2YA7LHpDHh2oGKMniN0NAMEUtiE3YiphTbZdKSIFXp8mZYSkaYbhSZ3WHkDMIEqjCraTIYrgR-h5XvIR7PeJY8G80UlVRTlO6pa4KNcdAtKP0U3CQCurDJkktOW7RDWL5pFVKx8olVhsv09ZOMOK2gzpgLerGk3DD_QQ", "width": 900}], "place_id": "ChIJ1d8e0V7PJIgRGP8FGTWeTWc", "plus_code": {"compound_code": "GVH3+VP Clawson, Michigan", "global_code": "86JRGVH3+VP"}, "rating": 4.9, "reference": "ChIJ1d8e0V7PJIgRGP8FGTWeTWc", "types": ["home_goods_store", "general_contractor", "store", "point_of_interest", "establishment"], "user_ratings_total": 32}, {"business_status": "OPERATIONAL", "formatted_address": "27222 Gloede Dr suite b, Warren, MI 48088, United States", "geometry": {"location": {"lat": 42.4962121, "lng": -82.97117990000001}, "viewport": {"northeast": {"lat": 42.49748522989272, "lng": -82.97003562010727}, "southwest": {"lat": 42.49478557010728, "lng": -82.9727352798927}}}, "icon": "https://maps.gstatic.com/mapfiles/place_api/icons/v1/png_71/generic_business-71.png", "icon_background_color": "#7B9EB0", "icon_mask_base_uri": "https://maps.gstatic.com/mapfiles/place_api/icons/v2/generic_pinlet", "name": "L&S Home Improvements", "opening_hours": {"open_now": true}, "photos": [{"height": 1081, "html_attributions": ["<a href=\"https://maps.google.com/maps/contrib/104104360583105049008\">L&amp;S Home Improvements</a>"], "photo_reference": "AXQCQNT7UWQ1LrKGBsNdFVd3LySzxHWfhoc_n2pde-kp0CsNk3V6Wz4SRoB5SiDvI-pFVj244wBoSE7fSZPjqp95swXhVbvnsHHA5jeaxj9XQ6HB4xC626NBDMjkdk01cXnmv_GAHHpWXJ8Sa3miqn7t4spmqrSyx4tAAA9Nvd9C3xhldnnXIX2qBr3ZQ5kZVSwScPA5QbnHqVtpF0q6witjrFpXGPjAjcuSboGoXbkS1bry5IIoRNhGzDTdlPGGtKPcrBKP5qVXrgf29Kk2xLpVPq-KVPbj_tnZUlMcrClzrGRQe749gRw", "width": 1920}], "place_id": "ChIJz55PHt7ZJIgRn-k3fWZjRgM", "plus_code": {"compound_code": "F2WH+FG Warren, Michigan", "global_code": "86JVF2WH+FG"}, "rating": 4.9, "reference": "ChIJz55PHt7ZJIgRn-k3fWZjRgM", "types": ["roofing_contractor", "point_of_interest", "establishment"], "user_ratings_total": 277}, {"business_status": "OPERATIONAL", "formatted_address": "6490 E 10 Mile Rd Suite 2000B, Center Line, MI 48015, United States", "geometry": {"location": {"lat": 42.47655460000001, "lng": -83.0383612}, "viewport": {"northeast": {"lat": 42.47800367989272, "lng": -83.03683902010728}, "southwest": {"lat": 42.47530402010728, "lng": -83.03953867989273}}}, "icon": "https://maps.gstatic.com/mapfiles/place_api/icons/v1/png_71/generic_business-71.png", "icon_background_color": "#7B9EB0", "icon_mask_base_uri": "https://maps.gstatic.com/mapfiles/place_api/icons/v2/generic_pinlet", "name": "Dapco Construction Corporation", "opening_hours": {"open_now": false}, "place_id": "ChIJTzmW4lrQJIgRdhxABlkaIxY", "plus_code": {"compound_code": "FXG6+JM Center Line, Michigan", "global_code": "86JRFXG6+JM"}, "rating": 3.4, "reference": "ChIJTzmW4lrQJIgRdhxABlkaIxY", "types": ["general_contractor", "point_of_interest", "establishment"], "user_ratings_total": 5}, {"business_status": "OPERATIONAL", "formatted_address": "16801 Wyoming Ave, Detroit, MI 48221, United States", "geometry": {"location": {"lat": 42.4146543, "lng": -83.1604294}, "viewport": {"northeast": {"lat": 42.41593732989272, "lng": -83.15905812010728}, "southwest": {"lat": 42.41323767010728, "lng": -83.16175777989272}}}, "icon": "https://maps.gstatic.com/mapfiles/place_api/icons/v1/png_71/generic_business-71.png", "icon_background_color": "#7B9EB0", "icon_mask_base_uri": "https://maps.gstatic.com/mapfiles/place_api/icons/v2/generic_pinlet", "name": "Beyond All Standards Construction Company", "opening_hours": {"open_now": true}, "photos": [{"height": 360, "html_attributions": ["<a href=\"https://maps.google.com/maps/contrib/115006929572321670766\">Beyond All Standards Construction Company</a>"], "photo_reference": "AXQCQNRGJpPIPmcQH8Rzk4Kg3y0vs4LfI-1kEh3km9F4XLu9tEsGC6xOOuMQbJgFrdNSFJeWsmD8meTett8dBHJ7eXeHu3AwYpyJsE-PihfsSuZZooxsPF641Ijf4M4lVAJmYl_AHhFFoDOGr8MLuXiwmuuIkS4ZaHmil8YHpr1lOVv-GeNV_BLQ4Hf-NqMel3bbxgqd_6gNJADDru6k7sGuX5U5wimhgXRzS2COwyznaineFxUMNgNN77NZHnAEz_j5Bi3zPgxM9zjlAl7OilBNmiRtT-yM4HrMYhWFEHrFsMGu1soKWrA", "width": 480}], "place_id": "ChIJuSSn-IbNJIgR9qCmMj52qH4", "plus_code": {"compound_code": "CR7Q+VR Detroit, Michigan", "global_code": "86JRCR7Q+VR"}, "rating": 4.9, "reference": "ChIJuSSn-IbNJIgR9qCmMj52qH4", "types": ["roofing_contractor", "home_goods_store", "general_contractor", "store", "point_of_interest", "establishment"], "user_ratings_total": 34}, {"business_status": "OPERATIONAL", "formatted_address": "6490 E 10 Mile Rd, Center Line, MI 48015, United States", "geometry": {"location": {"lat": 42.47655340000001, "lng": -83.03822919999999}, "viewport": {"northeast": {"lat": 42.47800767989273, "lng": -83.03689312010728}, "southwest": {"lat": 42.47530802010728, "lng": -83.03959277989273}}}, "icon": "https://maps.gstatic.com/mapfiles/place_api/icons/v1/png_71/shopping-71.png", "icon_background_color": "#4B96F3", "icon_mask_base_uri": "https://maps.gstatic.com/mapfiles/place_api/icons/v2/shopping_pinlet", "name": "Home Pro USA", "opening_hours": {"open_now": false}, "photos": [{"height": 3024, "html_attributions": ["<a href=\"https://maps.google.com/maps/contrib/108445661376544520223\">Home Pro USA</a>"], "photo_reference": "AXQCQNTVHsJlrNKYZM17tGvClyBMOeeK123eNAwfFzdvlpW99bzf7Vq2WUFdwAvG4RzmVjUGfsHBpD2OvHHZAnkbs1gfx9wvSc_UfVeVhW-piKdgPSVc3zaZMas5C-fhp9DG5w-D3Da-Q9w-OAToGS-tR4mUcor-Bvh2oKMkexdhlPzQN8spPOxHhsuWdXoA1hVg6GMVZBa4gKwk_W3OelmD9Y5mnCwsTOscGWNrChSIjPsCdFLzZ6W_dBiXV0C5uEuLhaRFwnL8_JHHvnXCFFl2FFABzQScoyE5AZ_0FlEF1Kiv9sfs3Wk", "width": 4032}], "place_id": "ChIJCfdM11_QJIgRjybGgecgKcA", "plus_code": {"compound_code": "FXG6+JP Center Line, Michigan", "global_code": "86JRFXG6+JP"}, "rating": 4.6, "reference": "ChIJCfdM11_QJIgRjybGgecgKcA", "types": ["home_goods_store", "general_contractor", "store", "point_of_interest", "establishment"], "user_ratings_total": 77}, {"business_status": "OPERATIONAL", "formatted_address": "14700 Barber Ave, Warren, MI 48088, United States", "geometry": {"location": {"lat": 42.4952824, "lng": -82.9726881}, "viewport": {"northeast": {"lat": 42.49692317989273, "lng": -82.97170357010727}, "southwest": {"lat": 42.49422352010728, "lng": -82.97440322989272}}}, "icon": "https://maps.gstatic.com/mapfiles/place_api/icons/v1/png_71/generic_business-71.png", "icon_background_color": "#7B9EB0", "icon_mask_base_uri": "https://maps.gstatic.com/mapfiles/place_api/icons/v2/generic_pinlet", "name": "Den-Man Contractors, Inc.", "opening_hours": {"open_now": true}, "photos": [{"height": 3006, "html_attributions": ["<a href=\"https://maps.google.com/maps/contrib/116288567236317256118\">Alexis Marie VanKirk</a>"], "photo_reference": "AXQCQNQlq4_fCwaO385Y9862XtHo5ZiCy6Gs2ZWf3zM80OR4Yf6NeCAmKXTiX3kGmB-e5TMY9y9UQbMzZT8rKXPg_C1e-dLCOu3AF8JzGAyZUMwGVFWT7BmB4uo0qnR647aL_agauE27IKoMGdhYdmcSQgvK3rF6D--bvhgPHOqTIeSUj5Mbhv8BrJ9EQvwP2-UhYOOtKp8YYwu7iPQxL0QnTjyD7iUIqddBz08-BrO6PFTpU8SpHWqHOEIZktxqsFeagJHRDYMoHFdnC4sbB4EJnZUMuQvm1rcDjMoIiQFk-NbtIiLGrQNki1cUjYQC2HDqkuNFqcvNdA0tr6jrbbAzlnNm6tW8BbTXbMQt91jCNeA3konSg7etGnDflwMBWVCfvzHmQSfIwJKNflKCTevjETFC7m2JzfofWSYwoFhVQHQSWeaMBftKF1ex_B2Fc1fOAcv2aAXGWlb3uHo6IWFebtVAB9VCm1Adn9NY6dD9GD7RBlodAFtpU5HYS6XNZMySe55IgoAbVPLdqHcTtUjYP8RXn3fdCHMchfa9LktF7jsfD3CnOPEmZ4EkLSgyXezEc5bkVQ", "width": 5344}], "place_id": "ChIJi4HVjeDZJIgRYWEOXSCAiV4", "plus_code": {"compound_code": "F2WG+4W Warren, Michigan", "global_code": "86JVF2WG+4W"}, "rating": 4.5, "reference": "ChIJi4HVjeDZJIgRYWEOXSCAiV4", "types": ["moving_company", "general_contractor", "point_of_interest", "establishment"], "user_ratings_total": 11}, {"business_status": "OPERATIONAL", "formatted_address": "W Granet Ave, Hazel Park, MI 48030, United States", "geometry": {"location": {"lat": 42.4552722, "lng": -83.1068746}, "viewport": {"northeast": {"lat": 42.45660297989273, "lng": -83.10552352010728}, "southwest": {"lat": 42.45390332010728, "lng": -83.10822317989272}}}, "icon": "https://maps.gstatic.com/mapfiles/place_api/icons/v1/png_71/generic_business-71.png", "icon_background_color": "#7B9EB0", "icon_mask_base_uri": "https://maps.gstatic.com/mapfiles/place_api/icons/v2/generic_pinlet", "name": "Elite McGinnis Construction", "photos": [{"height": 1625, "html_attributions": ["<a href=\"https://maps.google.com/maps/contrib/101680031660392363670\">Maximus McGinnis</a>"], "photo_reference": "AXQCQNSm1atw0PfAmh67I3beoNCPDoBpQSC8DYTetCupPFe9l_Yi-Tqzn6aBpDU8ARu5hK0O_XRz-2tgbveQbBnBIwbUhUGs9z4huL93oUAvwcfEsL5fRviiVZG0ONxPYLUVn4noASniETOiUatS2jqhfrUvKmSZUh15og-3ck-UqCR-DL-mFAmqz5c7duMuw7iiZq9zO8wBJmquA6Y3LkGGSZ4Y9rX1ZBlxh8Iv7bjtEY5Bn3GqduCY0xBnoJUGj11fJLlwJ56sCULpAvGMCmabE4gVAo8ivOissI0G_B3qmdSu4PtL2JZb_4vW8lZeYAbX-jVEUb7EqO34zoKL1Z1RwD0xuSGVI-08ci99ylsMK5QKaoPv4bw1dyxatOvKzUWJI4-yqsinpGkNwRRzAw8IL0C7OxJv2gLzl2p3S_dUmX_8vGr1Yp09b1NIfLayqZXq3oATE8TM-M_0gUWn49bQ0WM18emYaKUSVINH_EE4aBhpQRbd6Oe7esbdV6hbAsKMFZy77B1ea8GYCiOEJCQcBAXcyHJSXXzoCgIF-ivDtajRAH9RKYevh_c8aGni2q1Ai7dz9jHe3T0fjw", "width": 1242}], "place_id": "ChIJL5QUc_bPJIgR_blInwmIJC8", "plus_code": {"compound_code": "FV4V+47 Hazel Park, Michigan", "global_code": "86JRFV4V+47"}, "rating": 5, "reference": "ChIJL5QUc_bPJIgR_blInwmIJC8", "types": ["general_contractor", "point_of_interest", "establishment"], "user_ratings_total": 7}, {"business_status": "OPERATIONAL", "formatted_address": "6403 Rinke Ave, Warren, MI 48091, United States", "geometry": {"location": {"lat": 42.47417919999999, "lng": -83.0388692}, "viewport": {"northeast": {"lat": 42.47549047989271, "lng": -83.03759332010726}, "southwest": {"lat": 42.47279082010727, "lng": -83.04029297989271}}}, "icon": "https://maps.gstatic.com/mapfiles/place_api/icons/v1/png_71/generic_business-71.png", "icon_background_color": "#7B9EB0", "icon_mask_base_uri": "https://maps.gstatic.com/mapfiles/place_api/icons/v2/generic_pinlet", "name": "Armond Cassil Railroad Construction", "place_id": "ChIJEZaSVV7QJIgRqBuw5zt9HjE", "plus_code": {"compound_code": "FXF6+MF Warren, Michigan", "global_code": "86JRFXF6+MF"}, "rating": 5, "reference": "ChIJEZaSVV7QJIgRqBuw5zt9HjE", "types": ["general_contractor", "point_of_interest", "establishment"], "user_ratings_total": 3}]