[{"business_status": "OPERATIONAL", "formatted_address": "33751 Lear Industrial Pkwy, Avon, OH 44011, United States", "geometry": {"location": {"lat": 41.4732011, "lng": -81.9904516}, "viewport": {"northeast": {"lat": 41.47454957989272, "lng": -81.98907667010728}, "southwest": {"lat": 41.47184992010728, "lng": -81.99177632989272}}}, "icon": "https://maps.gstatic.com/mapfiles/place_api/icons/v1/png_71/shopping-71.png", "icon_background_color": "#4B96F3", "icon_mask_base_uri": "https://maps.gstatic.com/mapfiles/place_api/icons/v2/shopping_pinlet", "name": "Pro Image Sign & Graphics", "opening_hours": {"open_now": true}, "photos": [{"height": 4032, "html_attributions": ["<a href=\"https://maps.google.com/maps/contrib/104818322524712811533\">Chris Swenk</a>"], "photo_reference": "AXQCQNSL4SUZRyR10nufc9JE0R6zSt2b8d3MEXj1fjyAA5q1vOv1RiNby5xsW-K-JiP51eOxZtpjNnDBuwyJanulokQoFzM6ACKph0c-nRtM7YLP9DEQnB43Wj0GgBR-YQCvuLO0M338deJ3G615irQYqLfEItiJdf3mcCw50nnC4a0jH8GQQADNEMDu-Z9SP2L6VxZ2HLhGyAHtzWmxLMyK5oQ3EQbgIbDTdq8sGlQhDiFWFaBgo1UGdByv9UJJO6e4qzoeHRudn_Remyf6WrM6slGOZXVIS5Y64nNgiyIfjFqL3etmKrUiC491MiIL1z60Z9eq7h_s0tat6EewFmPOY6-hOMbX-oiGuDZ1jBCdAtsomf-77P8x93vvvQrPyTyIK3Cqarf_AMtM-JPWepeRBVEx_fKJQWOrlOnaAr5Nmi0f7Up0bjwHPnZvlhzdzgjonDp2_7Nn6zkbuCQt_Q-eYP9HHCvzVQVBpNF4qMQjqIenrLeee7p598SrX3rcrMFtLVPfLadYHOC0YrKaxTR5NwCPqNaTp7ZRzPM8AgFoXsJzIaIf2QL0DDyYbnq7FiZbJjKs8T3nyJFPRw", "width": 1960}], "place_id": "ChIJFY9YqdafMIgRR5C88dHbJNE", "plus_code": {"compound_code": "F2F5+7Q Avon, Ohio", "global_code": "86HWF2F5+7Q"}, "rating": 5, "reference": "ChIJFY9YqdafMIgRR5C88dHbJNE", "types": ["store", "point_of_interest", "establishment"], "user_ratings_total": 44}, {"business_status": "OPERATIONAL", "formatted_address": "158 Lear Rd # C, Avon Lake, OH 44012, United States", "geometry": {"location": {"lat": 41.5075183, "lng": -81.988716}, "viewport": {"northeast": {"lat": 41.50882427989272, "lng": -81.98736362010727}, "southwest": {"lat": 41.50612462010727, "lng": -81.99006327989271}}}, "icon": "https://maps.gstatic.com/mapfiles/place_api/icons/v1/png_71/generic_business-71.png", "icon_background_color": "#7B9EB0", "icon_mask_base_uri": "https://maps.gstatic.com/mapfiles/place_api/icons/v2/generic_pinlet", "name": "Affordable Signs & Graphics", "opening_hours": {}, "place_id": "ChIJWc5iIU-OMIgRXwYfzDaR47I", "plus_code": {"compound_code": "G256+2G Avon Lake, Ohio", "global_code": "86HWG256+2G"}, "rating": 5, "reference": "ChIJWc5iIU-OMIgRXwYfzDaR47I", "types": ["point_of_interest", "establishment"], "user_ratings_total": 1}, {"business_status": "OPERATIONAL", "formatted_address": "1350 Chester Industrial Pkwy, Avon, OH 44011, United States", "geometry": {"location": {"lat": 41.468776, "lng": -82.05403659999999}, "viewport": {"northeast": {"lat": 41.47007167989272, "lng": -82.05268382010728}, "southwest": {"lat": 41.46737202010728, "lng": -82.05538347989273}}}, "icon": "https://maps.gstatic.com/mapfiles/place_api/icons/v1/png_71/shopping-71.png", "icon_background_color": "#4B96F3", "icon_mask_base_uri": "https://maps.gstatic.com/mapfiles/place_api/icons/v2/shopping_pinlet", "name": "Jet Signs", "opening_hours": {"open_now": true}, "place_id": "ChIJX-pJHTiaMIgRyhirs9q0Wlc", "plus_code": {"compound_code": "FW9W+G9 Avon, Ohio", "global_code": "86HVFW9W+G9"}, "rating": 5, "reference": "ChIJX-pJHTiaMIgRyhirs9q0Wlc", "types": ["store", "point_of_interest", "establishment"], "user_ratings_total": 12}, {"business_status": "OPERATIONAL", "formatted_address": "7820 Maddock Rd, North Ridgeville, OH 44039, United States", "geometry": {"location": {"lat": 41.378464, "lng": -82.033739}, "viewport": {"northeast": {"lat": 41.37987797989272, "lng": -82.03239277010728}, "southwest": {"lat": 41.37717832010728, "lng": -82.03509242989271}}}, "icon": "https://maps.gstatic.com/mapfiles/place_api/icons/v1/png_71/shopping-71.png", "icon_background_color": "#4B96F3", "icon_mask_base_uri": "https://maps.gstatic.com/mapfiles/place_api/icons/v2/shopping_pinlet", "name": "Direct Image Signs Inc", "opening_hours": {"open_now": true}, "photos": [{"height": 311, "html_attributions": ["<a href=\"https://maps.google.com/maps/contrib/105713795833052966020\">Direct Image Signs Inc</a>"], "photo_reference": "AXQCQNRrS3IHi31CnZAApXQUTrapgA53YZyq4NO0gXb1rVEr1PuD3IV4nWAN-Rxs54nzQ2IFEKy7jPpsH0FQstvNgEZsoPmXJYbDmyZqtnJ2Mja6HCKMGhi_HQJDa3bUqxWCTogoBbVO8xEc7EmUiFumpTw88j_Hu6wi8LPrCK19RZEGG9g-c248ZoRgVpLpC3MwXbsr8IOBpf-9tQcoTSFjpcXlzJtwjT0hbL088lNSNS8P23cgCCRzVRwG4LpTuWWUV6N79RnciK_cb0p0lzQJ3UoEG8iuuUHrQXFu8RAByMinB-AbcQ8", "width": 630}], "place_id": "ChIJm7PXQmSXMIgRycYqP0ALiPI", "plus_code": {"compound_code": "9XH8+9G North Ridgeville, Ohio", "global_code": "86HV9XH8+9G"}, "rating": 5, "reference": "ChIJm7PXQmSXMIgRycYqP0ALiPI", "types": ["store", "point_of_interest", "establishment"], "user_ratings_total": 6}, {"business_status": "OPERATIONAL", "formatted_address": "32730 Walker Rd F2, Avon Lake, OH 44012, United States", "geometry": {"location": {"lat": 41.4937111, "lng": -82.0168877}, "viewport": {"northeast": {"lat": 41.49506087989272, "lng": -82.01559967010728}, "southwest": {"lat": 41.49236122010728, "lng": -82.01829932989273}}}, "icon": "https://maps.gstatic.com/mapfiles/place_api/icons/v1/png_71/generic_business-71.png", "icon_background_color": "#7B9EB0", "icon_mask_base_uri": "https://maps.gstatic.com/mapfiles/place_api/icons/v2/generic_pinlet", "name": "Minuteman Press - Avon Lake", "opening_hours": {"open_now": true}, "photos": [{"height": 3024, "html_attributions": ["<a href=\"https://maps.google.com/maps/contrib/117559331307756721752\">Minuteman Press - Avon Lake</a>"], "photo_reference": "AXQCQNRUAKfxJzE8DmpVIoIzZFkcJgliMzpRFwvPXalqLPgnWRD_qcq4ltOn5adnjT8PeeuQPEJWcnjfpPlxUuOd9wIIyj29TWbrAYkUTDLc6Z2JV3JzbSIHSrwjLri7f3OV_x5RoBazBu0KG2A_lrOVa00MwaHGtTGsxbmFRTkAcm6PaWIgXnx7sQx4cbnsCRGnwMmlLiDB1_I7tfp4-Ev8-9nnWNdpsFcS0ZYs61UMEPJd4dZftikCxGiKChQRpw4-U2aypBaNC0MGQ5ucA3gbfGaPn1fuxksSKYBeOreaz7Ts-DYPrMA", "width": 4032}], "place_id": "ChIJLx2RS0iFMIgRJPXUisNnnc0", "plus_code": {"compound_code": "FXVM+F6 Avon Lake, Ohio", "global_code": "86HVFXVM+F6"}, "rating": 4.5, "reference": "ChIJLx2RS0iFMIgRJPXUisNnnc0", "types": ["store", "point_of_interest", "establishment"], "user_ratings_total": 22}]