[{"business_status": "OPERATIONAL", "formatted_address": "2382 Co Rd 292, Bellevue, OH 44811, United States", "geometry": {"location": {"lat": 41.2763114, "lng": -82.89860469999999}, "viewport": {"northeast": {"lat": 41.27766152989272, "lng": -82.89699882010727}, "southwest": {"lat": 41.27496187010728, "lng": -82.8996984798927}}}, "icon": "https://maps.gstatic.com/mapfiles/place_api/icons/v1/png_71/generic_business-71.png", "icon_background_color": "#7B9EB0", "icon_mask_base_uri": "https://maps.gstatic.com/mapfiles/place_api/icons/v2/generic_pinlet", "name": "Zimmerman Remodeling & Construction", "photos": [{"height": 1536, "html_attributions": ["<a href=\"https://maps.google.com/maps/contrib/110856609388593448757\">Irene Vickery</a>"], "photo_reference": "AXQCQNTE3dUlukJjD8WDiJVbtGiriy1IIiVi0Unu-oA4xQ5nF2lc1KAZmashXtJ75Ov0VLXelh3r8aUfG8BXSzIa7IJDHTgCtN6hBf_cciffh-QuMTA6sVBwfjVD0CJCapKSiG767KIYDhsDl3DtfLbd8l7OQVWtVLVctzXStqu2xL437CTpGurPJ0Gaw7TReqWTrcXhky8n8OSgEyA2xuR6S_rWeMTozdWEdKP3zhvspx1ZtHdzBBe7Jl3KSMnbFMSeOWTZFW7DfeG94r5GsM2WlM-lG0G0jtWHIdw35YhT0-MHc7ibhJj0XcbYzAGDcKtXc6jtcD27Mpb5Ni3iNrkPFxGHHvdajuLQ5mypjfa1jLSi4kAT-JfWMYBZ2-VzZKdJcdVYPGDSxm89fn_DllYD5LH1TXSdD-cu8ZRklrHIypAD7lgnEQyU8f4FgmFXb7wAZgF89kEKz7eGI0l2cP5G4RY-uQs5v1GxOH7sIuoLEeOuVCAmh_sXOZ2DFi3mc7IB7Tl_zXd7PyCEJc-y1d9B_vsvQ-v04NCrIbbv0hsJ9r1wfNGdczTQnrwb4Jbi07lfRuxPSA", "width": 2048}], "place_id": "ChIJ_6Xf3TAzOogRZUbahS_gVcI", "plus_code": {"compound_code": "74G2+GH Bellevue, Ohio", "global_code": "86HV74G2+GH"}, "rating": 4.2, "reference": "ChIJ_6Xf3TAzOogRZUbahS_gVcI", "types": ["general_contractor", "point_of_interest", "establishment"], "user_ratings_total": 10}, {"business_status": "OPERATIONAL", "formatted_address": "553 Southwest St, Bellevue, OH 44811, United States", "geometry": {"location": {"lat": 41.2638486, "lng": -82.83972349999999}, "viewport": {"northeast": {"lat": 41.26526597989272, "lng": -82.83837437010727}, "southwest": {"lat": 41.26256632010728, "lng": -82.84107402989272}}}, "icon": "https://maps.gstatic.com/mapfiles/place_api/icons/v1/png_71/generic_business-71.png", "icon_background_color": "#7B9EB0", "icon_mask_base_uri": "https://maps.gstatic.com/mapfiles/place_api/icons/v2/generic_pinlet", "name": "7L Construction", "opening_hours": {"open_now": true}, "photos": [{"height": 4032, "html_attributions": ["<a href=\"https://maps.google.com/maps/contrib/112213309236386579100\">Eric Meyer</a>"], "photo_reference": "AXQCQNQPntFEg7QvKbgvr73qvrDBUeE72ji7ew7gVZbBFXnyxVieiEGZesvOMJDUg3r1o6KQqVdNjKoaFoOZuFv3-HIZwRD6f9SyHzrRoHc9csQKjXZ3K5BKKANfJSAK3eE-SGGGyV0a1mQTXP4rwr-Sc3rGqK-ViQuSCM_EdUVfxzVKS4y34aBsukcoDIr3LFoDg3K4HnmfY7RQX4euM5LOZ8Zcj93eATq0v-ws_yCM8fVwcHe68WK9_IxIzMDDCnLVnnueRrvZLLWaFxEXQovf1aKoNi-Oe4opppYvw5rX3PNKt8sS5wgidH1VdU9rlO0y6qF6EvT452Lkh-HMu8lvktsp-GZdSIEa15UQUGMLhlFCH80zLJAIO4bqzI_2vx2MeWfmrLCkgEo5BKnzM85d-0LBaElKqdyzTDPgK3dANz_sBr4EX9vlzeNcnEvAhX3E3hEZQ5AzHvIlYqWw83shynH6EPEhpegxa5Wb-mS1w3svbDHeyeI7oME0l_1K3770udCIG2wrWfG3pUTn5-DBDio5VD5rPkQBf0Q-rPd9KVciwrqzCgu_6fQ_-7mwnJjRL4Q6CSnn", "width": 3024}], "place_id": "ChIJVc6v1MszOogR_EBedVd-rCo", "plus_code": {"compound_code": "7576+G4 Bellevue, Ohio", "global_code": "86HV7576+G4"}, "rating": 5, "reference": "ChIJVc6v1MszOogR_EBedVd-rCo", "types": ["general_contractor", "point_of_interest", "establishment"], "user_ratings_total": 3}, {"business_status": "OPERATIONAL", "formatted_address": "2000 Co Rd 292, Bellevue, OH 44811, United States", "geometry": {"location": {"lat": 41.2887236, "lng": -82.89841229999999}, "viewport": {"northeast": {"lat": 41.29007257989272, "lng": -82.89688452010728}, "southwest": {"lat": 41.28737292010728, "lng": -82.89958417989273}}}, "icon": "https://maps.gstatic.com/mapfiles/place_api/icons/v1/png_71/generic_business-71.png", "icon_background_color": "#7B9EB0", "icon_mask_base_uri": "https://maps.gstatic.com/mapfiles/place_api/icons/v2/generic_pinlet", "name": "Gore Concrete, LLC", "opening_hours": {"open_now": false}, "photos": [{"height": 3024, "html_attributions": ["<a href=\"https://maps.google.com/maps/contrib/115349238395978661903\">David Rutherford</a>"], "photo_reference": "AXQCQNTrgtB_wMh_mnw-d-HG6NUnkZO1901ATnC8qmrFN0LZOmNsKpggnUd7gR2sU95-3ZOItwBeX2-J8phodSHsCUPn4RgAB5eUaZv-Eg830QWAKR-ydGscR_2_S6iN5-qiSkDMpvHcegI0M0npV9bnSJhKCYhfIcqG8Cgt1SMSSAsSvg5Goin29n8y8F5jb4NBqiwrQyRVQPh4mUMqaT4uOLGhV3hNbTCdkJ1G6wr-k7E_-CKn0wFnvcts3usy48sVanOhjFJUbc1YCxMgM35q0apzpzu4O8PWMbV5LSDmlpo1vGUaRvpJ0fzpW1x-NUhtwKJW3SQwt-8-AyINaBKTe0c7_zkdWPPn5PW0_fU1fEps22301STx8khCxR8jOKHTrGZc8A-i0CTDofELVYxqEEUtsaKCyTqgePwawjQQTFXOJsUM6FOOSbRP8Rqgtt0QolAGNFrTZgzh7NdOCZIaxuy34oNgrIC3EPue_cKts4p3iBz9ZJVFCipYfxDxUuv1y8H03GlqJmArF6K0fdc9yBPgZSGZ2lEdswGgO-3ogUTfkwsMH9NULgrQLSbe90nGJ2wU3whCbBik5g", "width": 4032}], "place_id": "ChIJZf_hE08zOogRM2sSUVZiNxs", "plus_code": {"compound_code": "74Q2+FJ Bellevue, Ohio", "global_code": "86HV74Q2+FJ"}, "rating": 4.4, "reference": "ChIJZf_hE08zOogRM2sSUVZiNxs", "types": ["general_contractor", "point_of_interest", "establishment"], "user_ratings_total": 27}, {"business_status": "OPERATIONAL", "formatted_address": "243 Brinker St, Bellevue, OH 44811, United States", "geometry": {"location": {"lat": 41.275655, "lng": -82.824467}, "viewport": {"northeast": {"lat": 41.27702307989272, "lng": -82.82311712010727}, "southwest": {"lat": 41.27432342010728, "lng": -82.82581677989272}}}, "icon": "https://maps.gstatic.com/mapfiles/place_api/icons/v1/png_71/generic_business-71.png", "icon_background_color": "#7B9EB0", "icon_mask_base_uri": "https://maps.gstatic.com/mapfiles/place_api/icons/v2/generic_pinlet", "name": "Agee Decking and Construction LLC", "opening_hours": {"open_now": true}, "photos": [{"height": 3024, "html_attributions": ["<a href=\"https://maps.google.com/maps/contrib/108071350786236794182\">A Google User</a>"], "photo_reference": "AXQCQNRwoBdy9YN-LJsFFJZVWPaRDay6GnSES5o4F5vwXmCIpVzvZIV-gJInSS-XMdohs5hQSaMry64rfnP7CqAJoY6k_E3h80YHhtldxGoflybo5tEL9d2ugZN_sqDLACXtOYwZN5sJTheKF6H23plBmbj-WoxVNMtDuWEAAn_d0eWcCV1FNakyqyBh36zIgsy-Nw7HPiecLj32ybSvYgFUIK-ko3-53BUpkLAlJQSsA867Qje-XcAhhliRDHkmmyCi8XiPTwNubwnVBhrdtlq7osSk2JaUyxma5rLFKbGXxyH6-KiXWdU", "width": 4032}], "place_id": "ChIJqWriXoIzOogRlgHmYn40gzw", "plus_code": {"compound_code": "75GG+66 Bellevue, Ohio", "global_code": "86HV75GG+66"}, "rating": 5, "reference": "ChIJqWriXoIzOogRlgHmYn40gzw", "types": ["general_contractor", "point_of_interest", "establishment"], "user_ratings_total": 2}, {"business_status": "OPERATIONAL", "formatted_address": "115 S Sandusky St, Bellevue, OH 44811, United States", "geometry": {"location": {"lat": 41.2726655, "lng": -82.8388607}, "viewport": {"northeast": {"lat": 41.27404677989272, "lng": -82.83769812010726}, "southwest": {"lat": 41.27134712010728, "lng": -82.84039777989271}}}, "icon": "https://maps.gstatic.com/mapfiles/place_api/icons/v1/png_71/generic_business-71.png", "icon_background_color": "#7B9EB0", "icon_mask_base_uri": "https://maps.gstatic.com/mapfiles/place_api/icons/v2/generic_pinlet", "name": "Branham Builders LLC", "opening_hours": {"open_now": true}, "photos": [{"height": 2048, "html_attributions": ["<a href=\"https://maps.google.com/maps/contrib/115047329718943664880\">Branham Builders LLC</a>"], "photo_reference": "AXQCQNSUtpCtYF1GYaEjkciKHPLDwPObplAYR2sYASYhzSDh3L7UVMiGJ79VzT9OULktlc5T5_tLhx0WJYiAtGiq5CnPSVhWCLyrpoWZ9EyI98uQ58M4NTceH33ulqI8knKfIBbxEqmxo4-GaTm_c9AECytcwwcYkozNQQALCgnhdG11D5dddf-vwfyFNLIjpnqFHb6YfNSLklbnI4wtUFHQVapS8gsQp7lLfrZjjRSqXJ_bKLxymhd5X0SbtSUzgRaKCnp3qeIGFKzPovNThC2eR1BU7Ghc7BwofZyY1zA-Uyh8IXUCPKY", "width": 2048}], "place_id": "ChIJg83g_dkzOogRr75A0WRysU0", "plus_code": {"compound_code": "75F6+3F Bellevue, Ohio", "global_code": "86HV75F6+3F"}, "rating": 5, "reference": "ChIJg83g_dkzOogRr75A0WRysU0", "types": ["general_contractor", "point_of_interest", "establishment"], "user_ratings_total": 1}, {"business_status": "OPERATIONAL", "formatted_address": "5741 OH-113, Bellevue, OH 44811, United States", "geometry": {"location": {"lat": 41.2779532, "lng": -82.79894560000001}, "viewport": {"northeast": {"lat": 41.27941797989272, "lng": -82.79769852010728}, "southwest": {"lat": 41.27671832010728, "lng": -82.80039817989272}}}, "icon": "https://maps.gstatic.com/mapfiles/place_api/icons/v1/png_71/generic_business-71.png", "icon_background_color": "#7B9EB0", "icon_mask_base_uri": "https://maps.gstatic.com/mapfiles/place_api/icons/v2/generic_pinlet", "name": "T.J. Hosang Construction", "opening_hours": {"open_now": true}, "place_id": "ChIJh_8tjz8xOogRLa-pJME7Nxw", "plus_code": {"compound_code": "76H2+5C Bellevue, Ohio", "global_code": "86HV76H2+5C"}, "rating": 3, "reference": "ChIJh_8tjz8xOogRLa-pJME7Nxw", "types": ["general_contractor", "point_of_interest", "establishment"], "user_ratings_total": 2}, {"business_status": "OPERATIONAL", "formatted_address": "1087 sectionline 30, Bellevue, OH 44811, United States", "geometry": {"location": {"lat": 41.1699942, "lng": -82.78899489999999}, "viewport": {"northeast": {"lat": 41.17136902989272, "lng": -82.78622455000001}, "southwest": {"lat": 41.16866937010727, "lng": -82.78991835}}}, "icon": "https://maps.gstatic.com/mapfiles/place_api/icons/v1/png_71/generic_business-71.png", "icon_background_color": "#7B9EB0", "icon_mask_base_uri": "https://maps.gstatic.com/mapfiles/place_api/icons/v2/generic_pinlet", "name": "S&B excavating and concrete LLC", "opening_hours": {"open_now": true}, "photos": [{"height": 4032, "html_attributions": ["<a href=\"https://maps.google.com/maps/contrib/110626230324790740584\">S&amp;B excavating and concrete LLC</a>"], "photo_reference": "AXQCQNRlyGzi2Sv0du8Es5pcLv6TIbWxlDzDK8ng-JdAhiSAX-YtFO_YSyz7_8_tXdPr8h1Uid6jiVe1bMIYkC-XL-VXHZCeTk6r8mGL4FD3973iZ3Kn3gEyTt7HIMOsOgO8WYisx3xsDGbCUWd6IyMjNZ-ohaOi9-dS6kBPU9JcZbdQ1E3K3w3aBgVWTZvXqwiYqxr0p0fRlki_tfMIM70V9sC7e7XdT5lE4t4XwVkPgujBTXDE0vpy5nx_W2Q9Ogcc7_rk-OnOMWulzdtzjGAXSzbDLkTK1vu78_KfmtLPVdohjfE1b4Q", "width": 3024}], "place_id": "ChIJZ5mQldkvOogRyw0tUwZQIvM", "plus_code": {"compound_code": "5696+XC Bellevue, Ohio", "global_code": "86HV5696+XC"}, "rating": 4.5, "reference": "ChIJZ5mQldkvOogRyw0tUwZQIvM", "types": ["general_contractor", "point_of_interest", "establishment"], "user_ratings_total": 8}, {"business_status": "OPERATIONAL", "formatted_address": "1518 Shelby-Ganges Rd, Shelby, OH 44875, United States", "geometry": {"location": {"lat": 40.9043948, "lng": -82.56775859999999}, "viewport": {"northeast": {"lat": 40.90550602989272, "lng": -82.56635832010727}, "southwest": {"lat": 40.90280637010728, "lng": -82.56905797989272}}}, "icon": "https://maps.gstatic.com/mapfiles/place_api/icons/v1/png_71/generic_business-71.png", "icon_background_color": "#7B9EB0", "icon_mask_base_uri": "https://maps.gstatic.com/mapfiles/place_api/icons/v2/generic_pinlet", "name": "JShores Construction LLC", "opening_hours": {"open_now": true}, "photos": [{"height": 3024, "html_attributions": ["<a href=\"https://maps.google.com/maps/contrib/110735104454306822108\">Aaron McKee</a>"], "photo_reference": "AXQCQNQ6eCHicSN7Io2wjxO9--jfY9gyIuDlzGpwDeNtq4RvXoEM9bhOpVH90LqlkLzPqNyLiCie3VmVOIRQwIkifgXi3RdBH_P-t2m6aH0z-nYQQJAwkGt2azOY0tc70p_DBu-pYHGzQpEnKZ9e_E6zhoyzW59HRRYOD-3OKDCKg-t5MRqQjKHTRsryDH6yG_9UKqLg5wNM6-tG9IuyXGFH5TZpCNXfSXtpMYyO2jmKubL5AxlnG4yQ_rLVy9IMYqUDI7TnuBsYTYEozvfl2RUHuyJF1OdP3UCP3b1aDyKvvWtz-n1IbR1Hbxrrr4LVjDKeiR60iT9nGJ2mswOONcak-HvQqfADd4ai50LoT0E8TWfZDY_Z5tOjXi3Zqlv1Dg9iiNRs_hJNsXxWfNNOId-fTXmeqRxF6mG1R1cm45wIADe6IEZ6v4JoXLAi66jwSunEhLnEn7R1hxlEvb0gP5xWTXBqzjDgpUIsHzcDYDndWg91vVtfWpGR7sxfscgkZ5rlqPyfEsNtGdUI71YQQId-i6TOrOGg2wHdw4e0qv7BympfxRui4KApj94aPDwslSDF0JxbeIr89JHekw", "width": 4032}], "place_id": "ChIJ05v7PNSNOYgRI2njm4vQxgk", "plus_code": {"compound_code": "WC3J+QV Shelby, Ohio", "global_code": "86GVWC3J+QV"}, "rating": 4.9, "reference": "ChIJ05v7PNSNOYgRI2njm4vQxgk", "types": ["general_contractor", "home_goods_store", "store", "point_of_interest", "establishment"], "user_ratings_total": 99}, {"business_status": "OPERATIONAL", "formatted_address": "617 Park Ave, Bellevue, OH 44811, United States", "geometry": {"location": {"lat": 41.2636805, "lng": -82.84412909999999}, "viewport": {"northeast": {"lat": 41.26503007989272, "lng": -82.84287592010728}, "southwest": {"lat": 41.26233042010728, "lng": -82.84557557989272}}}, "icon": "https://maps.gstatic.com/mapfiles/place_api/icons/v1/png_71/generic_business-71.png", "icon_background_color": "#7B9EB0", "icon_mask_base_uri": "https://maps.gstatic.com/mapfiles/place_api/icons/v2/generic_pinlet", "name": "Dearth Thomas S", "place_id": "ChIJ24NrTMczOogRdzNUYVmgOtY", "plus_code": {"compound_code": "7574+F9 Bellevue, Ohio", "global_code": "86HV7574+F9"}, "rating": 5, "reference": "ChIJ24NrTMczOogRdzNUYVmgOtY", "types": ["general_contractor", "point_of_interest", "establishment"], "user_ratings_total": 1}, {"business_status": "OPERATIONAL", "formatted_address": "7598 Lodi-Colby Rd, Bellevue, OH 44811, United States", "geometry": {"location": {"lat": 41.2356367, "lng": -82.943709}, "viewport": {"northeast": {"lat": 41.23663137989272, "lng": -82.93933514999999}, "southwest": {"lat": 41.23393172010728, "lng": -82.94516695}}}, "icon": "https://maps.gstatic.com/mapfiles/place_api/icons/v1/png_71/generic_business-71.png", "icon_background_color": "#7B9EB0", "icon_mask_base_uri": "https://maps.gstatic.com/mapfiles/place_api/icons/v2/generic_pinlet", "name": "Roger Miller Builder Inc. (David Zilch)", "place_id": "ChIJKwKwwOozOogRbDp00c2VrQo", "plus_code": {"compound_code": "63P4+7G Bellevue, Ohio", "global_code": "86HV63P4+7G"}, "rating": 5, "reference": "ChIJKwKwwOozOogRbDp00c2VrQo", "types": ["general_contractor", "point_of_interest", "establishment"], "user_ratings_total": 1}, {"business_status": "OPERATIONAL", "formatted_address": "77 Whittlesey Ave, Norwalk, OH 44857, United States", "geometry": {"location": {"lat": 41.2443564, "lng": -82.6174681}, "viewport": {"northeast": {"lat": 41.24575127989272, "lng": -82.61602367010728}, "southwest": {"lat": 41.24305162010728, "lng": -82.61872332989272}}}, "icon": "https://maps.gstatic.com/mapfiles/place_api/icons/v1/png_71/generic_business-71.png", "icon_background_color": "#7B9EB0", "icon_mask_base_uri": "https://maps.gstatic.com/mapfiles/place_api/icons/v2/generic_pinlet", "name": "Bo Lacey Construction", "opening_hours": {"open_now": true}, "photos": [{"height": 1536, "html_attributions": ["<a href=\"https://maps.google.com/maps/contrib/113794845627400258724\">Bo Lacey Construction</a>"], "photo_reference": "AXQCQNTvrAwLV7Tb4q-kzGAbfZcmfNIQi1_pIzjyCSAtdB-KWR9AzY8IeQD8gfypJEaRd4sX3u9qr5NoNCU2_QpO7wKIzrS4LtUHY8avwdf6bcbNm-b8Vw_YLKRjKDgWidgfN_mChdZTMmNUidvQY1OKKQfEjYpgoJ2x5WKV2Dfn4z7xPr57Lsm4IpcVdlkHB8hDuY81EQ5B7-UKI-ve2p7IXjbHGrs2Z11LR6NrPjN_orJTf-TLQxQMcI6k3xU0JWMP_AnuhM9x05mBD7wC6lL9uYJHALzVQik7eACozAujJ2up1IEzMS0", "width": 2048}], "place_id": "ChIJ1dtDT5w9OogRV4NL8L0lVjg", "plus_code": {"compound_code": "69VM+P2 Norwalk, Ohio", "global_code": "86HV69VM+P2"}, "rating": 5, "reference": "ChIJ1dtDT5w9OogRV4NL8L0lVjg", "types": ["roofing_contractor", "general_contractor", "point_of_interest", "establishment"], "user_ratings_total": 137}, {"business_status": "OPERATIONAL", "formatted_address": "11911 Thomas Rd, Monroeville, OH 44847, United States", "geometry": {"location": {"lat": 41.3043286, "lng": -82.6566689}, "viewport": {"northeast": {"lat": 41.30581672989273, "lng": -82.65502657010728}, "southwest": {"lat": 41.30311707010728, "lng": -82.65772622989272}}}, "icon": "https://maps.gstatic.com/mapfiles/place_api/icons/v1/png_71/generic_business-71.png", "icon_background_color": "#7B9EB0", "icon_mask_base_uri": "https://maps.gstatic.com/mapfiles/place_api/icons/v2/generic_pinlet", "name": "Strecker Remodeling & Construction", "opening_hours": {}, "photos": [{"height": 2269, "html_attributions": ["<a href=\"https://maps.google.com/maps/contrib/115491915405047659575\">A Google User</a>"], "photo_reference": "AXQCQNRnuedfl_s8jGEOn6Ev41fB1FgmoMPDjT1hvTxZDX8O7sQLXsyEllA9ZCCitNK1Gnz8GgW6ogvBb1xVmS45LYBtfJOvdO9UuOLPBVRlJw8ppC2IXW-LbxJ3Lh6CQ4TbK2P-G_ZFkUs9IdpFsZQT_5Ia4CSiEPobBiBaOuRK1H0u1F6dfHYoQkrH8PHWB4cAD07QjSmJpsCJ6QHBR1wOZvzP9U4R7Ih2QhxDok2otHWtISE_m26NUyRfcCEFSJAxgiAACnlO-PF7cuImHgULzTp1wI0oTHLoQd8hn14JMWM7DnmCU7c", "width": 4032}], "place_id": "ChIJi41ANHMvOogRVK-02ZHM0qU", "plus_code": {"compound_code": "883V+P8 Monroeville, Ohio", "global_code": "86HV883V+P8"}, "rating": 5, "reference": "ChIJi41ANHMvOogRVK-02ZHM0qU", "types": ["general_contractor", "point_of_interest", "establishment"], "user_ratings_total": 4}, {"business_status": "OPERATIONAL", "formatted_address": "4382 W Township Rd 90, New Riegel, OH 44853, United States", "geometry": {"location": {"lat": 41.0426635, "lng": -83.25456229999999}, "viewport": {"northeast": {"lat": 41.04415967989272, "lng": -83.25315442010726}, "southwest": {"lat": 41.04146002010728, "lng": -83.25585407989271}}}, "icon": "https://maps.gstatic.com/mapfiles/place_api/icons/v1/png_71/generic_business-71.png", "icon_background_color": "#7B9EB0", "icon_mask_base_uri": "https://maps.gstatic.com/mapfiles/place_api/icons/v2/generic_pinlet", "name": "Clouse Construction Corp", "opening_hours": {"open_now": true}, "photos": [{"height": 622, "html_attributions": ["<a href=\"https://maps.google.com/maps/contrib/101013474584475776083\">A Google User</a>"], "photo_reference": "AXQCQNSAFcxT2MNTw_jjN50AP7ijw0Of-M6-CHUfo53RLu_j-lpcWOayHJJ1pxtHxLaATJS0pP-lfG0IbWaCylto-YUCJI7dMSZZV1BwwpaEFaJzW2nNqBclAwb_mKn61iO1S7HFfkk5UKuu6wJiJMncFZKBa4Yyn4xWIMsHwMaL0fNyIWdmmHT3upTYx-W2CHPdVeLdf04jr9itXXK1DIFVTtV9mKYJt_BaOw_JDgl_oGMuTSdMhECk4T4-YgD3boBAiHXxn9gD9rTLZDW_NCT0xybLlDbC_SwdMKI7nyOdBLDzQqPAIcE", "width": 1280}], "place_id": "ChIJ59ZaMyteOYgRh6jyMXEutgg", "plus_code": {"compound_code": "2PVW+35 New Riegel, Ohio", "global_code": "86HR2PVW+35"}, "rating": 4.5, "reference": "ChIJ59ZaMyteOYgRh6jyMXEutgg", "types": ["general_contractor", "point_of_interest", "establishment"], "user_ratings_total": 16}, {"business_status": "OPERATIONAL", "formatted_address": "243 Brinker St, Bellevue, OH 44811, United States", "geometry": {"location": {"lat": 41.2755924, "lng": -82.8244675}, "viewport": {"northeast": {"lat": 41.27702307989272, "lng": -82.82311712010727}, "southwest": {"lat": 41.27432342010728, "lng": -82.82581677989272}}}, "icon": "https://maps.gstatic.com/mapfiles/place_api/icons/v1/png_71/generic_business-71.png", "icon_background_color": "#7B9EB0", "icon_mask_base_uri": "https://maps.gstatic.com/mapfiles/place_api/icons/v2/generic_pinlet", "name": "Deck Rescue Northwest Ohio And Lake Erie Islands Region", "opening_hours": {"open_now": true}, "photos": [{"height": 1086, "html_attributions": ["<a href=\"https://maps.google.com/maps/contrib/103690626861703790069\">Deck Rescue Northwest Ohio And Lake Erie Islands Region</a>"], "photo_reference": "AXQCQNRt8FbgA9lNo32UaXHaKN3zqhyQ_ThxDNRET1w5Kiv6aCAGf3mNGsk6c_dGn6vUkCM8JYJEzltt6Sd8XrJ9dQw3iQRivC2r6fvo6DYCL15c8fH9sVgvkQTrbsdxgMBXQ4-Zymddg5_Wh0rEkyQZYH_zqjywi9qQV7IYbe3w30DpiuiDQiWpMlhnQrgrB58FVz90-Q8ffv8c_UMEB6XhzRZUPZ2zXFmw_2cG3JyjmebUJlyvs7sEVzAGBe7tVy_rj9V61oXvYAd8nKQFBJLck-5h4F1BAH_guWH5-9flPNrvlefsNWw", "width": 1928}], "place_id": "ChIJPXIfWADNO4gRSrfrFU84Wis", "plus_code": {"compound_code": "75GG+66 Bellevue, Ohio", "global_code": "86HV75GG+66"}, "rating": 5, "reference": "ChIJPXIfWADNO4gRSrfrFU84Wis", "types": ["painter", "point_of_interest", "establishment"], "user_ratings_total": 13}, {"business_status": "OPERATIONAL", "formatted_address": "114 W Main St, Shelby, OH 44875, United States", "geometry": {"location": {"lat": 40.8806034, "lng": -82.6656017}, "viewport": {"northeast": {"lat": 40.88204707989272, "lng": -82.66426707010727}, "southwest": {"lat": 40.87934742010727, "lng": -82.66696672989272}}}, "icon": "https://maps.gstatic.com/mapfiles/place_api/icons/v1/png_71/generic_business-71.png", "icon_background_color": "#7B9EB0", "icon_mask_base_uri": "https://maps.gstatic.com/mapfiles/place_api/icons/v2/generic_pinlet", "name": "Apex Contracting Group", "opening_hours": {"open_now": true}, "photos": [{"height": 288, "html_attributions": ["<a href=\"https://maps.google.com/maps/contrib/108365601451625189848\">A Google User</a>"], "photo_reference": "AXQCQNQBKmEetKxLuf1evFzbJGpootEbtriXvDRCb7dBg7Pc8sbIZ1nPyIHIConrWAvpJMmH5LkSc9vZfqUDPNHRDlSeGmhS2LnLE0iW91Q0OPtbHxPianWqxu8GysMHJz78ZFnTynV873Gu23uT_rfNy0KDglN384JXst4dM0AtQS45hl3gn6_v-WX7_b55BFIj3Zdol1sW-hToTSgckZvekndGCkt3L7cOFmvTZ4QVl0ZzWko5jNJdUgMbsle4rCCt9i51IbT4ft9w7_2senf0TdQmTbJ-i3AKFjzVg9PC7KGS-roHPJI", "width": 512}], "place_id": "ChIJte_GgfyROYgR-1lVz4bIUSk", "plus_code": {"compound_code": "V8JM+6Q Shelby, Ohio", "global_code": "86GVV8JM+6Q"}, "rating": 5, "reference": "ChIJte_GgfyROYgR-1lVz4bIUSk", "types": ["general_contractor", "roofing_contractor", "home_goods_store", "store", "point_of_interest", "establishment"], "user_ratings_total": 35}, {"business_status": "OPERATIONAL", "formatted_address": "1472 US-42, Mansfield, OH 44903, United States", "geometry": {"location": {"lat": 40.8167835, "lng": -82.4066278}, "viewport": {"northeast": {"lat": 40.81788702989272, "lng": -82.40508287010728}, "southwest": {"lat": 40.81518737010728, "lng": -82.40778252989273}}}, "icon": "https://maps.gstatic.com/mapfiles/place_api/icons/v1/png_71/generic_business-71.png", "icon_background_color": "#7B9EB0", "icon_mask_base_uri": "https://maps.gstatic.com/mapfiles/place_api/icons/v2/generic_pinlet", "name": "Bo Lacey Construction", "opening_hours": {"open_now": true}, "photos": [{"height": 3006, "html_attributions": ["<a href=\"https://maps.google.com/maps/contrib/105113792802554685318\">Bo Lacey Construction</a>"], "photo_reference": "AXQCQNTL5uemV1WBh_H5HSEuFR3Q4d-q_b3L6io6n4Jas7CEKHe6YCVnNR0jBdiP6_U6emfHJVM_ifuJZuyGjsA_htK_tTOIrLzEdSJQCKiNivTtw14HHe8HX4j2CDbh8EY4dKBGUsbdpEdYISRC-iqVoKjiuXnwjV21Logs5Q6DIFtZSpjIVBn_8PUrzTymXApSZtEEIX2OyTVgFAAs-nlkjRDtEC0JqJGDfO9xfLRguDEzdddU21llCrYojPppu-dmnGYd1DXRB2jCBm4tmwsFHSEeRlk0UVaZ4WjZ6JflDP5LC5hf4Cs", "width": 5344}], "place_id": "ChIJx2NZNVH7OYgRtzkQfXu6BPg", "plus_code": {"compound_code": "RH8V+P8 Mansfield, Ohio", "global_code": "86GVRH8V+P8"}, "rating": 4.8, "reference": "ChIJx2NZNVH7OYgRtzkQfXu6BPg", "types": ["roofing_contractor", "general_contractor", "point_of_interest", "establishment"], "user_ratings_total": 502}, {"business_status": "OPERATIONAL", "formatted_address": "342 Co Rd 19, Pettisville, OH 43553, United States", "geometry": {"location": {"lat": 41.5324253, "lng": -84.2287896}, "viewport": {"northeast": {"lat": 41.53375262989272, "lng": -84.22743967010726}, "southwest": {"lat": 41.53105297010728, "lng": -84.23013932989271}}}, "icon": "https://maps.gstatic.com/mapfiles/place_api/icons/v1/png_71/generic_business-71.png", "icon_background_color": "#7B9EB0", "icon_mask_base_uri": "https://maps.gstatic.com/mapfiles/place_api/icons/v2/generic_pinlet", "name": "Boyers Construction", "opening_hours": {"open_now": true}, "photos": [{"height": 360, "html_attributions": ["<a href=\"https://maps.google.com/maps/contrib/102910604289739486707\">A Google User</a>"], "photo_reference": "AXQCQNQpBUcu5_LommwIim87zyLTFxFu2mwjWK4z_9UwIGN-uJodxYR5Usq7LKMDZZ19TXalaFCz7zKKD9KH7gSd8mVGtRyj8BgHlbUbk7QdkVYZWuG9vmFax7M90MKZBS5kI4_bqK_ksLEq3v4E4ZDeKUdkCHsO7Obd3p56A4aZgFEnLxooAirbDMxT9ndVfI15Gr9Zt2T29REdiYfXnVMb8VsiQDA1xX3zvS5pZHLG4dKkEET3QtOAEkF8kmZWiuKx4gofmPhRqnZCVBFGRsS9nbim4UU1GLlnPHUKU0iSf4K4x41P3cg", "width": 820}], "place_id": "ChIJ40P7En9LPIgR-ozrIr8rg_s", "plus_code": {"compound_code": "GQJC+XF Pettisville, Ohio", "global_code": "86HQGQJC+XF"}, "rating": 4.7, "reference": "ChIJ40P7En9LPIgR-ozrIr8rg_s", "types": ["general_contractor", "point_of_interest", "establishment"], "user_ratings_total": 17}, {"business_status": "OPERATIONAL", "formatted_address": "6401 Co Rd 205, Bellevue, OH 44811, United States", "geometry": {"location": {"lat": 41.2979615, "lng": -82.8858331}, "viewport": {"northeast": {"lat": 41.29987697989272, "lng": -82.88449452010727}, "southwest": {"lat": 41.29717732010727, "lng": -82.88719417989272}}}, "icon": "https://maps.gstatic.com/mapfiles/place_api/icons/v1/png_71/generic_business-71.png", "icon_background_color": "#7B9EB0", "icon_mask_base_uri": "https://maps.gstatic.com/mapfiles/place_api/icons/v2/generic_pinlet", "name": "Hayward Rigging&Concrete", "opening_hours": {"open_now": true}, "photos": [{"height": 3024, "html_attributions": ["<a href=\"https://maps.google.com/maps/contrib/110026356425260049230\">Ian Hayward</a>"], "photo_reference": "AXQCQNSG0tcAvkjLoJdeHLXzi7E7119HL06_MUB3d_YHVnRpI0ou58GNA9hRt3Qy0p-VlbasU34Pu3Ca2QKZ_61WjrIgCUHR9N7tsZRjbTQgvcVACYA0lI_4WOK4v9e2CKHXGaPykx3mx3AV7iDUe8WbR0OJaoEcygoWYfLOYKWplupD9eCejsRMA3mXkCDKHN6_ME75yQeWwDu4StsjZ_c2vj4vZmRJzHXWHczBaoxULgOFlhnKbj5JBA3TKdrRAQ-QQ7CbnJlW8uMP6ahgZJiRZ7Jar8BWo2q3QP6IIxk7cR_c35r5sDRiPs_uznt_8X119NQkq_wKj_uY0OJC3Ug8PjP6RZCNPwiiPT9EYlVS6k7E2DVKSLTuzM2S5dB2I-JqeGx7GZ2MWNjFvCDnWBiRmeQqoyaMLwk4_1wdKlD31g19aXv7Oaw5Eqaz-YCytB5LrKAD-fW3PbbrI70tqBJDY0L9cmLqZpKs5F97QlhwV9VCIiE6SHRbdS3Qw2XPs3x-dP3oZErEORj8YtI0wkWNYubcSbzNLRrTzkB-IsqN5yl--LVsG4-DlsndPOJynVwu12HYCKUr", "width": 4032}], "place_id": "ChIJTewdfl4zOogRknPcAfFbCwA", "plus_code": {"compound_code": "74X7+5M Bellevue, Ohio", "global_code": "86HV74X7+5M"}, "rating": 5, "reference": "ChIJTewdfl4zOogRknPcAfFbCwA", "types": ["point_of_interest", "establishment"], "user_ratings_total": 3}, {"business_status": "OPERATIONAL", "formatted_address": "1390 Deer Path Dr, Port Clinton, OH 43452, United States", "geometry": {"location": {"lat": 41.495134, "lng": -82.95536}, "viewport": {"northeast": {"lat": 41.49682072989273, "lng": -82.95375642010728}, "southwest": {"lat": 41.49412107010728, "lng": -82.95645607989272}}}, "icon": "https://maps.gstatic.com/mapfiles/place_api/icons/v1/png_71/generic_business-71.png", "icon_background_color": "#7B9EB0", "icon_mask_base_uri": "https://maps.gstatic.com/mapfiles/place_api/icons/v2/generic_pinlet", "name": "GLUTH BUILDING CONTRACTOR LLC", "opening_hours": {"open_now": true}, "photos": [{"height": 1536, "html_attributions": ["<a href=\"https://maps.google.com/maps/contrib/111579795858740600680\">Justin Workman</a>"], "photo_reference": "AXQCQNRG8GYb3TVcOT1cp3lxUqniNZIevOUPqj01CEznwNlacwJ11HgjaPqEQJO_Kykc-3x8IhYO8f3xi3EK-lJxQVR9RfaDR2bz-yBq8YKSWPrjXi4lw4eE7uNOa5Bkw9NSPKQFi2dEPJXtJwe-Vub80d9tkMvzgouf4U3GF7wc-sIRj6D0R9gNC94wq37FIl3FGZ4iEDAjDVSLzPh9mEdtukTkdAcebdWbq4oNMvze7rZHwwy6wCpjnVfivn6v8bRql50Eyon7wD_sv_ENqPtNPDdRzLLP2ukK3BIDmgRmLZXuZeqvDk8F8P68XvoU7olDpegwjqZD-fEN9tEApe8joUxb5QYkF_JRZrZr2JKOGIwn50qSlfUeoqhK-eXAPIxkRsM1tk8AQSgroV0-v2dXbJmScWrxUaTnwihLGT_zcrctWI1hDI-6MesnitALzD9QVr5MjCRiX9MR3KDqbztEWNZPAfj9DlmbeUY5Zhcgf9kd-_6ve0-WslG1vUV02wUytf5zifc0apiM7n-1ixDohGz61I2PqFXwdUhCAwgLr3uldQ-5OAKT1OvRctFiZuVe6ldPIWi0", "width": 2560}], "place_id": "ChIJJ1NsHqazO4gRbbio5QrxOFY", "plus_code": {"compound_code": "F2WV+3V Port Clinton, Ohio", "global_code": "86HVF2WV+3V"}, "rating": 4.5, "reference": "ChIJJ1NsHqazO4gRbbio5QrxOFY", "types": ["home_goods_store", "general_contractor", "store", "point_of_interest", "establishment"], "user_ratings_total": 4}, {"business_status": "OPERATIONAL", "formatted_address": "447 Kinney St, Bellevue, OH 44811, United States", "geometry": {"location": {"lat": 41.2637126, "lng": -82.8478592}, "viewport": {"northeast": {"lat": 41.26506252989272, "lng": -82.84666527010728}, "southwest": {"lat": 41.26236287010728, "lng": -82.84936492989272}}}, "icon": "https://maps.gstatic.com/mapfiles/place_api/icons/v1/png_71/generic_business-71.png", "icon_background_color": "#7B9EB0", "icon_mask_base_uri": "https://maps.gstatic.com/mapfiles/place_api/icons/v2/generic_pinlet", "name": "Lee Brother's Electrical", "opening_hours": {"open_now": true}, "photos": [{"height": 3072, "html_attributions": ["<a href=\"https://maps.google.com/maps/contrib/103432800499109267500\">Lee Brother&#39;s Electrical</a>"], "photo_reference": "AXQCQNRMxnvVqCCupmqoy4mt7nQcCTXsJwUWe0f4p6OdYi2ldQYbc2BeRYXgqk_7B9Mbb_X39AbvSvK5FX3SqPt96lCbKAFtfftdeoXFeFCayC_a8PI7sOSJ5wQa3KZFR4PplN8PbRNTDVle08yd_QznTwh1QM--4Mxa6lHg6M-wIbmVrnVntJ9cCyYTpnkCX9Vy0hy8IIvBIoa62Ijhkg7TpFuwRO3A_iDxB8l_kVBtn9x3JcQDQpv1tXIlJqnO-KFPbfH9X4Zz_OSJgOb2KGiwFJ52dWjcKFWbAdhAyUcAvX62_EutYac", "width": 4080}], "place_id": "ChIJ2bl_4wuiIwQRz9EcI5ExA5w", "plus_code": {"compound_code": "7572+FV Bellevue, Ohio", "global_code": "86HV7572+FV"}, "rating": 4.8, "reference": "ChIJ2bl_4wuiIwQRz9EcI5ExA5w", "types": ["electrician", "point_of_interest", "establishment"], "user_ratings_total": 18}]