[{"business_status": "OPERATIONAL", "formatted_address": "3316 US-280, Alexander City, AL 35010, United States", "geometry": {"location": {"lat": 32.9308279, "lng": -85.96999249999999}, "viewport": {"northeast": {"lat": 32.93214447989273, "lng": -85.96846512010727}, "southwest": {"lat": 32.92944482010728, "lng": -85.97116477989272}}}, "icon": "https://maps.gstatic.com/mapfiles/place_api/icons/v1/png_71/hospital-71.png", "icon_background_color": "#F88181", "icon_mask_base_uri": "https://maps.gstatic.com/mapfiles/place_api/icons/v2/hospital-H_pinlet", "name": "Russell Medical", "opening_hours": {"open_now": true}, "photos": [{"height": 3840, "html_attributions": ["<a href=\"https://maps.google.com/maps/contrib/113577961548678380579\">Russell Medical</a>"], "photo_reference": "AXQCQNQOWTZypZjQj6TAu66NV8Inu9Iv1fkyQCHu0mtJ0mgk-COtEcEOU7vvUIkhAYfWANRzS5obWFn3GEGSupy4SszhEcuWf2s222GT8uufVv3LBnkChxgUTVpz0zxSaRPfQGmSJrBMjepRI2ZODrolebiK0Z4zBNwhviQ_DbyEnG0CV0i7U0mcebm1bT1r43RvEfL3Ys96UoAr4j9VrSuOCkHH-UdWrIm13mkOwRI45Rnal58dB_JRo7soz5RSN65kXnnpvi64687Ciy6EfNP8exnw773m_uh-5te049wDArTJgh_lFx0", "width": 5760}], "place_id": "ChIJcStPuHgLjIgRQBfQclo-sok", "plus_code": {"compound_code": "W2JJ+82 Alexander City, Alabama", "global_code": "864PW2JJ+82"}, "rating": 4.7, "reference": "ChIJcStPuHgLjIgRQBfQclo-sok", "types": ["hospital", "health", "point_of_interest", "establishment"], "user_ratings_total": 2271}, {"business_status": "OPERATIONAL", "formatted_address": "3368 US-280 Suite 200, Alexander City, AL 35010, United States", "geometry": {"location": {"lat": 32.9301257, "lng": -85.9694239}, "viewport": {"northeast": {"lat": 32.93169002989272, "lng": -85.96828407010727}, "southwest": {"lat": 32.92899037010728, "lng": -85.97098372989271}}}, "icon": "https://maps.gstatic.com/mapfiles/place_api/icons/v1/png_71/generic_business-71.png", "icon_background_color": "#7B9EB0", "icon_mask_base_uri": "https://maps.gstatic.com/mapfiles/place_api/icons/v2/generic_pinlet", "name": "Surgical Dermatology Group - Alexander City", "opening_hours": {"open_now": true}, "photos": [{"height": 3000, "html_attributions": ["<a href=\"https://maps.google.com/maps/contrib/112527994613874329895\">Nero Reigns</a>"], "photo_reference": "AXQCQNSp6yh29AuPTCJ4iTHATbpwg8OEko40sajnWpI6h9mz2z_tVBA58MaKc06jqrtDNUtgtq2BpFHZ8hy_V6txVKuAJiPH3I8w_797r_eK2sQqm7Hd-U34FvYvOb-6imCAcQfu9yCMIl5LsEbrFUAEC2AXQ4Zlv3vKGOGXPFKhf_XNFwB9ElBXyC40GrbbzkL40aMREzGF2H_BZ1pCpbQOnP9S-XTDQYXL6_SHAUvELFzCcH4cDGGMrugAOEFPQEiKqlVNaJ84Jq0Rra1pNhyTy2HwvBJamgKqOIMgYpxw61w0e0UodjLn4l3OMtzirtXdUgNMcam_j83Fz5l4zBZgR2BfAZfim_Snn8ciIkEo4T4WehXelfntKhUwAjpZGc8EJksyHndXLHyhIlpXI6vyhb_84SgFvWEMSVnZj-gRDF_SgHRSycDn57t0HKaQzafV4LiApuxT8SSN9ny37P2bzLksvdIcxuSH8_z137xvtiFYEU3MNSQWzZB3LGCxT7oc835u7Bk3jyETjVtgQfrlLv4arGBg58BTKrPIfI45tzR44CSMM8L8qnqgCJGqgllvMl1ee7f9", "width": 4000}], "place_id": "ChIJ6ZdVotgNjIgR8FdCX9UtBHM", "plus_code": {"compound_code": "W2JJ+36 Alexander City, Alabama", "global_code": "864PW2JJ+36"}, "rating": 4.9, "reference": "ChIJ6ZdVotgNjIgR8FdCX9UtBHM", "types": ["doctor", "health", "point_of_interest", "establishment"], "user_ratings_total": 254}, {"business_status": "OPERATIONAL", "formatted_address": "3368 US-280 Suite G-15, Alexander City, AL 35010, United States", "geometry": {"location": {"lat": 32.9305584, "lng": -85.9694042}, "viewport": {"northeast": {"lat": 32.93194427989272, "lng": -85.96803912010728}, "southwest": {"lat": 32.92924462010728, "lng": -85.97073877989273}}}, "icon": "https://maps.gstatic.com/mapfiles/place_api/icons/v1/png_71/generic_business-71.png", "icon_background_color": "#7B9EB0", "icon_mask_base_uri": "https://maps.gstatic.com/mapfiles/place_api/icons/v2/generic_pinlet", "name": "Southern Head & Neck Surgery", "opening_hours": {"open_now": true}, "photos": [{"height": 4032, "html_attributions": ["<a href=\"https://maps.google.com/maps/contrib/103828016291474036043\">Robert Voss</a>"], "photo_reference": "AXQCQNQjvUSyxBhfgvgaSnhzDnH39hbm5stQKys_bvoPrCxiCkAaKH-nOnL4SAgMmsbYAYieBMvAu9iWtX0ocWP525djQKWWKAqOhNeXge3Zi8BgW53oT-OwizsxTpDRPpUPP7iBo4ZgD5L3k_E9qzfm50JBtmQom8xkC1-EFTiVsHK1rdkn4bYYApZ5qUodVrquGOalxIX2brh3ZmOApXUK0oC9mrMdxm7sVnmkkJhySwvmACfVIU4mmp-IzrAE2-Y2qjmkGhNQEt5DkzOChbYD-naDJGtWr0HjcBqh4uM5ejIWSD9t1eAXYmh_vo7epn3QsCKbdy-VaNhIS3PyNe_wpfwY7cV0iz3AMY1V7fr35WmUU_WULevJ42R1m3rN5mb4CSaknoFoFh5s7NiAQB4LexxlzuWWv45HFLqcXGeEZm9RZOglJ2GsHxSvjNMxvLPB3RAKLohgOjRCG7AnIPQfSsbhmO2G7T0ByvUsxgxzFIuTsSzquNpYitWoS--MBpzvCm3MKGduMfmH0UGgEYCwvcAj2s3j-7Q5zwjBj_MGLp-j93HVyxpBb5xyJXPuJGA1lM5fbFu5hmx-kA", "width": 3024}], "place_id": "ChIJ8RKgjJgMjIgRcaLEsoCJBvk", "plus_code": {"compound_code": "W2JJ+66 Alexander City, Alabama", "global_code": "864PW2JJ+66"}, "rating": 4.9, "reference": "ChIJ8RKgjJgMjIgRcaLEsoCJBvk", "types": ["doctor", "health", "point_of_interest", "establishment"], "user_ratings_total": 352}, {"business_status": "OPERATIONAL", "formatted_address": "3368 US-280, Alexander City, AL 35010, United States", "geometry": {"location": {"lat": 32.9305584, "lng": -85.9694042}, "viewport": {"northeast": {"lat": 32.93194427989272, "lng": -85.96803912010728}, "southwest": {"lat": 32.92924462010728, "lng": -85.97073877989273}}}, "icon": "https://maps.gstatic.com/mapfiles/place_api/icons/v1/png_71/generic_business-71.png", "icon_background_color": "#7B9EB0", "icon_mask_base_uri": "https://maps.gstatic.com/mapfiles/place_api/icons/v2/generic_pinlet", "name": "Lacey Swenson", "place_id": "ChIJkdnU2ngLjIgRYBj4IeOc_iM", "plus_code": {"compound_code": "W2JJ+66 Alexander City, Alabama", "global_code": "864PW2JJ+66"}, "rating": 5, "reference": "ChIJkdnU2ngLjIgRYBj4IeOc_iM", "types": ["doctor", "health", "point_of_interest", "establishment"], "user_ratings_total": 6}, {"business_status": "OPERATIONAL", "formatted_address": "3316 US-280, Alexander City, AL 35010, United States", "geometry": {"location": {"lat": 32.9309003, "lng": -85.9701202}, "viewport": {"northeast": {"lat": 32.93229902989273, "lng": -85.96879372010729}, "southwest": {"lat": 32.92959937010728, "lng": -85.97149337989272}}}, "icon": "https://maps.gstatic.com/mapfiles/place_api/icons/v1/png_71/generic_business-71.png", "icon_background_color": "#7B9EB0", "icon_mask_base_uri": "https://maps.gstatic.com/mapfiles/place_api/icons/v2/generic_pinlet", "name": "Russell Medical Center: Emergency Room", "opening_hours": {"open_now": true}, "photos": [{"height": 3024, "html_attributions": ["<a href=\"https://maps.google.com/maps/contrib/104674782787422072897\">A Google User</a>"], "photo_reference": "AXQCQNSPG0LbPKZUc1hegbkIEUXhLNDPmDPuSkWhrMmpacQ4wCOvly_gtgxFr0j2xLMPwbbqP9khUfKoeifeLMkX-QOhLosC0eO0-Qq11q8S_ZZ63Lx_vOQLF0uD6HflyF0hCwZUrn2m34JhUV5khROfpcx_6481bc6tXYBuD4qyI1KJHTvMgAQwFXS9JU3vbHM2nNEZ48ILv46S9aMN9BZnAmkt81M9g0LEi0OLNYGQci_wccImHsXXuARsleYe5XebJkB7XgEZAHhcPd-5ESbBaGAuAgEZMThggGn-eWBC4-kiE7vP6IKLVXW9m1Yd0kWWLZorlQyi1jCy88QuSXNe1iCkI0zg19HGp1eDgAFUqpnYECZjiSaRw_NoGvvtqgkLYdXWGiq7obPq2kGgJxUIJgLJatL0ycD3ryjzZwZRzFW5vgk6A-3jFdjvhr7GFJN2WEBgW8gpDX0KYqlsrZOobJPtAVFwVDVHemBA7T4M2XlbKsSMr7OJm1xzg9OZycEua-dFIcmNa5Bg9GeQrcGl7UC96EoIbdQogUqiUhroppZ9EYOhwAIMPg9OLSkW_PF-RB8yNSY_", "width": 4032}], "place_id": "ChIJ72kWoZ4MjIgR--2R_7WQM_8", "plus_code": {"compound_code": "W2JH+9X Alexander City, Alabama", "global_code": "864PW2JH+9X"}, "rating": 2.4, "reference": "ChIJ72kWoZ4MjIgR--2R_7WQM_8", "types": ["health", "point_of_interest", "establishment"], "user_ratings_total": 40}, {"business_status": "OPERATIONAL", "formatted_address": "1120 Airport Dr # 101, Alexander City, AL 35010, United States", "geometry": {"location": {"lat": 32.9214425, "lng": -85.94530569999999}, "viewport": {"northeast": {"lat": 32.92282907989272, "lng": -85.94400647010727}, "southwest": {"lat": 32.92012942010727, "lng": -85.9467061298927}}}, "icon": "https://maps.gstatic.com/mapfiles/place_api/icons/v1/png_71/generic_business-71.png", "icon_background_color": "#7B9EB0", "icon_mask_base_uri": "https://maps.gstatic.com/mapfiles/place_api/icons/v2/generic_pinlet", "name": "Alexander City Orthopaedics", "place_id": "ChIJLcKkMacMjIgRnXAmYVJtCXA", "plus_code": {"compound_code": "W3C3+HV Alexander City, Alabama", "global_code": "864PW3C3+HV"}, "rating": 1, "reference": "ChIJLcKkMacMjIgRnXAmYVJtCXA", "types": ["doctor", "health", "point_of_interest", "establishment"], "user_ratings_total": 3}, {"business_status": "OPERATIONAL", "formatted_address": "839 Airport Dr # 103, Alexander City, AL 35010, United States", "geometry": {"location": {"lat": 32.920549, "lng": -85.9508372}, "viewport": {"northeast": {"lat": 32.92203437989272, "lng": -85.94943912010729}, "southwest": {"lat": 32.91933472010728, "lng": -85.95213877989272}}}, "icon": "https://maps.gstatic.com/mapfiles/place_api/icons/v1/png_71/generic_business-71.png", "icon_background_color": "#7B9EB0", "icon_mask_base_uri": "https://maps.gstatic.com/mapfiles/place_api/icons/v2/generic_pinlet", "name": "Oral & Facial Surgery of East Alabama - Alex City", "opening_hours": {"open_now": true}, "photos": [{"height": 4160, "html_attributions": ["<a href=\"https://maps.google.com/maps/contrib/104544838370456211252\">Mark Sponseller</a>"], "photo_reference": "AXQCQNRyHDH6JBJx2rs32qMakdUOGSI9QIH1SWARhlV8S6rUkslkLLtYMbRKyRUXUaThPboyRLJ6VUdHuuYl0-LqeYjk_A68N4_eU039Sf4AaJ1QhlPLda5_3CN0WFT6Ax0B6FIfzHxqPxMVkmGjT4tWrGMMssjLKOJNsvN3V-WaqrbQry9d6JmUrVdnuygxcpkwKsEWqbXMd2QPNTnV8n9Pvnp2-_1RW9w9xQKiDMmnm-__uX1tQDYBVVimwpU59jCdjMWEjktpFEUEF3OZglHBOy4dYbi_t8GkKUhtMa0-YE3wxp5dWiCzue3AEGg2sb_qTpEWZ6fikpa01NGyimBjSsi6GZzexTzbyaC3zoqBPdd1nLuzhc7nHhvfVZ-SKshCY368VXKHZe3--IeT_et3ThaNa263cFyHrZURsRmbFDaJS4gJ1ztNU5YL1GBoqYZbg7TPR3PQjnqrEL7xCQPPrhA-qLD6iLciHaSjuK19hFNUJsXgjeHm22DTrGNNVPMsrsJUKNsmw7_4x4_8UEYjHZErOeJhUuO75HQp2EiLtnabrUmJqb_Th7AcymrvYGiNk8jSlA", "width": 3120}], "place_id": "ChIJ_7hn1aEMjIgRRRXjt7qoRrE", "plus_code": {"compound_code": "W2CX+6M Alexander City, Alabama", "global_code": "864PW2CX+6M"}, "rating": 4.8, "reference": "ChIJ_7hn1aEMjIgRRRXjt7qoRrE", "types": ["dentist", "health", "point_of_interest", "establishment"], "user_ratings_total": 58}, {"business_status": "OPERATIONAL", "formatted_address": "1120 Airport Dr #102, Alexander City, AL 35010, United States", "geometry": {"location": {"lat": 32.920785, "lng": -85.955505}, "viewport": {"northeast": {"lat": 32.92213782989271, "lng": -85.95402582010728}, "southwest": {"lat": 32.91943817010727, "lng": -85.95672547989273}}}, "icon": "https://maps.gstatic.com/mapfiles/place_api/icons/v1/png_71/generic_business-71.png", "icon_background_color": "#7B9EB0", "icon_mask_base_uri": "https://maps.gstatic.com/mapfiles/place_api/icons/v2/generic_pinlet", "name": "Lake Martin Vascular Clinic", "opening_hours": {"open_now": true}, "place_id": "ChIJfYmkjJgMjIgR6P-9XvJjtAM", "plus_code": {"compound_code": "W2CV+8Q Alexander City, Alabama", "global_code": "864PW2CV+8Q"}, "rating": 4, "reference": "ChIJfYmkjJgMjIgR6P-9XvJjtAM", "types": ["doctor", "health", "point_of_interest", "establishment"], "user_ratings_total": 1}, {"business_status": "OPERATIONAL", "formatted_address": "3504 US-280, Alexander City, AL 35010, United States", "geometry": {"location": {"lat": 32.9281731, "lng": -85.9681586}, "viewport": {"northeast": {"lat": 32.92945632989272, "lng": -85.96677912010726}, "southwest": {"lat": 32.92675667010728, "lng": -85.96947877989271}}}, "icon": "https://maps.gstatic.com/mapfiles/place_api/icons/v1/png_71/generic_business-71.png", "icon_background_color": "#7B9EB0", "icon_mask_base_uri": "https://maps.gstatic.com/mapfiles/place_api/icons/v2/generic_pinlet", "name": "TOTAL HEALTHCARE@ RUSSELL MEDICAL", "opening_hours": {"open_now": true}, "place_id": "ChIJIxNsp-4LjIgRLS5lmBMd2vc", "plus_code": {"compound_code": "W2HJ+6M Alexander City, Alabama", "global_code": "864PW2HJ+6M"}, "rating": 4.2, "reference": "ChIJIxNsp-4LjIgRLS5lmBMd2vc", "types": ["doctor", "health", "point_of_interest", "establishment"], "user_ratings_total": 26}, {"business_status": "OPERATIONAL", "formatted_address": "3446 US-280, Alexander City, AL 35010, United States", "geometry": {"location": {"lat": 32.9293975, "lng": -85.9685186}, "viewport": {"northeast": {"lat": 32.93079742989272, "lng": -85.96721072010727}, "southwest": {"lat": 32.92809777010728, "lng": -85.96991037989272}}}, "icon": "https://maps.gstatic.com/mapfiles/place_api/icons/v1/png_71/generic_business-71.png", "icon_background_color": "#7B9EB0", "icon_mask_base_uri": "https://maps.gstatic.com/mapfiles/place_api/icons/v2/generic_pinlet", "name": "UAB Medicine Russell Medical Cancer Center", "place_id": "ChIJ8RKgjJgMjIgRqazGoFr-Nok", "plus_code": {"compound_code": "W2HJ+QH Alexander City, Alabama", "global_code": "864PW2HJ+QH"}, "rating": 5, "reference": "ChIJ8RKgjJgMjIgRqazGoFr-Nok", "types": ["health", "point_of_interest", "establishment"], "user_ratings_total": 4}, {"business_status": "OPERATIONAL", "formatted_address": "3368 US-280, Alexander City, AL 35010, United States", "geometry": {"location": {"lat": 32.9305584, "lng": -85.9694042}, "viewport": {"northeast": {"lat": 32.93194407989272, "lng": -85.96803962010728}, "southwest": {"lat": 32.92924442010727, "lng": -85.97073927989273}}}, "icon": "https://maps.gstatic.com/mapfiles/place_api/icons/v1/png_71/generic_business-71.png", "icon_background_color": "#7B9EB0", "icon_mask_base_uri": "https://maps.gstatic.com/mapfiles/place_api/icons/v2/generic_pinlet", "name": "Moor Plastic Surgery", "place_id": "ChIJ-1c4G2sLjIgRNbvfs-G3A-s", "plus_code": {"compound_code": "W2JJ+66 Alexander City, Alabama", "global_code": "864PW2JJ+66"}, "reference": "ChIJ-1c4G2sLjIgRNbvfs-G3A-s", "types": ["doctor", "health", "point_of_interest", "establishment"]}, {"business_status": "OPERATIONAL", "formatted_address": "125 Alison Dr Ste. 3, Alexander City, AL 35010, United States", "geometry": {"location": {"lat": 32.9306467, "lng": -85.97132859999999}, "viewport": {"northeast": {"lat": 32.93181322989272, "lng": -85.97014692010727}, "southwest": {"lat": 32.92911357010728, "lng": -85.97284657989272}}}, "icon": "https://maps.gstatic.com/mapfiles/place_api/icons/v1/png_71/generic_business-71.png", "icon_background_color": "#7B9EB0", "icon_mask_base_uri": "https://maps.gstatic.com/mapfiles/place_api/icons/v2/generic_pinlet", "name": "Clark Holmes Smith Oral Facial Surgery", "opening_hours": {"open_now": true}, "photos": [{"height": 4032, "html_attributions": ["<a href=\"https://maps.google.com/maps/contrib/107080783806634604534\">James Wright</a>"], "photo_reference": "AXQCQNSxGiTDPPwGomt8q4VJbwQiTCdyKMStwMtjEt8CDTbTYvJYtYGcUd5UxFMK-LEZysxkKIIhdMXsP4NT-5DRVF7hSjiQw4k9imMafCHV8UA19CjhDqBUngMSA40FiY-nfhSta7UR9nqWq9VLglKcKxK6ZtCPGu7WJ320X9GgYd-R5DP0zhmRd5IsCM2Wp5ZCiqbHOkvx92Rk8bbFoM4PtYacaUkmPZsTpOGHBi6d2Z3PDXcDGGphBhpq1190EHAC-ZnNxHRFo5UfnBSeTiSL2myHOsnMv2MW0VWqXBYzZKb-WiTUBnh5PyO9jQUj-mrQmcivyOA-6HJ6QBbVHdtw98flfWFqOOc4cReWSDnX6vp-ZPEbQQW_w8NcC_lDP93AmMOdID5IZUEGUEJ1wRbP-Ewux_kkT5AxBp8Lo7CQ6QdxNOzUHL1Q14vww6hOSYkJP0VNrTmGc8O_Zq59UVg84OURydPLhFQ_lsSWBfiUycAC0cWsiiR-Q2-1yixbWcqgox1xDzh0zsH5a2kOpR8KtlHtC-kzES4VNODb7dnwqUoLqreRe8Kqnp3hxajSzg9RZ8cR9t4Q", "width": 3024}], "place_id": "ChIJBXoMfvgLjIgRrJDXwelh-Ww", "plus_code": {"compound_code": "W2JH+7F Alexander City, Alabama", "global_code": "864PW2JH+7F"}, "rating": 4.9, "reference": "ChIJBXoMfvgLjIgRrJDXwelh-Ww", "types": ["dentist", "doctor", "health", "point_of_interest", "establishment"], "user_ratings_total": 91}, {"business_status": "OPERATIONAL", "formatted_address": "3368 US-280 Suite 116, Alexander City, AL 35010, United States", "geometry": {"location": {"lat": 32.9305233, "lng": -85.9692405}, "viewport": {"northeast": {"lat": 32.93183287989272, "lng": -85.96785867010728}, "southwest": {"lat": 32.92913322010728, "lng": -85.97055832989271}}}, "icon": "https://maps.gstatic.com/mapfiles/place_api/icons/v1/png_71/generic_business-71.png", "icon_background_color": "#7B9EB0", "icon_mask_base_uri": "https://maps.gstatic.com/mapfiles/place_api/icons/v2/generic_pinlet", "name": "Steven Baker", "place_id": "ChIJD5VL13gLjIgRBx2vQldvg_4", "plus_code": {"compound_code": "W2JJ+49 Alexander City, Alabama", "global_code": "864PW2JJ+49"}, "rating": 4, "reference": "ChIJD5VL13gLjIgRBx2vQldvg_4", "types": ["doctor", "health", "point_of_interest", "establishment"], "user_ratings_total": 4}, {"business_status": "OPERATIONAL", "formatted_address": "1649 Hwy 22 W Ste. 1, Alexander City, AL 35010, United States", "geometry": {"location": {"lat": 32.9318987, "lng": -85.97278279999999}, "viewport": {"northeast": {"lat": 32.93336807989272, "lng": -85.97158897010728}, "southwest": {"lat": 32.93066842010727, "lng": -85.97428862989271}}}, "icon": "https://maps.gstatic.com/mapfiles/place_api/icons/v1/png_71/generic_business-71.png", "icon_background_color": "#7B9EB0", "icon_mask_base_uri": "https://maps.gstatic.com/mapfiles/place_api/icons/v2/generic_pinlet", "name": "Alex City Foot Specialties", "opening_hours": {"open_now": false}, "photos": [{"height": 459, "html_attributions": ["<a href=\"https://maps.google.com/maps/contrib/111516855977155595085\">Alex City Foot Specialties</a>"], "photo_reference": "AXQCQNT2gX0pk8JZjuyE_6It_JPWDJsI58Pq5f8WPd8cSNRBNWgKipMa-8GKuxlqh20hbgDIM6Vy_O__b4Gr-83BeNbI96PsMLR32yZLAJitbod-yaonuxot0iLwIIKDix-fv5FSJCcsbApl-4MmehePBE2Vc8fJXnRS2JZfNo_6bbjpXxKtwswfZnNFUo7EqZ-pRbYdGgK95T5XCbeab8yVETdqRJI5cJdoKZC815dowglfb35aQqVwDZZ2_FWHEFNZ7lCJmGAKrb9qgh36_Dm-wN0ezbBfkM-cfc9zJUxZlszjFCZW9Og", "width": 612}], "place_id": "ChIJDajGioILjIgRhweS3ysJQfs", "plus_code": {"compound_code": "W2JG+QV Alexander City, Alabama", "global_code": "864PW2JG+QV"}, "rating": 4.3, "reference": "ChIJDajGioILjIgRhweS3ysJQfs", "types": ["doctor", "health", "point_of_interest", "establishment"], "user_ratings_total": 12}, {"business_status": "OPERATIONAL", "formatted_address": "3368 US-280, Alexander City, AL 35010, United States", "geometry": {"location": {"lat": 32.9305584, "lng": -85.9694042}, "viewport": {"northeast": {"lat": 32.93194427989272, "lng": -85.96803912010728}, "southwest": {"lat": 32.92924462010728, "lng": -85.97073877989273}}}, "icon": "https://maps.gstatic.com/mapfiles/place_api/icons/v1/png_71/generic_business-71.png", "icon_background_color": "#7B9EB0", "icon_mask_base_uri": "https://maps.gstatic.com/mapfiles/place_api/icons/v2/generic_pinlet", "name": "Helen Krontiras", "place_id": "ChIJkdnU2ngLjIgRPDFkLDChQJU", "plus_code": {"compound_code": "W2JJ+66 Alexander City, Alabama", "global_code": "864PW2JJ+66"}, "reference": "ChIJkdnU2ngLjIgRPDFkLDChQJU", "types": ["doctor", "health", "point_of_interest", "establishment"]}, {"business_status": "OPERATIONAL", "formatted_address": "3368 US-280 Suite G-15, Alexander City, AL 35010, United States", "geometry": {"location": {"lat": 32.9305584, "lng": -85.9694042}, "viewport": {"northeast": {"lat": 32.93194407989272, "lng": -85.96803962010728}, "southwest": {"lat": 32.92924442010727, "lng": -85.97073927989273}}}, "icon": "https://maps.gstatic.com/mapfiles/place_api/icons/v1/png_71/generic_business-71.png", "icon_background_color": "#7B9EB0", "icon_mask_base_uri": "https://maps.gstatic.com/mapfiles/place_api/icons/v2/generic_pinlet", "name": "F. Anthony McLeod, MD, FACS", "opening_hours": {"open_now": true}, "place_id": "ChIJ8RKgjJgMjIgRiYSsLIeCM5w", "plus_code": {"compound_code": "W2JJ+66 Alexander City, Alabama", "global_code": "864PW2JJ+66"}, "rating": 3.8, "reference": "ChIJ8RKgjJgMjIgRiYSsLIeCM5w", "types": ["doctor", "health", "point_of_interest", "establishment"], "user_ratings_total": 34}, {"business_status": "OPERATIONAL", "formatted_address": "3368 US-280 #130, Alexander City, AL 35010, United States", "geometry": {"location": {"lat": 32.9305584, "lng": -85.9694042}, "viewport": {"northeast": {"lat": 32.93194407989272, "lng": -85.96805672010727}, "southwest": {"lat": 32.92924442010727, "lng": -85.9707563798927}}}, "icon": "https://maps.gstatic.com/mapfiles/place_api/icons/v1/png_71/generic_business-71.png", "icon_background_color": "#7B9EB0", "icon_mask_base_uri": "https://maps.gstatic.com/mapfiles/place_api/icons/v2/generic_pinlet", "name": "Cardiology of Central Alabama", "opening_hours": {"open_now": true}, "place_id": "ChIJ8RKgjJgMjIgRGghWLNxKOWA", "plus_code": {"compound_code": "W2JJ+66 Alexander City, Alabama", "global_code": "864PW2JJ+66"}, "rating": 3.6, "reference": "ChIJ8RKgjJgMjIgRGghWLNxKOWA", "types": ["doctor", "health", "point_of_interest", "establishment"], "user_ratings_total": 5}, {"business_status": "OPERATIONAL", "formatted_address": "815 Lee St, Alexander City, AL 35010, United States", "geometry": {"location": {"lat": 32.9375141, "lng": -85.9642239}, "viewport": {"northeast": {"lat": 32.93906752989272, "lng": -85.96289687010727}, "southwest": {"lat": 32.93636787010728, "lng": -85.96559652989271}}}, "icon": "https://maps.gstatic.com/mapfiles/place_api/icons/v1/png_71/generic_business-71.png", "icon_background_color": "#7B9EB0", "icon_mask_base_uri": "https://maps.gstatic.com/mapfiles/place_api/icons/v2/generic_pinlet", "name": "Basel Refai PC", "opening_hours": {"open_now": true}, "place_id": "ChIJ8RKgjJgMjIgR9VHisYUTSaQ", "plus_code": {"compound_code": "W2QP+28 Alexander City, Alabama", "global_code": "864PW2QP+28"}, "rating": 4.6, "reference": "ChIJ8RKgjJgMjIgR9VHisYUTSaQ", "types": ["doctor", "health", "point_of_interest", "establishment"], "user_ratings_total": 9}, {"business_status": "OPERATIONAL", "formatted_address": "3368 US-280, Alexander City, AL 35010, United States", "geometry": {"location": {"lat": 32.9305584, "lng": -85.9694042}, "viewport": {"northeast": {"lat": 32.93194407989272, "lng": -85.96803962010728}, "southwest": {"lat": 32.92924442010727, "lng": -85.97073927989273}}}, "icon": "https://maps.gstatic.com/mapfiles/place_api/icons/v1/png_71/generic_business-71.png", "icon_background_color": "#7B9EB0", "icon_mask_base_uri": "https://maps.gstatic.com/mapfiles/place_api/icons/v2/generic_pinlet", "name": "Eye Associates PC", "opening_hours": {"open_now": true}, "place_id": "ChIJ8RKgjJgMjIgRP4W3qPw9lcs", "plus_code": {"compound_code": "W2JJ+66 Alexander City, Alabama", "global_code": "864PW2JJ+66"}, "rating": 3.5, "reference": "ChIJ8RKgjJgMjIgRP4W3qPw9lcs", "types": ["health", "point_of_interest", "establishment"], "user_ratings_total": 8}, {"business_status": "OPERATIONAL", "formatted_address": "3368 US-280, Alexander City, AL 35010, United States", "geometry": {"location": {"lat": 32.9305584, "lng": -85.9694042}, "viewport": {"northeast": {"lat": 32.93194407989272, "lng": -85.96803962010728}, "southwest": {"lat": 32.92924442010727, "lng": -85.97073927989273}}}, "icon": "https://maps.gstatic.com/mapfiles/place_api/icons/v1/png_71/generic_business-71.png", "icon_background_color": "#7B9EB0", "icon_mask_base_uri": "https://maps.gstatic.com/mapfiles/place_api/icons/v2/generic_pinlet", "name": "Bauer Urology Clinic LLC", "place_id": "ChIJg6TAp3gLjIgRXBezhcwXVlg", "plus_code": {"compound_code": "W2JJ+66 Alexander City, Alabama", "global_code": "864PW2JJ+66"}, "reference": "ChIJg6TAp3gLjIgRXBezhcwXVlg", "types": ["health", "point_of_interest", "establishment"]}]