[{"business_status": "OPERATIONAL", "formatted_address": "765 Twp Rd 1904, Ashland, OH 44805, United States", "geometry": {"location": {"lat": 40.7830313, "lng": -82.27250649999999}, "viewport": {"northeast": {"lat": 40.78502237989272, "lng": -82.27118602010728}, "southwest": {"lat": 40.78232272010727, "lng": -82.27388567989273}}}, "icon": "https://maps.gstatic.com/mapfiles/place_api/icons/v1/png_71/generic_business-71.png", "icon_background_color": "#7B9EB0", "icon_mask_base_uri": "https://maps.gstatic.com/mapfiles/place_api/icons/v2/generic_pinlet", "name": "Overton Valley Construction", "opening_hours": {"open_now": true}, "photos": [{"height": 768, "html_attributions": ["<a href=\"https://maps.google.com/maps/contrib/114812145317376680448\">Overton Valley Construction</a>"], "photo_reference": "AXQCQNR_GaJSGXS9P0jlP9IuoVTxIlHztxZ_QiKKn2UF52DFtBYBqHLqnDdc_x4YwvxZaBddLLbf90I3Nxd21la55PwPrD6Atq_U5mmpgGU-uCrKr539gwK4K1d06Nsi50jW2sgtYx57v_S9HJzZB8tYLJKkZbit3LtJ0lZ0k7OXc5U2R9c-nL-8fC1vkkkgTqkOFbn7IYwrzQTl3K2k77I-0Z16DcSSevgThhZZ6BPjHcfHhdhH9wYv19aieXAtBXXrG_S7QpX0_puvwQinLFIeleXg9-BD-N9qEETzAGldfCQ8I-Eo1KA", "width": 1024}], "place_id": "ChIJPwRUkWJUN4gRdQdodB9gEu4", "plus_code": {"compound_code": "QPMG+6X Ashland, Ohio", "global_code": "86GVQPMG+6X"}, "rating": 4.8, "reference": "ChIJPwRUkWJUN4gRdQdodB9gEu4", "types": ["general_contractor", "point_of_interest", "establishment"], "user_ratings_total": 26}, {"business_status": "OPERATIONAL", "formatted_address": "312 N Countryside Dr, Ashland, OH 44805, United States", "geometry": {"location": {"lat": 40.852584, "lng": -82.313253}, "viewport": {"northeast": {"lat": 40.85389792989273, "lng": -82.31166717010728}, "southwest": {"lat": 40.85119827010728, "lng": -82.31436682989272}}}, "icon": "https://maps.gstatic.com/mapfiles/place_api/icons/v1/png_71/generic_business-71.png", "icon_background_color": "#7B9EB0", "icon_mask_base_uri": "https://maps.gstatic.com/mapfiles/place_api/icons/v2/generic_pinlet", "name": "McFrederick Design & Construction", "opening_hours": {"open_now": true}, "photos": [{"height": 1008, "html_attributions": ["<a href=\"https://maps.google.com/maps/contrib/106153420353363353844\">A Google User</a>"], "photo_reference": "AXQCQNTnZu-ok63-Miu5N2eu4O6cvYqbwz0pMEuR7eWzXMZGznrNkkrFVUYO87Fc_GGp3YJPdXOFAcsCAyRm_CEefcRd4tVoF8U7yPEQKhooYqCymML-rqaWygLmkqdC_5ELBTf_CWxFqobYToN4bCGf-KDscQpnN6XwnFhoYPXTh7rUcyjZnbJNaENd4nq_OGEpshWDeOE_6nUOPnz3ie9CvYOxO8kMdp30MjUkN08KH0ZGRYYU_VHKTATGU266thh4NtvVF24wSmsgSEMgxidWELnUxHMdku3BpIIp_DQ_dei_vbzWFqM", "width": 756}], "place_id": "ChIJc7yRYtTlOYgR-0XW_hcZkf4", "plus_code": {"compound_code": "VM3P+2M Ashland, Ohio", "global_code": "86GVVM3P+2M"}, "rating": 4.8, "reference": "ChIJc7yRYtTlOYgR-0XW_hcZkf4", "types": ["point_of_interest", "establishment"], "user_ratings_total": 26}, {"business_status": "OPERATIONAL", "formatted_address": "746 US-250, Ashland, OH 44805, United States", "geometry": {"location": {"lat": 40.9549659, "lng": -82.36497399999999}, "viewport": {"northeast": {"lat": 40.95619662989272, "lng": -82.36353562010727}, "southwest": {"lat": 40.95349697010728, "lng": -82.36623527989272}}}, "icon": "https://maps.gstatic.com/mapfiles/place_api/icons/v1/png_71/generic_business-71.png", "icon_background_color": "#7B9EB0", "icon_mask_base_uri": "https://maps.gstatic.com/mapfiles/place_api/icons/v2/generic_pinlet", "name": "Burkholder's Custom Construction, LLC", "opening_hours": {"open_now": false}, "photos": [{"height": 3072, "html_attributions": ["<a href=\"https://maps.google.com/maps/contrib/105881568296773776375\">Matt Work</a>"], "photo_reference": "AXQCQNQ72SMvjC6Yxs0Hn8Rr_i7-avTCmmBYTpem2F4TTTClzRRtDv4dmR4rNP9UV_B2MpZGLajxGqhAMH5DTqWfywF_-fn8HW7VwZor1VkLhEVGoBbO5n2t69w9Pz5r1ua24HJUn3WHwRxmLlB2DvfKwXw8Jmhr-4VjsWy8j2Fqo2krEYVoZTQRuO3t8ZA-A4KOHgxsrHE-em7owVGd1JQGsoynhABKT6e5AEy7UOsaIaF4gchn_2jTVKEYnS-EqBArYAxiQu8zebK0p5CkqXZcHMr6AgcLnyU0-GC6ZqhpGtZlF5eQztaauqvfve2obwh-EuAhKW9ihNWrXZ941RCwHX7THOQdbd3Fsmj25so8ecbQpu2_rb6eOaasnDlfMLgDN1T84DzgtJEg46etBBA6O7s3OcFuddR1yFJ1WkkEN6Eyvls1udTSMw6hrAswGBkm-Z2qMqasB-yDE9eIvCT37XKQQv_cgkN5NGiNN0iX0vSCIT3F35Wr4e9aBjzCVRNbXMga53Ym-2l5qVLKWRIbH8tCOhG9b_aQEwik1wDJ1Kss0cDF98zhVKmuFAGxxV6AuRApWBYg", "width": 4080}], "place_id": "ChIJ2fApp035OYgRZVsJaoNewCo", "plus_code": {"compound_code": "XJ3P+X2 Ashland, Ohio", "global_code": "86GVXJ3P+X2"}, "rating": 4.6, "reference": "ChIJ2fApp035OYgRZVsJaoNewCo", "types": ["general_contractor", "point_of_interest", "establishment"], "user_ratings_total": 28}, {"business_status": "OPERATIONAL", "formatted_address": "2112 Troy Rd, Ashland, OH 44805, United States", "geometry": {"location": {"lat": 40.8903083, "lng": -82.31809229999999}, "viewport": {"northeast": {"lat": 40.89160917989272, "lng": -82.31691807010726}, "southwest": {"lat": 40.88890952010728, "lng": -82.31961772989271}}}, "icon": "https://maps.gstatic.com/mapfiles/place_api/icons/v1/png_71/generic_business-71.png", "icon_background_color": "#7B9EB0", "icon_mask_base_uri": "https://maps.gstatic.com/mapfiles/place_api/icons/v2/generic_pinlet", "name": "Simonson Construction Services, Inc.", "opening_hours": {"open_now": true}, "photos": [{"height": 2268, "html_attributions": ["<a href=\"https://maps.google.com/maps/contrib/108025021709128005763\">A Google User</a>"], "photo_reference": "AXQCQNS_8kus_bQ0WkAHMOc7OSuOaAC-7_HdlQoklLl63UVCWJqSdZ0V4XVsdwu2pSasifFYfoVh20K99IXzzj3hnMsf4UR86Y7AngK_-hijgo96X7hS-Q5J4lYr5Aqru_i59uEf3XsXev-TRD9xPOwwdYaa2cZJstMlLs-EFZXF9Z2XyXct86Rd9ur2eczzFgT6l6ln8pUp0P7eQJnYhhvzwvHl9U9xBgW2O2prnbyIzeIMe8H_neSKro4MWlLVDbK2CLBnzcpm1NCwvXnQUJOVx1VYGCvZ86rcnFc9GeAyvllQjIE7xaQ", "width": 4032}], "place_id": "ChIJiyPfvG77OYgR11guYhnWqSU", "plus_code": {"compound_code": "VMRJ+4Q Ashland, Ohio", "global_code": "86GVVMRJ+4Q"}, "rating": 4.7, "reference": "ChIJiyPfvG77OYgR11guYhnWqSU", "types": ["general_contractor", "point_of_interest", "establishment"], "user_ratings_total": 6}, {"business_status": "OPERATIONAL", "formatted_address": "1147 E Main St, Ashland, OH 44805, United States", "geometry": {"location": {"lat": 40.8645303, "lng": -82.2942329}, "viewport": {"northeast": {"lat": 40.86585057989272, "lng": -82.29270152010727}, "southwest": {"lat": 40.86315092010728, "lng": -82.2954011798927}}}, "icon": "https://maps.gstatic.com/mapfiles/place_api/icons/v1/png_71/generic_business-71.png", "icon_background_color": "#7B9EB0", "icon_mask_base_uri": "https://maps.gstatic.com/mapfiles/place_api/icons/v2/generic_pinlet", "name": "DM Roofing Siding & Windows of Ashland", "opening_hours": {"open_now": true}, "photos": [{"height": 726, "html_attributions": ["<a href=\"https://maps.google.com/maps/contrib/113540240463243122186\">DM Roofing Siding &amp; Windows of Ashland</a>"], "photo_reference": "AXQCQNTndoAMuanu2GmAy1VlfC6OBIvjoUeFDdKmBNG_FB4e8u5geBWrdNQAMQRFwWGoZ-Ud8IkxWrMn8-RnPFyFY0lXHJfQsZdgkkQiMmybZREPVMdQ8SDK_lZlGcxKIdjLHsbtaRGcQAu1ZG4M1DzYZR_3xSvjS4xAi40mmAxc5_SLJaMP4ezKWeuUaqRpmP7QJTI8FIV8d7SOtUIQzkg4EUhsVUhfApSaZNhiAsAFsvqDVmmQOb-cR8uA286GIO25pIsyjyZ1sFyME8Dt3AlODBTEPqtqrG1COnnyxLT-i8pVjX5I-RY", "width": 1297}], "place_id": "ChIJVckAvyP7OYgRuHOigzkycGc", "plus_code": {"compound_code": "VP74+R8 Ashland, Ohio", "global_code": "86GVVP74+R8"}, "rating": 5, "reference": "ChIJVckAvyP7OYgRuHOigzkycGc", "types": ["roofing_contractor", "general_contractor", "point_of_interest", "establishment"], "user_ratings_total": 22}, {"business_status": "OPERATIONAL", "formatted_address": "1147 E Main St, Ashland, OH 44805, United States", "geometry": {"location": {"lat": 40.8645303, "lng": -82.2942329}, "viewport": {"northeast": {"lat": 40.86585057989272, "lng": -82.29270152010727}, "southwest": {"lat": 40.86315092010728, "lng": -82.2954011798927}}}, "icon": "https://maps.gstatic.com/mapfiles/place_api/icons/v1/png_71/shopping-71.png", "icon_background_color": "#4B96F3", "icon_mask_base_uri": "https://maps.gstatic.com/mapfiles/place_api/icons/v2/shopping_pinlet", "name": "DM Interior Remodeling", "opening_hours": {"open_now": true}, "photos": [{"height": 1536, "html_attributions": ["<a href=\"https://maps.google.com/maps/contrib/116035240462006901033\">DM Interior Remodeling</a>"], "photo_reference": "AXQCQNQw8kOUp8BQOC5_KwJe-DmBrVsRIRB_VkKH0JzF6D1t77xejPuGhSW7oLtq0nrL4q9SdkX2GbnK-D8VOv5c3fNOA93gKafwIErcmbq7NBeRH6o7z0PXM7Eec52gUgghA3GQU-FirHLQ9mMvFX_HCBfuLI6OtfonNiNCNiJqggR10QtQYxYvYifCh7HJCHYdLz9_YMfsmEROJT3ttQB5hCVkBC4OLsfKyZaGT-ZVYdhKjeLTCUDB0flagFS0GaEjB4KdCedM6qJJ8q2eTMOeFkGdiaMvb3pHNG31XzXsoI1mSN6rs_E", "width": 2732}], "place_id": "ChIJwc4QMED7OYgRMmwzgsyPi9Y", "plus_code": {"compound_code": "VP74+R8 Ashland, Ohio", "global_code": "86GVVP74+R8"}, "rating": 4.9, "reference": "ChIJwc4QMED7OYgRMmwzgsyPi9Y", "types": ["home_goods_store", "general_contractor", "store", "point_of_interest", "establishment"], "user_ratings_total": 8}, {"business_status": "OPERATIONAL", "formatted_address": "620 E 7th St, Ashland, OH 44805, United States", "geometry": {"location": {"lat": 40.8742226, "lng": -82.30059729999999}, "viewport": {"northeast": {"lat": 40.87551207989273, "lng": -82.29924942010729}, "southwest": {"lat": 40.87281242010729, "lng": -82.30194907989272}}}, "icon": "https://maps.gstatic.com/mapfiles/place_api/icons/v1/png_71/generic_business-71.png", "icon_background_color": "#7B9EB0", "icon_mask_base_uri": "https://maps.gstatic.com/mapfiles/place_api/icons/v2/generic_pinlet", "name": "C.Harding Construction", "opening_hours": {"open_now": true}, "photos": [{"height": 3024, "html_attributions": ["<a href=\"https://maps.google.com/maps/contrib/104236854809866263968\">A Google User</a>"], "photo_reference": "AXQCQNRg7aTCz_J67hTaqcCexrbfHTez7QptwEXxnlo4sjriCOid1GHx8xf6I61F3pn-eBiDYAC_nqHCIDIVnQCAkH8gazHQu07EzFgF0YqxSM5asZCAiEkFNcCqjzxR7n6PuZPbzyQsqYsgQvjiBPO2czDZEte4bc59SoRLhLQ1_m7XVj5KmkYmMcZQISu595crJ5DXSWttT-uFEZACqMewoPBSt_qi4mpdzLSNzcLg2BEtpLGx_We7b-pSq9oSMK8u3lxvYAXxwtXaA0Gxeq_hYz2WgEKET7DqKkY8bFBGwsKynpAP0m4", "width": 4032}], "place_id": "ChIJ6bKOlB_7OYgR3JTVZCZYZYA", "plus_code": {"compound_code": "VMFX+MQ Ashland, Ohio", "global_code": "86GVVMFX+MQ"}, "rating": 4, "reference": "ChIJ6bKOlB_7OYgR3JTVZCZYZYA", "types": ["general_contractor", "point_of_interest", "establishment"], "user_ratings_total": 3}, {"business_status": "OPERATIONAL", "formatted_address": "1886 Township Rd 405, Jeromesville, OH 44840, United States", "geometry": {"location": {"lat": 40.78555799999999, "lng": -82.19937709999999}, "viewport": {"northeast": {"lat": 40.78690597989272, "lng": -82.19767577010727}, "southwest": {"lat": 40.78420632010727, "lng": -82.20037542989272}}}, "icon": "https://maps.gstatic.com/mapfiles/place_api/icons/v1/png_71/generic_business-71.png", "icon_background_color": "#7B9EB0", "icon_mask_base_uri": "https://maps.gstatic.com/mapfiles/place_api/icons/v2/generic_pinlet", "name": "America's Home Place - Ashland OH", "opening_hours": {"open_now": true}, "photos": [{"height": 432, "html_attributions": ["<a href=\"https://maps.google.com/maps/contrib/116914735346960190087\">America&#39;s Home Place - Ashland OH</a>"], "photo_reference": "AXQCQNRw-HbzMhmPOT4nS5q2SoxNQ8KnnmAGrxzWwQwp57hOc3sPSvpVjpn3qvVn7Csn-ucfkgSPOCuyxrgLPoM5Ial1j-D6_IBswJMM9AIetaVROVIvGYr5VBueYXXapWdKHQloOWPUEV1Hz44kYDVESoDeZTF8uuCjLU9aMZxoU2L6IcENzNEVY9Y5cXNvKrHt01WZRa_p1IIVRrY_GCHWzsCw3jilqdOwSl_Qv7rkdUfzYV2-cFtVqfgsgY6tXz5LUHRrxhpwAUDnMaDK_4SUB9kTHzZhVu0fFyGSRWL8S9IOb_Zq0d4", "width": 1080}], "place_id": "ChIJ29w554pZN4gR2Mr-alFVVhw", "plus_code": {"compound_code": "QRP2+66 Jeromesville, Ohio", "global_code": "86GVQRP2+66"}, "rating": 4.9, "reference": "ChIJ29w554pZN4gR2Mr-alFVVhw", "types": ["general_contractor", "point_of_interest", "establishment"], "user_ratings_total": 127}, {"business_status": "OPERATIONAL", "formatted_address": "130 W Walnut St, Ashland, OH 44805, United States", "geometry": {"location": {"lat": 40.8653933, "lng": -82.3154694}, "viewport": {"northeast": {"lat": 40.86667467989272, "lng": -82.31412297010728}, "southwest": {"lat": 40.86397502010728, "lng": -82.31682262989273}}}, "icon": "https://maps.gstatic.com/mapfiles/place_api/icons/v1/png_71/generic_business-71.png", "icon_background_color": "#7B9EB0", "icon_mask_base_uri": "https://maps.gstatic.com/mapfiles/place_api/icons/v2/generic_pinlet", "name": "Gusan Construction", "place_id": "ChIJ_XLi30z7OYgRGB2dNNfai08", "plus_code": {"compound_code": "VM8M+5R Ashland, Ohio", "global_code": "86GVVM8M+5R"}, "rating": 4.8, "reference": "ChIJ_XLi30z7OYgRGB2dNNfai08", "types": ["general_contractor", "point_of_interest", "establishment"], "user_ratings_total": 6}, {"business_status": "OPERATIONAL", "formatted_address": "742 US-250, Ashland, OH 44805, United States", "geometry": {"location": {"lat": 40.9557102, "lng": -82.3649961}, "viewport": {"northeast": {"lat": 40.95656877989272, "lng": -82.36354762010727}, "southwest": {"lat": 40.95386912010728, "lng": -82.36624727989272}}}, "icon": "https://maps.gstatic.com/mapfiles/place_api/icons/v1/png_71/shopping-71.png", "icon_background_color": "#4B96F3", "icon_mask_base_uri": "https://maps.gstatic.com/mapfiles/place_api/icons/v2/shopping_pinlet", "name": "NeilCo, LLC", "opening_hours": {"open_now": false}, "photos": [{"height": 1116, "html_attributions": ["<a href=\"https://maps.google.com/maps/contrib/112177463952684365965\">A Google User</a>"], "photo_reference": "AXQCQNTva31tcr21aRbIMkaAdC7eYF9ta1jRoMu7ekJ3Nh8eGrS1vAHnrLLxWoDamhU2hP4nOV2xCXtDb8x2qHlQA3VjuQDp2HsIoNiEW4lvjGxsLjg2FajIAsHIWFhCSfPH5Qkma9NU6bVD007Qh4vNoaYuDedA2eoEOZfwFiB10ZCAOE-SwGsBl5FEzuo9GSyJ_CRUD-Ysnrjib2Ky9ynjrk0P0iWj1kL1tJgZtBYxRjHRTBKK-38bfgmtQ-thR9VEbGtdwwKKLXRO2IuqJaOq4Xhw5JPYGBRctxQ1xPzvWRAGtP6XGq0aGkJt2d_F2QXQlpnUC_u-pX1QGfbZYOppHx7QytPAlfUwXVkzOe9-WL0XhMdWJWBCrVbK7PlDVe6VPqzdUZh6_bHZn7jN2KZSPB2wzsLYDMuZLkmTrRs7_KKGNqz58dEvmNtnxfEJU9cccYcMnyG_AW5VX9JMQt4P-EJvZ2JDMbefAArJdoeka2skcILamgYHWwe7Ry1CQFg3pVA5afxQ0b6PFd0525Sxjwhfpv_fg45T2Fg_wIbV9o66-8jJ8hlOEgO7vTxoTIPfxbvz1w8jemgQrg", "width": 1488}], "place_id": "ChIJbymXxIv5OYgREMZLWQQpmh0", "plus_code": {"compound_code": "XJ4P+72 Ashland, Ohio", "global_code": "86GVXJ4P+72"}, "rating": 4.7, "reference": "ChIJbymXxIv5OYgREMZLWQQpmh0", "types": ["roofing_contractor", "general_contractor", "store", "point_of_interest", "establishment"], "user_ratings_total": 64}, {"business_status": "OPERATIONAL", "formatted_address": "2105 Claremont Ave, Ashland, OH 44805, United States", "geometry": {"location": {"lat": 40.8469583, "lng": -82.34591259999999}, "viewport": {"northeast": {"lat": 40.84827647989271, "lng": -82.34462492010728}, "southwest": {"lat": 40.84557682010727, "lng": -82.34732457989271}}}, "icon": "https://maps.gstatic.com/mapfiles/place_api/icons/v1/png_71/generic_business-71.png", "icon_background_color": "#7B9EB0", "icon_mask_base_uri": "https://maps.gstatic.com/mapfiles/place_api/icons/v2/generic_pinlet", "name": "Mowry Construction & Engineering Inc", "opening_hours": {"open_now": false}, "place_id": "ChIJP9ocEiDlOYgRR45Vsd45XeA", "plus_code": {"compound_code": "RMW3+QJ Ashland, Ohio", "global_code": "86GVRMW3+QJ"}, "rating": 4, "reference": "ChIJP9ocEiDlOYgRR45Vsd45XeA", "types": ["general_contractor", "point_of_interest", "establishment"], "user_ratings_total": 5}, {"business_status": "OPERATIONAL", "formatted_address": "1761 Township Rd 85, Jeromesville, OH 44840, United States", "geometry": {"location": {"lat": 40.8047107, "lng": -82.13642920000001}, "viewport": {"northeast": {"lat": 40.80606472989273, "lng": -82.1356239}, "southwest": {"lat": 40.80336507010728, "lng": -82.13857390000001}}}, "icon": "https://maps.gstatic.com/mapfiles/place_api/icons/v1/png_71/generic_business-71.png", "icon_background_color": "#7B9EB0", "icon_mask_base_uri": "https://maps.gstatic.com/mapfiles/place_api/icons/v2/generic_pinlet", "name": "Bartter & Sons", "place_id": "ChIJf9txUHpZN4gRQ1cSjq2t4vE", "plus_code": {"compound_code": "RV37+VF Jeromesville, Ohio", "global_code": "86GVRV37+VF"}, "rating": 5, "reference": "ChIJf9txUHpZN4gRQ1cSjq2t4vE", "types": ["general_contractor", "point_of_interest", "establishment"], "user_ratings_total": 9}, {"business_status": "OPERATIONAL", "formatted_address": "1897 OH-89, Jeromesville, OH 44840, United States", "geometry": {"location": {"lat": 40.7857922, "lng": -82.18398169999999}, "viewport": {"northeast": {"lat": 40.78703167989272, "lng": -82.18277772010727}, "southwest": {"lat": 40.78433202010728, "lng": -82.1854773798927}}}, "icon": "https://maps.gstatic.com/mapfiles/place_api/icons/v1/png_71/generic_business-71.png", "icon_background_color": "#7B9EB0", "icon_mask_base_uri": "https://maps.gstatic.com/mapfiles/place_api/icons/v2/generic_pinlet", "name": "Wayne Homes Ashland Model Center", "opening_hours": {"open_now": true}, "photos": [{"height": 1365, "html_attributions": ["<a href=\"https://maps.google.com/maps/contrib/102856704108109820769\">Wayne Homes Ashland Model Center</a>"], "photo_reference": "AXQCQNSShQWaFlFMsZV8CnBlLiUFSQjMKJXWiYVVM9SL-FP313oIwFXHRdXuTPSwFKDN7dw53aRhUEsOtJUOmouy40MWS2ZkEEnxlMY9zT7VaYT7319cZp4sYpo1Wo93NblIjjCxJ7fVBD5z_SUajHO5rBRcantwRNJEDUIOiRVGySlbW3N4zIV4iCtHkss1R_jzlBuehgjZsZ3fls6i1cKzedx7dVMQW6bsEWEXU6EdZpGssaadfEJmt3XgvMzUBxZTU3MQKM3Xv3oHq_h7z6igk8yJ_k2aMA3AvSZxBEcmaZV5cTqO1xg", "width": 2048}], "place_id": "ChIJ4QrQCsVYN4gRFEAAGZJltik", "plus_code": {"compound_code": "QRP8+8C Jeromesville, Ohio", "global_code": "86GVQRP8+8C"}, "rating": 3.7, "reference": "ChIJ4QrQCsVYN4gRFEAAGZJltik", "types": ["general_contractor", "point_of_interest", "establishment"], "user_ratings_total": 69}, {"business_status": "OPERATIONAL", "formatted_address": "1405 Co Rd 1356, Ashland, OH 44805, United States", "geometry": {"location": {"lat": 40.866143, "lng": -82.398528}, "viewport": {"northeast": {"lat": 40.86744802989271, "lng": -82.39717987010728}, "southwest": {"lat": 40.86474837010727, "lng": -82.39987952989271}}}, "icon": "https://maps.gstatic.com/mapfiles/place_api/icons/v1/png_71/generic_business-71.png", "icon_background_color": "#7B9EB0", "icon_mask_base_uri": "https://maps.gstatic.com/mapfiles/place_api/icons/v2/generic_pinlet", "name": "Mark Houser Builders LLC", "opening_hours": {"open_now": true}, "photos": [{"height": 2322, "html_attributions": ["<a href=\"https://maps.google.com/maps/contrib/107813096105361091305\">Sharon Jones</a>"], "photo_reference": "AXQCQNQ2T1zVxLx-XHEXy86mPdn0tL0IlFWiVhAeFKjABNrwG7P4MbrtMoM94HOJFn9Os7cVK1zVzhf3csSmvsRYmLoGQjvG-P9YjtfrCbujl5bzEN_5TRgJzwqUiNJ-3jjnmmxrPfkY_CFloZ5OAKcD3Zk9wa9ev1Bf6Xw0NVwFk07Y3X9qw46w6zByBIyLWXNM-utErTpnf8mdWXWWLJqk2dQlILQmmM-e0qO3a1KRUy6ZHGFInjFgT9Ok9RkPRfIEy6mfpeShlwELl7ayxPctiIEXCVkDJ5lasfZ7XnY-4Sh7gB160wN7gAHVG27gmAKVqnNHEIlfny9i28_gBst7BuGWGjJhIMmzzz_Oyhi_zjj5MyEjjejUoao0O6BAxMkeMgucB2p2EAKO2He7_q_fSOw49PjQHDo6q8e7LfSMZgeePQNS-z5M7l5JesGvegtdLkjCPNBWJ6yFxT9H02S18EuSpXAfXoDrFbhXCVXV2BQWO3yEzaiL9bRbIXHauQu02puWwy_EOAtnGW1Z2M26cgZc7p0jbfF_3jnfU-SnHOdnZhQBFlpjlsaIypZEGP733adCLJIJ", "width": 4128}], "place_id": "ChIJ84HtxvzvOYgRTLImSubxWbI", "plus_code": {"compound_code": "VJ82+FH Ashland, Ohio", "global_code": "86GVVJ82+FH"}, "rating": 5, "reference": "ChIJ84HtxvzvOYgRTLImSubxWbI", "types": ["general_contractor", "point_of_interest", "establishment"], "user_ratings_total": 1}, {"business_status": "OPERATIONAL", "formatted_address": "806 Township Rd 1524, Ashland, OH 44805, United States", "geometry": {"location": {"lat": 40.8414199, "lng": -82.2813735}, "viewport": {"northeast": {"lat": 40.84262212989272, "lng": -82.28007452010729}, "southwest": {"lat": 40.83992247010728, "lng": -82.28277417989273}}}, "icon": "https://maps.gstatic.com/mapfiles/place_api/icons/v1/png_71/generic_business-71.png", "icon_background_color": "#7B9EB0", "icon_mask_base_uri": "https://maps.gstatic.com/mapfiles/place_api/icons/v2/generic_pinlet", "name": "Uhler Excavating Inc.", "opening_hours": {"open_now": true}, "photos": [{"height": 3341, "html_attributions": ["<a href=\"https://maps.google.com/maps/contrib/106557077824433544282\">Uhler Excavating Inc.</a>"], "photo_reference": "AXQCQNRW1FTYL6vw1jjjrjPYVufCoZy4K6wFTExT5JsKeknGU5Ba67sEVJy4cBZj16nTGCEJbiDwm_P6GradFSfqK4350b7i7tstj8Dyx3uHATorU85UZvTS7ZCdCbiPKXqv6xiers8o6hNNPMjHt-atYMnraDwh71bbzSCHqmTb1WOC9x6zNmj5jZVr_H-FgJlsXPamkjEptGGD61ftrbRwuiJjTDdGd1XtbriP_LsY9XDKbiynbTBbGHeGur8PUNwUAcEU7nJgHB99SdMhluHukFnlYDb8if7MCrd7_F1533B1JHSppLg", "width": 5318}], "place_id": "ChIJt-_0QhXjOYgRK08yjA2i9NU", "plus_code": {"compound_code": "RPR9+HF Ashland, Ohio", "global_code": "86GVRPR9+HF"}, "rating": 4.8, "reference": "ChIJt-_0QhXjOYgRK08yjA2i9NU", "types": ["general_contractor", "point_of_interest", "establishment"], "user_ratings_total": 5}, {"business_status": "OPERATIONAL", "formatted_address": "1173 Commerce Parkway, Ashland, OH 44805, United States", "geometry": {"location": {"lat": 40.8542588, "lng": -82.2706402}, "viewport": {"northeast": {"lat": 40.85555687989271, "lng": -82.26929022010728}, "southwest": {"lat": 40.85285722010727, "lng": -82.27198987989271}}}, "icon": "https://maps.gstatic.com/mapfiles/place_api/icons/v1/png_71/generic_business-71.png", "icon_background_color": "#7B9EB0", "icon_mask_base_uri": "https://maps.gstatic.com/mapfiles/place_api/icons/v2/generic_pinlet", "name": "Giant Design LLC", "opening_hours": {}, "place_id": "ChIJ_cg_uDHjOYgRzWs-0MtWfnE", "plus_code": {"compound_code": "VP3H+PP Ashland, Ohio", "global_code": "86GVVP3H+PP"}, "reference": "ChIJ_cg_uDHjOYgRzWs-0MtWfnE", "types": ["general_contractor", "point_of_interest", "establishment"]}, {"business_status": "OPERATIONAL", "formatted_address": "1926 Carter Ave, Ashland, KY 41101, United States", "geometry": {"location": {"lat": 38.475566, "lng": -82.63639979999999}, "viewport": {"northeast": {"lat": 38.47699207989272, "lng": -82.63498697010728}, "southwest": {"lat": 38.47429242010728, "lng": -82.63768662989273}}}, "icon": "https://maps.gstatic.com/mapfiles/place_api/icons/v1/png_71/generic_business-71.png", "icon_background_color": "#7B9EB0", "icon_mask_base_uri": "https://maps.gstatic.com/mapfiles/place_api/icons/v2/generic_pinlet", "name": "Classic Construction", "opening_hours": {"open_now": true}, "photos": [{"height": 2001, "html_attributions": ["<a href=\"https://maps.google.com/maps/contrib/110611797860034890653\">A Google User</a>"], "photo_reference": "AXQCQNR4BZnaFxJNfi7uGLrKLWluhZlH5ErykLqGtVby-sJjnx6K4r2rdumvgWk5bPzzgrtpUz4TCrI8OD6lOnKd0CDrh8KKsDzgsnlGg_ZlDQgoqi0rXIhqfSz3IfXWhlNBRGnwydoEZ48XTSkxb7zIE7G3x3QTXdb6L7A92UixGNk258kg3xOljuspuUgyyaJt1_fLHZjGKFpq4IPKBTo5-5-Q2e0vAs2ZmLy5o3QMO24ZD-Lw8po27SP7mg7sR5qhcvztJszbL9qYNoJ0Ltc7C_8Qj3VNxU7l5_a9EXDh3Ypg1DE3jVA", "width": 1125}], "place_id": "ChIJdy32wTp0RogREs5JJSNMg2c", "plus_code": {"compound_code": "F9G7+6C Ashland, Kentucky", "global_code": "86CVF9G7+6C"}, "rating": 4.7, "reference": "ChIJdy32wTp0RogREs5JJSNMg2c", "types": ["general_contractor", "point_of_interest", "establishment"], "user_ratings_total": 14}, {"business_status": "OPERATIONAL", "formatted_address": "1081 Co Rd 601, Ashland, OH 44805, United States", "geometry": {"location": {"lat": 40.9017451, "lng": -82.24671029999999}, "viewport": {"northeast": {"lat": 40.90316507989272, "lng": -82.24536492010726}, "southwest": {"lat": 40.90046542010728, "lng": -82.24806457989271}}}, "icon": "https://maps.gstatic.com/mapfiles/place_api/icons/v1/png_71/generic_business-71.png", "icon_background_color": "#7B9EB0", "icon_mask_base_uri": "https://maps.gstatic.com/mapfiles/place_api/icons/v2/generic_pinlet", "name": "Shakley Mechanical", "opening_hours": {"open_now": false}, "photos": [{"height": 3024, "html_attributions": ["<a href=\"https://maps.google.com/maps/contrib/112158859493563485894\">Randy Broderick</a>"], "photo_reference": "AXQCQNTPJx8S-jQFxF3QaTSKDPJzK59r44tQAxS0CPzx8-WiwCfPbUxJUCiAnvF0aiDpedA9ilhhe2_CXvDKi-GtaiwZYRHccDy2_QNRZkUu3lLYX-T0TxS0xmXk-wS-jlmQPbGM1N_6fVe-CKWFQ93wqE1Nq1wULNUcvhRIHQpo8iAm7xIu4Mk9DeplOBwlW3wLr_lV4r_kMUQzNMjLbplyZ1PuXHJ7zpn7Qrfh_ySP5XbqTPIaTHul7cKBc9O-bXdVsvamc0Xl8lYAgodgaGmX8SB_-coH1tHxlkSN35qSren4Yl4r_H5NNfG86jF278WE0OrrNJPq2QYP4TONEQlkJWPqS9YjYsXA6he3xoxD5LVaqFUcOzJ06rAE95Nthivu27O74bfq_yucYMPZO85jrfoBs1qbQJO9Q50Om7yzwYCpOCj64TpBoUmmjwCU9gsd30Zv6ppC-zPjzMF4mMAk50gTxTZ5dW_72UJM1UvHDa4_GY13Yg56nc3fesRAt-LTtvXr7Iv2nUa-c8SXws6VJ4eodiKPDBF3EsXpc6PT-SgGhJCIweQo3QQu5O8KEpc0LShd_q44", "width": 4032}], "place_id": "ChIJlzP5Dqb9OYgRpF-R1pUCmac", "plus_code": {"compound_code": "WQ23+MC Ashland, Ohio", "global_code": "86GVWQ23+MC"}, "rating": 4.9, "reference": "ChIJlzP5Dqb9OYgRpF-R1pUCmac", "types": ["plumber", "general_contractor", "point_of_interest", "establishment"], "user_ratings_total": 137}, {"business_status": "OPERATIONAL", "formatted_address": "1242 Co Rd 1475, Ashland, OH 44805, United States", "geometry": {"location": {"lat": 40.8405159, "lng": -82.36349140000002}, "viewport": {"northeast": {"lat": 40.84189502989272, "lng": -82.36225022010728}, "southwest": {"lat": 40.83919537010728, "lng": -82.36494987989272}}}, "icon": "https://maps.gstatic.com/mapfiles/place_api/icons/v1/png_71/generic_business-71.png", "icon_background_color": "#7B9EB0", "icon_mask_base_uri": "https://maps.gstatic.com/mapfiles/place_api/icons/v2/generic_pinlet", "name": "Bartley & Bolin Inc", "opening_hours": {"open_now": false}, "photos": [{"height": 1920, "html_attributions": ["<a href=\"https://maps.google.com/maps/contrib/109495310208349040946\">A Google User</a>"], "photo_reference": "AXQCQNQaMbT5F01pUQj-m52TluFozJ5_0upFgTP8xW38-mqjFNU28yCwPQRkyTZ77pCCRPmP-7kgVfpt_5nO60f1CH9xooVW2aTpYA7m9oaEWPTkUHOabqrpk4RK57DL5uCCeC0GXaTlVBR9KsfvRijbDjSGqRsnjBOwtC6dkH4SgDARg-c33xKgcKw6RDXA5OBubof-cOleICDM9KdH0ByP8w-04egpHOpLNY4n03_KzIS7GwKikHBDvM3BF2YEw9748wFW3Vs4rnQvNKj8BXQ-8N0vtBT-N-1iQVkc6nS7q19NB6ur9gg", "width": 1440}], "place_id": "ChIJJcvV8BLlOYgReug6wt55FBQ", "plus_code": {"compound_code": "RJRP+6J Ashland, Ohio", "global_code": "86GVRJRP+6J"}, "rating": 4.7, "reference": "ChIJJcvV8BLlOYgReug6wt55FBQ", "types": ["moving_company", "general_contractor", "point_of_interest", "establishment"], "user_ratings_total": 39}, {"business_status": "OPERATIONAL", "formatted_address": "315 Broad St, Ashland, OH 44805, United States", "geometry": {"location": {"lat": 40.8668738, "lng": -82.3206259}, "viewport": {"northeast": {"lat": 40.86827327989272, "lng": -82.31939807010728}, "southwest": {"lat": 40.86557362010727, "lng": -82.32209772989272}}}, "icon": "https://maps.gstatic.com/mapfiles/place_api/icons/v1/png_71/generic_business-71.png", "icon_background_color": "#7B9EB0", "icon_mask_base_uri": "https://maps.gstatic.com/mapfiles/place_api/icons/v2/generic_pinlet", "name": "Rogers Construction Ltd", "place_id": "ChIJzSgPAEv7OYgRBNZ8Ua_GXig", "plus_code": {"compound_code": "VM8H+QP Ashland, Ohio", "global_code": "86GVVM8H+QP"}, "rating": 5, "reference": "ChIJzSgPAEv7OYgRBNZ8Ua_GXig", "types": ["general_contractor", "point_of_interest", "establishment"], "user_ratings_total": 1}]