[{"business_status": "OPERATIONAL", "formatted_address": "437 Eloise Dr, Benton Harbor, MI 49022, United States", "geometry": {"location": {"lat": 42.083275, "lng": -86.4477883}, "viewport": {"northeast": {"lat": 42.08448902989272, "lng": -86.44643367010728}, "southwest": {"lat": 42.08178937010728, "lng": -86.44913332989273}}}, "icon": "https://maps.gstatic.com/mapfiles/place_api/icons/v1/png_71/generic_business-71.png", "icon_background_color": "#7B9EB0", "icon_mask_base_uri": "https://maps.gstatic.com/mapfiles/place_api/icons/v2/generic_pinlet", "name": "Bing's Construction CO. LLC", "opening_hours": {"open_now": true}, "photos": [{"height": 3024, "html_attributions": ["<a href=\"https://maps.google.com/maps/contrib/105870353083228203912\">Bing&#39;s Construction CO. LLC</a>"], "photo_reference": "AXQCQNSJFcu477aaUUJkCMURUGHN_yCDKiEAAhyj2rPjHIU7CwurNPKKtXhzKczBw7Im5Y30xuDR58hDkmDkm2go9u77kWMAd_ajPH6pc8kzULazOV2iIS1ZdIZpBSyRwjVouZ3Gl0PtB0TOshpvvnLEROsBejWfwZQlBdLe0BCxnWNkW5tFEhZ4WO43zZ3FJEkvrc6CqZFP__dthCwJQXN0yybrMgtpDB2YMEAtJ1etTqJXUyihmcuH0engo2D_ta0_Fo_S7lYdFFIY_tdYrfnDJToUpXvRzwxcAts8uVutPkYWyUxQkZE", "width": 4032}], "place_id": "ChIJeQ9NYyXFEIgRUV6NlwD8aM4", "plus_code": {"compound_code": "3HM2+8V Benton Harbor, Michigan", "global_code": "86JM3HM2+8V"}, "rating": 4.7, "reference": "ChIJeQ9NYyXFEIgRUV6NlwD8aM4", "types": ["roofing_contractor", "general_contractor", "point_of_interest", "establishment"], "user_ratings_total": 57}, {"business_status": "OPERATIONAL", "formatted_address": "240 W Britain Ave, Benton Harbor, MI 49022, United States", "geometry": {"location": {"lat": 42.1087724, "lng": -86.45972689999999}, "viewport": {"northeast": {"lat": 42.11021887989272, "lng": -86.45837577010728}, "southwest": {"lat": 42.10751922010728, "lng": -86.46107542989272}}}, "icon": "https://maps.gstatic.com/mapfiles/place_api/icons/v1/png_71/generic_business-71.png", "icon_background_color": "#7B9EB0", "icon_mask_base_uri": "https://maps.gstatic.com/mapfiles/place_api/icons/v2/generic_pinlet", "name": "Pearson Construction Company", "opening_hours": {"open_now": true}, "photos": [{"height": 2448, "html_attributions": ["<a href=\"https://maps.google.com/maps/contrib/112741739737705470913\">A Google User</a>"], "photo_reference": "AXQCQNQxpKEzzy7z_mUFJMdrIoHB_NVX-nmL1DxT4DzwGPqqjjqQUYmZ6_w_62zq-fBQkyDqz1PLlf6GnA9RV-dwetq6PaHvTqAmz9JX7cR9lqdlj2uP8akZcVOMw_ZpV3_ir4aDrsyg_jwlX8kKTbUtIzHqEcZfMeR0PHKWxHVACo9ZDpMhCW03ORS_cSa_rzKUbNkjrji73LBKTQZeHxSff0kqwT0k76k6xWkvAJR0cCw-EENf1sGOnAxvoa4izQhymfgbt-sax2Uol__VP-zrn1czY7QTzf4rIvGgEMWmJi6-ufgEO3A", "width": 3264}], "place_id": "ChIJy6-WWYfGEIgR47Q_FP6_n4M", "plus_code": {"compound_code": "4G5R+G4 Benton Harbor, Michigan", "global_code": "86JM4G5R+G4"}, "rating": 4.3, "reference": "ChIJy6-WWYfGEIgR47Q_FP6_n4M", "types": ["general_contractor", "point_of_interest", "establishment"], "user_ratings_total": 7}, {"business_status": "OPERATIONAL", "formatted_address": "1923 Pipestone Rd, Benton Harbor, MI 49022, United States", "geometry": {"location": {"lat": 42.0830329, "lng": -86.4182529}, "viewport": {"northeast": {"lat": 42.08424787989272, "lng": -86.41686617010728}, "southwest": {"lat": 42.08154822010728, "lng": -86.41956582989272}}}, "icon": "https://maps.gstatic.com/mapfiles/place_api/icons/v1/png_71/generic_business-71.png", "icon_background_color": "#7B9EB0", "icon_mask_base_uri": "https://maps.gstatic.com/mapfiles/place_api/icons/v2/generic_pinlet", "name": "Build Rite Construction LLC", "opening_hours": {"open_now": true}, "photos": [{"height": 3333, "html_attributions": ["<a href=\"https://maps.google.com/maps/contrib/112377308007903954736\">A Google User</a>"], "photo_reference": "AXQCQNRTuupJvzi-gPYWcV4ke0zQq2XYCnHV48I979_7nxyKjEz0ZFG8-mkNGOu6aGJciJy9EtqHL67ghlCMDsj25177txxfwd5rQzU88Mbtbm7UAya81ZeZAeILKCxwtcP4ABf47tPOsc2LKiY6CuggwG84CKS5FgjDaBp0eCEt7oKwDv8_fav8opT-HXfMFu29zdcR5o5lYMby_itsML79VKylGk-QqOtosN_ZC-E7SgaHYeLRPiD7nurcCggwzB7VPSTGNPle8IQh9i_OzbPkWdj7m6BdhX51Xx_aah4p3UzmdXrfj-g", "width": 5000}], "place_id": "ChIJm4iR04LPEIgRkyHdmUD13g4", "plus_code": {"compound_code": "3HMJ+6M Benton Harbor, Michigan", "global_code": "86JM3HMJ+6M"}, "rating": 4.9, "reference": "ChIJm4iR04LPEIgRkyHdmUD13g4", "types": ["general_contractor", "point_of_interest", "establishment"], "user_ratings_total": 16}, {"business_status": "OPERATIONAL", "formatted_address": "335 Urbandale Ave, Benton Harbor, MI 49022, United States", "geometry": {"location": {"lat": 42.1202654, "lng": -86.424464}, "viewport": {"northeast": {"lat": 42.12164242989272, "lng": -86.42311602010727}, "southwest": {"lat": 42.11894277010728, "lng": -86.42581567989272}}}, "icon": "https://maps.gstatic.com/mapfiles/place_api/icons/v1/png_71/generic_business-71.png", "icon_background_color": "#7B9EB0", "icon_mask_base_uri": "https://maps.gstatic.com/mapfiles/place_api/icons/v2/generic_pinlet", "name": "McGuire's Professional Construction, Inc.", "opening_hours": {"open_now": true}, "place_id": "ChIJUyPMuBjGEIgRh294h-uaFoo", "plus_code": {"compound_code": "4HCG+56 Benton Harbor, Michigan", "global_code": "86JM4HCG+56"}, "rating": 5, "reference": "ChIJUyPMuBjGEIgRh294h-uaFoo", "types": ["general_contractor", "point_of_interest", "establishment"], "user_ratings_total": 4}, {"business_status": "OPERATIONAL", "formatted_address": "228 Windsor Rd, Benton Harbor, MI 49022, United States", "geometry": {"location": {"lat": 42.095407, "lng": -86.459622}, "viewport": {"northeast": {"lat": 42.09701567989272, "lng": -86.45826832010727}, "southwest": {"lat": 42.09431602010728, "lng": -86.46096797989271}}}, "icon": "https://maps.gstatic.com/mapfiles/place_api/icons/v1/png_71/generic_business-71.png", "icon_background_color": "#7B9EB0", "icon_mask_base_uri": "https://maps.gstatic.com/mapfiles/place_api/icons/v2/generic_pinlet", "name": "GreenSpan Construction, LLC", "opening_hours": {"open_now": true}, "place_id": "ChIJzRZt_gLFEIgRA_tfNG7vk9E", "plus_code": {"compound_code": "3GWR+55 Benton Harbor, Michigan", "global_code": "86JM3GWR+55"}, "rating": 5, "reference": "ChIJzRZt_gLFEIgRA_tfNG7vk9E", "types": ["general_contractor", "point_of_interest", "establishment"], "user_ratings_total": 1}, {"business_status": "OPERATIONAL", "formatted_address": "422 Gary Ave, Benton Harbor, MI 49022, United States", "geometry": {"location": {"lat": 42.0801782, "lng": -86.4634581}, "viewport": {"northeast": {"lat": 42.08155987989272, "lng": -86.46210797010727}, "southwest": {"lat": 42.07886022010728, "lng": -86.46480762989272}}}, "icon": "https://maps.gstatic.com/mapfiles/place_api/icons/v1/png_71/generic_business-71.png", "icon_background_color": "#7B9EB0", "icon_mask_base_uri": "https://maps.gstatic.com/mapfiles/place_api/icons/v2/generic_pinlet", "name": "Vista Construction, Inc.", "opening_hours": {"open_now": true}, "photos": [{"height": 1152, "html_attributions": ["<a href=\"https://maps.google.com/maps/contrib/104160547054600654819\">Vista Construction, Inc.</a>"], "photo_reference": "AXQCQNRhsxGwTDVkrxoAkyw7aRDFC9cqGzJO6qL-NW8h1WeX5apSF8MYkf1RapGNr7Ofib7uhodpNNLfWHxad1a86XNoYXlprCSrjMYrKRJ0l3tU2TZ_wZHFmu7bTjHv_VrID8vrxuTfeknnen4Tlda5JAIfoHJBi8MOnwFePO0MCf93fjCBC2p2lRBOFjoBvD0gEx6kxixxKx4c2UFNWJ1w0MTvy5hhSXvUf5dqfGVgnNovX-9ziVX3DLW8Wq26Abtd4CGmxrc08GH73kwNB4skyXx6LtgBHQjh5rVqLjQ8_PTvMs-KRlQ", "width": 2048}], "place_id": "ChIJj7m8B7TEEIgR58YseIHST04", "plus_code": {"compound_code": "3GJP+2J Benton Harbor, Michigan", "global_code": "86JM3GJP+2J"}, "rating": 5, "reference": "ChIJj7m8B7TEEIgR58YseIHST04", "types": ["general_contractor", "point_of_interest", "establishment"], "user_ratings_total": 18}, {"business_status": "OPERATIONAL", "formatted_address": "2019 Taylor St, Benton Harbor, MI 49022, United States", "geometry": {"location": {"lat": 42.13204040000001, "lng": -86.41057959999999}, "viewport": {"northeast": {"lat": 42.13326232989273, "lng": -86.40923072010727}, "southwest": {"lat": 42.13056267010728, "lng": -86.41193037989272}}}, "icon": "https://maps.gstatic.com/mapfiles/place_api/icons/v1/png_71/generic_business-71.png", "icon_background_color": "#7B9EB0", "icon_mask_base_uri": "https://maps.gstatic.com/mapfiles/place_api/icons/v2/generic_pinlet", "name": "Pedroza Construction", "opening_hours": {"open_now": true}, "photos": [{"height": 335, "html_attributions": ["<a href=\"https://maps.google.com/maps/contrib/109017873372365876186\">Pedroza Construction</a>"], "photo_reference": "AXQCQNRRL2IMmbOVP1OXWR78ONqHGEPH_3lvHPW-lL_4eLiTtv5qO0_7a8M5f2vmP-x7TmSvlNLESRCItM-z1DL2qxFIdZzsNbtzJZIYqtuRiadju1nfJclTm9igO2UXzg45MtNBGuqEopW_DpO0yXyiHVzdS3RMNxDYk7PbsqKDTGliLM2SHmXjt6oUbyMXJPpKMRhNEfNZI4sgyCkrUGBjJns9kBK7NACv8hvZyqA_Zl_-UUaGSKt1sfmXTlCa-7Y_U2egJ_kyaQazdnbfhHJDAjQf4WCD59iB3hvXFbnaiBnjnwJY1RY", "width": 526}], "place_id": "ChIJnT7AIoXIEIgRP55H-CLnUUM", "plus_code": {"compound_code": "4HJQ+RQ Benton Harbor, Michigan", "global_code": "86JM4HJQ+RQ"}, "rating": 5, "reference": "ChIJnT7AIoXIEIgRP55H-CLnUUM", "types": ["general_contractor", "roofing_contractor", "home_goods_store", "store", "point_of_interest", "establishment"], "user_ratings_total": 6}, {"business_status": "OPERATIONAL", "formatted_address": "814 Roslin Rd, Benton Harbor, MI 49022, United States", "geometry": {"location": {"lat": 42.1283742, "lng": -86.3501143}, "viewport": {"northeast": {"lat": 42.12972532989272, "lng": -86.34843997010728}, "southwest": {"lat": 42.12702567010728, "lng": -86.35113962989271}}}, "icon": "https://maps.gstatic.com/mapfiles/place_api/icons/v1/png_71/generic_business-71.png", "icon_background_color": "#7B9EB0", "icon_mask_base_uri": "https://maps.gstatic.com/mapfiles/place_api/icons/v2/generic_pinlet", "name": "Diamond Construction Builders LLC", "opening_hours": {"open_now": true}, "photos": [{"height": 3472, "html_attributions": ["<a href=\"https://maps.google.com/maps/contrib/117629600347920947085\">Mufi Nurbhai</a>"], "photo_reference": "AXQCQNRs6z2Lkw8NfEXTky_1pygXez7eJGoeUqhjg_iWtYrz97IiA3fRJVOSE9rgUWkzPjknuJs8U8mee-CtoTrehbnJv7WAaOEOMcz1jw1TfSAQ6gQnhFOSoGpDy4DY2tcxnol2q0ytlbAk4oG0uxo_4ak-PrqFH3wJ9iv9Rie1bX5nAs0NFpijBZbnrfX1EO0MIL0xx7Ci6HU94k3NzYYwkyDZt4r5EeWBoguVsFdHte8u-TT5QgrLDiww6Z8JpZrHAe2Yz8CkaWBuyJME8m6hSGU7G35U6dyrjEHtgmghW1bdNJ6WM0Kpo5Lqhq7USNrhy-KmDmnqU4x4boB_1YaX60CrxC2esJXuQaSkA1wY6ib2nvwNDo56cNxQ9-GRks5-8Pbi-LstPkdRIv9EvfwQoRQtTIG-78zXyNyOjeJ0YIEGouxIYB5KJEg5CRfo-oHPEgNkG3FE1-FemCHGKmGwcTR6vhGlOZ_LtGWWjxD1aXi6mCEHR3qXyAhfEj6Es0zCooR642l9N6rDE6Pyg-56vYT8kq792YF_cb4Ec36xlf_4MnMt2FW13O9VZE1fdmq5VUxbBuFSRQvXZg", "width": 4624}], "place_id": "ChIJTY9ypo9R5U0RdosTw5aDY4Y", "plus_code": {"compound_code": "4JHX+8X Benton Harbor, Michigan", "global_code": "86JM4JHX+8X"}, "rating": 5, "reference": "ChIJTY9ypo9R5U0RdosTw5aDY4Y", "types": ["general_contractor", "point_of_interest", "establishment"], "user_ratings_total": 5}, {"business_status": "OPERATIONAL", "formatted_address": "1220 M-139 unit 4, Benton Harbor, MI 49022, United States", "geometry": {"location": {"lat": 42.0971998, "lng": -86.43509999999999}, "viewport": {"northeast": {"lat": 42.09852497989272, "lng": -86.43357102010728}, "southwest": {"lat": 42.09582532010727, "lng": -86.43627067989273}}}, "icon": "https://maps.gstatic.com/mapfiles/place_api/icons/v1/png_71/generic_business-71.png", "icon_background_color": "#7B9EB0", "icon_mask_base_uri": "https://maps.gstatic.com/mapfiles/place_api/icons/v2/generic_pinlet", "name": "Pantelleria Construction Services & Property Management", "photos": [{"height": 316, "html_attributions": ["<a href=\"https://maps.google.com/maps/contrib/113667683527776765316\">A Google User</a>"], "photo_reference": "AXQCQNRTCfChQ9i-Ff7UC1k-JtuLbpftLZwzfUMEPEzD8ISvF5Vew4w3ufq-nPJDNlJzjvTjanHUrso3HsaXwcIsCIm9m3C2NSeLTgGjKVKCJ8IBIHpPPohxheDtlHCBgyrlSwZnNKCL7ZxVXL5_rQJRQhrie0ecwcniZsCs3W7UZJ1W4EGKH497wyNv6fSjAIQlEC1XCCIeG6oWrl3LDpyYWkIzXdhXWZ6rmdv8LX7wbbDddiVjgFeY69v02SldWTw4MNSO6CF8fhUoE4VlgJW2vZRjecj7iHd583hXPmvnfs-IGK_ic64", "width": 316}], "place_id": "ChIJQ-wXzObFEIgR2xKGiRZNBcw", "plus_code": {"compound_code": "3HW7+VX Benton Harbor, Michigan", "global_code": "86JM3HW7+VX"}, "rating": 4.3, "reference": "ChIJQ-wXzObFEIgR2xKGiRZNBcw", "types": ["home_goods_store", "general_contractor", "store", "point_of_interest", "establishment"], "user_ratings_total": 10}, {"business_status": "OPERATIONAL", "formatted_address": "1324 Pipestone Rd, Benton Harbor, MI 49022, United States", "geometry": {"location": {"lat": 42.0935743, "lng": -86.4294523}, "viewport": {"northeast": {"lat": 42.09497052989272, "lng": -86.42808587010727}, "southwest": {"lat": 42.09227087010728, "lng": -86.43078552989272}}}, "icon": "https://maps.gstatic.com/mapfiles/place_api/icons/v1/png_71/generic_business-71.png", "icon_background_color": "#7B9EB0", "icon_mask_base_uri": "https://maps.gstatic.com/mapfiles/place_api/icons/v2/generic_pinlet", "name": "Briney Construction Services", "place_id": "ChIJVY3KWuXFEIgRn3Fp4_QC3RI", "plus_code": {"compound_code": "3HVC+C5 Benton Harbor, Michigan", "global_code": "86JM3HVC+C5"}, "rating": 5, "reference": "ChIJVY3KWuXFEIgRn3Fp4_QC3RI", "types": ["general_contractor", "point_of_interest", "establishment"], "user_ratings_total": 1}, {"business_status": "OPERATIONAL", "formatted_address": "1465 E Main St, Benton Harbor, MI 49022, United States", "geometry": {"location": {"lat": 42.1196597, "lng": -86.42292239999999}, "viewport": {"northeast": {"lat": 42.12088612989273, "lng": -86.42157587010728}, "southwest": {"lat": 42.11818647010729, "lng": -86.42427552989271}}}, "icon": "https://maps.gstatic.com/mapfiles/place_api/icons/v1/png_71/generic_business-71.png", "icon_background_color": "#7B9EB0", "icon_mask_base_uri": "https://maps.gstatic.com/mapfiles/place_api/icons/v2/generic_pinlet", "name": "ADAMS & Son, Inc.", "opening_hours": {"open_now": true}, "photos": [{"height": 3025, "html_attributions": ["<a href=\"https://maps.google.com/maps/contrib/107808089284860012015\">A Google User</a>"], "photo_reference": "AXQCQNTRmNSCV-42eWEa_TUuu3ZRcQM8ZFKenu1vlypM9yS25kFbBn8XKaztXY-X8M9ZHNiP6csE94Fd-V1GoAv_A46DZkQiiz82IkFtrjgL1VNW8id2UBXzIiEZDO1wUEEqy2BqfiPKVN5xxIgR8UtJibse-eGbg35ZdnQVWDecrzDE59S5-5jHbCECPz-7YkaiifB0N8oVinrOUb-TBePiTaROMC77A02DiQsbfOfN2edt4B5vhfmfww2dK-4TM2XPTJX-tnKqD8zf4oT0zHDI8k5OT7gasT2XxoNAbiK0xcI2IzOMIK4", "width": 3024}], "place_id": "ChIJQYdAB7PPEIgRkNyxe-GmewU", "plus_code": {"compound_code": "4H9G+VR Benton Harbor, Michigan", "global_code": "86JM4H9G+VR"}, "rating": 5, "reference": "ChIJQYdAB7PPEIgRkNyxe-GmewU", "types": ["home_goods_store", "general_contractor", "store", "point_of_interest", "establishment"], "user_ratings_total": 149}, {"business_status": "OPERATIONAL", "formatted_address": "1001 Clarke Ave, Benton Harbor, MI 49022, United States", "geometry": {"location": {"lat": 42.0970392, "lng": -86.4366425}, "viewport": {"northeast": {"lat": 42.09838972989272, "lng": -86.43506187010728}, "southwest": {"lat": 42.09569007010727, "lng": -86.43776152989273}}}, "icon": "https://maps.gstatic.com/mapfiles/place_api/icons/v1/png_71/generic_business-71.png", "icon_background_color": "#7B9EB0", "icon_mask_base_uri": "https://maps.gstatic.com/mapfiles/place_api/icons/v2/generic_pinlet", "name": "B & Z Co", "opening_hours": {"open_now": true}, "photos": [{"height": 304, "html_attributions": ["<a href=\"https://maps.google.com/maps/contrib/117340299333360332728\">A Google User</a>"], "photo_reference": "AXQCQNQy8JXwZ1CK7dGR7dePOwJlxhvpbFEl9gK2zGbf8l-ueKzIY4NoS3caEgQFz_b8z_0oiJ3z6Oj4KjhSbY_Hem4g4l1tXxPA1Z8-Rw0hT0jyibP2Ksh2aU9ozGfQDLRUAyIZLaX-GPaQv567jmu1lQqUSTgolKPX9OI9-7sfcDzucqWqdrDR9avrcAGlh8gjhCTPiDRD4RD7xWhCNGOBQdThBDg5l1Cq-yGi0AJ-wBA67ZJph_vxYLJXZgkFO2oH5bZGoZjCzq4LXpkYg1fktQss0Pp-Zc8umeNX9LxV-tTJcJkUj6Q", "width": 640}], "place_id": "ChIJvTz5MufFEIgR_krkzxD8AyU", "plus_code": {"compound_code": "3HW7+Q8 Benton Harbor, Michigan", "global_code": "86JM3HW7+Q8"}, "rating": 4.3, "reference": "ChIJvTz5MufFEIgR_krkzxD8AyU", "types": ["general_contractor", "point_of_interest", "establishment"], "user_ratings_total": 25}, {"business_status": "OPERATIONAL", "formatted_address": "8595 E Napier Ave, Benton Harbor, MI 49022, United States", "geometry": {"location": {"lat": 42.093446, "lng": -86.24943979999999}, "viewport": {"northeast": {"lat": 42.09473592989272, "lng": -86.24809432010728}, "southwest": {"lat": 42.09203627010728, "lng": -86.25079397989272}}}, "icon": "https://maps.gstatic.com/mapfiles/place_api/icons/v1/png_71/generic_business-71.png", "icon_background_color": "#7B9EB0", "icon_mask_base_uri": "https://maps.gstatic.com/mapfiles/place_api/icons/v2/generic_pinlet", "name": "Carlson Construction", "place_id": "ChIJX7PGy1czF4gRlm5mZmfXaFg", "plus_code": {"compound_code": "3QV2+96 Benton Harbor, Michigan", "global_code": "86JM3QV2+96"}, "rating": 5, "reference": "ChIJX7PGy1czF4gRlm5mZmfXaFg", "types": ["general_contractor", "point_of_interest", "establishment"], "user_ratings_total": 2}, {"business_status": "OPERATIONAL", "formatted_address": "2295 M-139, Benton Harbor, MI 49022, United States", "geometry": {"location": {"lat": 42.07667199999999, "lng": -86.4358353}, "viewport": {"northeast": {"lat": 42.07802132989271, "lng": -86.43485072010728}, "southwest": {"lat": 42.07532167010727, "lng": -86.43755037989271}}}, "icon": "https://maps.gstatic.com/mapfiles/place_api/icons/v1/png_71/generic_business-71.png", "icon_background_color": "#7B9EB0", "icon_mask_base_uri": "https://maps.gstatic.com/mapfiles/place_api/icons/v2/generic_pinlet", "name": "Lakeside Roofing Solutions", "opening_hours": {"open_now": true}, "photos": [{"height": 3956, "html_attributions": ["<a href=\"https://maps.google.com/maps/contrib/108787850121222766157\">A Google User</a>"], "photo_reference": "AXQCQNQeL-U3LFO3y0qsuc6--GjN8-Hz6Ym1SW9Pge5oyLFTlu7WH4AbQna5usFBOvTlPx5lc2_SZbzZUY2RMIYiv-Gjm6NmgU3zlvADDYDoy1mQQH_l74TceDrf6Zb-4MVmFs-r_EEuc3T608CeFsSfxsSPqBgP36A7SK-DuAc0dDzUDoYElftkaPFO-fEopn1YPsSEPvDBzJRtbw1ykutK0uJ6cVavHbxoNc65Sv2V0w4RI2Z3RenbJwgSYO2Ahn9uhyylRKODkuDxCiEklyZYdwt46EYbUmpuDvp2RrlOyQ5ogmDKEUgruUhiCbD5zm8mjXu3ZHDzujFNfOKJ823EWdBGRn7S-rnZzGeMZdTHt4CJqD7s2YBrMEX1kKEwVJwFnpBXQNW3uZpjw2B6qdp-gyyS3gmnrKEf7ZzVXECFjpLq-2x7MMqdTp2t9QOpM523llGDUCB-K9rDvz_3w9Nk2BkgFS-zJpdgj1EeWpGFKDgUlQ2ECt3iYZNDVNkqjxr_SVK0pS92EVcD2g_edP1Pcxep53cCNergzZ046xW1gtPIR1tD6yi3b_RQZk0687MEPc3Z2Q", "width": 5280}], "place_id": "ChIJm_8-KohHF4gRnWEQSQ1ESWQ", "plus_code": {"compound_code": "3HG7+MM Benton Harbor, Michigan", "global_code": "86JM3HG7+MM"}, "rating": 4.7, "reference": "ChIJm_8-KohHF4gRnWEQSQ1ESWQ", "types": ["roofing_contractor", "point_of_interest", "establishment"], "user_ratings_total": 42}, {"business_status": "OPERATIONAL", "formatted_address": "552 S Crystal Ave, Benton Harbor, MI 49022, United States", "geometry": {"location": {"lat": 42.1080219, "lng": -86.4177649}, "viewport": {"northeast": {"lat": 42.10937232989272, "lng": -86.41623262010728}, "southwest": {"lat": 42.10667267010728, "lng": -86.41893227989273}}}, "icon": "https://maps.gstatic.com/mapfiles/place_api/icons/v1/png_71/generic_business-71.png", "icon_background_color": "#7B9EB0", "icon_mask_base_uri": "https://maps.gstatic.com/mapfiles/place_api/icons/v2/generic_pinlet", "name": "Sherriff Goslin Roofing: Benton Harbor", "opening_hours": {"open_now": true}, "photos": [{"height": 2784, "html_attributions": ["<a href=\"https://maps.google.com/maps/contrib/102266550083853858684\">Sherriff Goslin Roofing: Benton Harbor</a>"], "photo_reference": "AXQCQNTgooI71AGx6tgR6mLJArISbIkAtS8ssekLI4_nUtnL1Dnu1XDkYd9hJT7W-J5euJfMoTIsd9owhT7oGY5U-xP0qPoTz8ND3P5MsYyOX9tA-mGEXclrIfPWo3M5ntdhDsaEmjWXg10MdW2u3nw_wnCTxLqEJtxalh_V2Ry5x7pUJhpug9C9QZfHDOHYmhZdr9FY9w6RkMxx0EC82i68xn2Dzu5y-JuoaWdBXq0JUPBl64gZ3trW0AXvT3yP3ehNtAQA95T9ezZsQW6wtQho-l08FN8XaUXulg52QHBQbW1NAczQfic", "width": 4176}], "place_id": "ChIJlVDzxqnIEIgRGN41q593rcw", "plus_code": {"compound_code": "4H5J+6V Benton Harbor, Michigan", "global_code": "86JM4H5J+6V"}, "rating": 4.5, "reference": "ChIJlVDzxqnIEIgRGN41q593rcw", "types": ["roofing_contractor", "general_contractor", "point_of_interest", "establishment"], "user_ratings_total": 42}, {"business_status": "OPERATIONAL", "formatted_address": "730 Pembroke Dr, Saline, MI 48176, United States", "geometry": {"location": {"lat": 42.16698359999999, "lng": -83.7994374}, "viewport": {"northeast": {"lat": 42.16832072989272, "lng": -83.79825097010728}, "southwest": {"lat": 42.16562107010728, "lng": -83.80095062989271}}}, "icon": "https://maps.gstatic.com/mapfiles/place_api/icons/v1/png_71/generic_business-71.png", "icon_background_color": "#7B9EB0", "icon_mask_base_uri": "https://maps.gstatic.com/mapfiles/place_api/icons/v2/generic_pinlet", "name": "Michigan Rose Construction", "opening_hours": {"open_now": true}, "photos": [{"height": 1020, "html_attributions": ["<a href=\"https://maps.google.com/maps/contrib/105510275986000386827\">Michigan Rose Construction</a>"], "photo_reference": "AXQCQNRh39rEMuZRnFDx85IbyIkm9w3W6RRWdOdzSvP3x48fPgql5QC3eVVbLZSaZwRjvknaQ9D6DxtPvS97xA5bvr06ITszresFeIa-wuDV7c5zqIpTrO0ATuRFe65c6vBgM6E5Q-6R4yIZu2VdhVx132jarDvic-8_ug1jxsPlEGv3cTB_J_Q0jWvvVUjZPwL8O4sjHdQsHzy9NKmNLmXmhQw_3Wi9tGVTRaLuWp134m8e6h2-r_b52e8167Kp7GvFlwaht6i5ZkBXhMzq6QCHpLx0sYAY7g5bT38Fq9VuXdg0130o2f8", "width": 765}], "place_id": "ChIJr3t3KSXRzowRwN89PnuAQ-Y", "plus_code": {"compound_code": "5682+Q6 Saline, Michigan", "global_code": "86JR5682+Q6"}, "rating": 5, "reference": "ChIJr3t3KSXRzowRwN89PnuAQ-Y", "types": ["home_goods_store", "general_contractor", "store", "point_of_interest", "establishment"], "user_ratings_total": 34}, {"business_status": "OPERATIONAL", "formatted_address": "2078 Taube Ave, Benton Harbor, MI 49022, United States", "geometry": {"location": {"lat": 42.1324946, "lng": -86.4091885}, "viewport": {"northeast": {"lat": 42.13382192989272, "lng": -86.40783827010728}, "southwest": {"lat": 42.13112227010728, "lng": -86.41053792989273}}}, "icon": "https://maps.gstatic.com/mapfiles/place_api/icons/v1/png_71/generic_business-71.png", "icon_background_color": "#7B9EB0", "icon_mask_base_uri": "https://maps.gstatic.com/mapfiles/place_api/icons/v2/generic_pinlet", "name": "Wee Bee Dunn Construction", "opening_hours": {"open_now": true}, "place_id": "ChIJyfr9ZYXIEIgR-Q8POoSPWWg", "plus_code": {"compound_code": "4HJR+X8 Benton Harbor, Michigan", "global_code": "86JM4HJR+X8"}, "reference": "ChIJyfr9ZYXIEIgR-Q8POoSPWWg", "types": ["roofing_contractor", "point_of_interest", "establishment"]}, {"business_status": "OPERATIONAL", "formatted_address": "1196 E Napier Ave, Benton Harbor, MI 49022, United States", "geometry": {"location": {"lat": 42.0866659, "lng": -86.4301581}, "viewport": {"northeast": {"lat": 42.08801507989272, "lng": -86.42869952010727}, "southwest": {"lat": 42.08531542010728, "lng": -86.43139917989272}}}, "icon": "https://maps.gstatic.com/mapfiles/place_api/icons/v1/png_71/generic_business-71.png", "icon_background_color": "#7B9EB0", "icon_mask_base_uri": "https://maps.gstatic.com/mapfiles/place_api/icons/v2/generic_pinlet", "name": "L E Barber Inc", "opening_hours": {"open_now": true}, "place_id": "ChIJqzsK3u3FEIgRNZiY-pBhUyM", "plus_code": {"compound_code": "3HP9+MW Benton Harbor, Michigan", "global_code": "86JM3HP9+MW"}, "rating": 4, "reference": "ChIJqzsK3u3FEIgRNZiY-pBhUyM", "types": ["general_contractor", "point_of_interest", "establishment"], "user_ratings_total": 5}, {"business_status": "OPERATIONAL", "formatted_address": "4686 Lauren Ln, St Joseph, MI 49085, United States", "geometry": {"location": {"lat": 42.0345211, "lng": -86.42489119999999}, "viewport": {"northeast": {"lat": 42.03587037989272, "lng": -86.42342137010726}, "southwest": {"lat": 42.03317072010728, "lng": -86.42612102989271}}}, "icon": "https://maps.gstatic.com/mapfiles/place_api/icons/v1/png_71/generic_business-71.png", "icon_background_color": "#7B9EB0", "icon_mask_base_uri": "https://maps.gstatic.com/mapfiles/place_api/icons/v2/generic_pinlet", "name": "TCJ Construction LLC", "opening_hours": {"open_now": true}, "photos": [{"height": 2560, "html_attributions": ["<a href=\"https://maps.google.com/maps/contrib/107933614500728227823\">todd jarvis</a>"], "photo_reference": "AXQCQNTA3lylB6e8GIYvzrRHDmwLHyRsEGSxbxbE8O4uAUDm5gu-43EyvQuvMfARTrzMoJ1FkYnW9yg65W2O3YphQcmd4TeHuXfheoAJw-8RZY5HlEy7SbAOp-ecsPvIzsSDRMu8mIgCGxFSTPtf4zMbG7jlcW6bTh0j-2YVgf8N5gfKTvijdpsa7BF1gBuGNQCLpsXJocSVMM7KmXxMVWuVeu5olJzCsJ8MWneDaKMFmFOtMFNa4uCfajjUPbpHyOR5VFwdyMlGmeWvLf2JIUig8gAx8vgd6DyK615p8KTCfVN3h4-FtBjBPKqxZWDQt0CDFV88qY-16MXamfFpxQRzr5qQkgUrdo14q7_Tw_NDqiMBrWm8ZBxkmKxTcBapSPlhU5O1LYS2591NeqYMWvryw1Dghx2Htacsornik-CaoBaqa-TWMbMJetoYhCxnUjtn7-K8HIa2RmI8ehfhkUdQhUgNHDXtLgZRGM2mmQCaOTBKsAosKW0R00KdhyNrEq_lRV7_pHF5va4lEvCYZXemFi15QX4FjuCMcIjarGZi591-5wnIo4JtGYBh0Zgq4iiRDhchMXRm", "width": 3840}], "place_id": "ChIJE-Sx-hHFEIgR1P5MWwrxd3s", "plus_code": {"compound_code": "2HMG+R2 St Joseph, Michigan", "global_code": "86JM2HMG+R2"}, "rating": 5, "reference": "ChIJE-Sx-hHFEIgR1P5MWwrxd3s", "types": ["general_contractor", "point_of_interest", "establishment"], "user_ratings_total": 1}, {"business_status": "OPERATIONAL", "formatted_address": "4265 S Niles Rd, St Joseph, MI 49085, United States", "geometry": {"location": {"lat": 42.0429126, "lng": -86.43623939999999}, "viewport": {"northeast": {"lat": 42.04416267989271, "lng": -86.43496967010728}, "southwest": {"lat": 42.04146302010727, "lng": -86.43766932989271}}}, "icon": "https://maps.gstatic.com/mapfiles/place_api/icons/v1/png_71/generic_business-71.png", "icon_background_color": "#7B9EB0", "icon_mask_base_uri": "https://maps.gstatic.com/mapfiles/place_api/icons/v2/generic_pinlet", "name": "OBM Construction and Custom Homes LLC", "opening_hours": {"open_now": true}, "photos": [{"height": 480, "html_attributions": ["<a href=\"https://maps.google.com/maps/contrib/109884302760004405803\">OBM Construction and Custom Homes LLC</a>"], "photo_reference": "AXQCQNTyIMeYAxvnXe3Gsh9BlJVsn-Zs3HKRLfgqhL4SiSg4VAUhKMlZRFU2h263AC4HGa0_eQigDGk_1ZFyhVNHnnf9riUZIhRxoENyMDkkBR8sI7Tn1NZncgl0XHvSMmD8x8N2QTvjjk3h_Ai0x_uZUfnos4TUFruujR4b8DMxDkFIbIJePRBD_kpHLGjjIrN8kCuxAY9JimV2dpS4aWlIRqMO8mGyDdNHdV_1hokR3u6vkyX87nJgzgAZoboPjzQUKMiR4jcyqGPWSj5qXx6T0p1Bqncd0RnQdYuASbF_WEqRjj-iatc", "width": 640}], "place_id": "ChIJ7XvEWTBBdwYR5MUtFfzEe84", "plus_code": {"compound_code": "2HV7+5G St Joseph, Michigan", "global_code": "86JM2HV7+5G"}, "rating": 5, "reference": "ChIJ7XvEWTBBdwYR5MUtFfzEe84", "types": ["roofing_contractor", "home_goods_store", "general_contractor", "store", "point_of_interest", "establishment"], "user_ratings_total": 2}]