[{"business_status": "OPERATIONAL", "formatted_address": "1440 Hwy Dr, Oxford, AL 36203, United States", "geometry": {"location": {"lat": 33.6130908, "lng": -85.8116124}, "viewport": {"northeast": {"lat": 33.61447967989272, "lng": -85.81018452010727}, "southwest": {"lat": 33.61178002010728, "lng": -85.81288417989272}}}, "icon": "https://maps.gstatic.com/mapfiles/place_api/icons/v1/png_71/generic_business-71.png", "icon_background_color": "#7B9EB0", "icon_mask_base_uri": "https://maps.gstatic.com/mapfiles/place_api/icons/v2/generic_pinlet", "name": "The Surgery Center", "opening_hours": {"open_now": true}, "place_id": "ChIJS1aNTAuxi4gR_Jq425jwI0k", "plus_code": {"compound_code": "J57Q+58 Oxford, Alabama", "global_code": "865PJ57Q+58"}, "rating": 4.4, "reference": "ChIJS1aNTAuxi4gR_Jq425jwI0k", "types": ["health", "point_of_interest", "establishment"], "user_ratings_total": 29}, {"business_status": "OPERATIONAL", "formatted_address": "171 Town Center Dr, Anniston, AL 36205, United States", "geometry": {"location": {"lat": 33.7135016, "lng": -85.78553079999999}, "viewport": {"northeast": {"lat": 33.71484252989272, "lng": -85.78446322010728}, "southwest": {"lat": 33.71214287010728, "lng": -85.78716287989272}}}, "icon": "https://maps.gstatic.com/mapfiles/place_api/icons/v1/png_71/generic_business-71.png", "icon_background_color": "#7B9EB0", "icon_mask_base_uri": "https://maps.gstatic.com/mapfiles/place_api/icons/v2/generic_pinlet", "name": "Northeast Alabama Surgical Associates", "opening_hours": {}, "place_id": "ChIJkzvnGsGzi4gR7VOKblZIna8", "plus_code": {"compound_code": "P677+CQ Anniston, Alabama", "global_code": "865PP677+CQ"}, "rating": 4.3, "reference": "ChIJkzvnGsGzi4gR7VOKblZIna8", "types": ["health", "point_of_interest", "establishment"], "user_ratings_total": 6}, {"business_status": "OPERATIONAL", "formatted_address": "400 E 10th St, Anniston, AL 36207, United States", "geometry": {"location": {"lat": 33.6555729, "lng": -85.8234961}, "viewport": {"northeast": {"lat": 33.65726482989272, "lng": -85.82200352010727}, "southwest": {"lat": 33.65456517010728, "lng": -85.82470317989272}}}, "icon": "https://maps.gstatic.com/mapfiles/place_api/icons/v1/png_71/hospital-71.png", "icon_background_color": "#F88181", "icon_mask_base_uri": "https://maps.gstatic.com/mapfiles/place_api/icons/v2/hospital-H_pinlet", "name": "Regional Medical Center", "opening_hours": {"open_now": true}, "photos": [{"height": 1366, "html_attributions": ["<a href=\"https://maps.google.com/maps/contrib/104969153800622831052\">A Google User</a>"], "photo_reference": "AXQCQNS4pV7DQr8WaCva9RRM326cagzDDYGtlCPts0KsE5c9GInShrpu2xYo4GLexEZbzfTUfAs89OcKXWtyjUkM-IgkaWFdY6myGCdjqAJT4Tbyn48X7gd8c-MCxJsJWsO_EK_jdhnyqtzgvHvhcZwwM4W8CZBsHU2ENwvywvDZgqK0q068FxdkyACvK3Yd98Kuwg-dOW6AB3p5OFzOGjPrwBs2OOE4CgT4mPRby3WVKq6GNtAGyJEG-pv79cmYnly5Rh-bE52N_1Zn-SsDD3QYnvBB1L0JUL9GE1h_aW5VXonCCmyZy1s", "width": 2048}], "place_id": "ChIJJThyzsCzi4gRDq5J0WTiwkI", "plus_code": {"compound_code": "M54G+6J Anniston, Alabama", "global_code": "865PM54G+6J"}, "rating": 2.2, "reference": "ChIJJThyzsCzi4gRDq5J0WTiwkI", "types": ["hospital", "health", "point_of_interest", "establishment"], "user_ratings_total": 444}, {"business_status": "OPERATIONAL", "formatted_address": "301 E 18th St, Anniston, AL 36207, United States", "geometry": {"location": {"lat": 33.6682833, "lng": -85.8241053}, "viewport": {"northeast": {"lat": 33.66936562989272, "lng": -85.82290097010727}, "southwest": {"lat": 33.66666597010727, "lng": -85.8256006298927}}}, "icon": "https://maps.gstatic.com/mapfiles/place_api/icons/v1/png_71/hospital-71.png", "icon_background_color": "#F88181", "icon_mask_base_uri": "https://maps.gstatic.com/mapfiles/place_api/icons/v2/hospital-H_pinlet", "name": "RMC Stringfellow Campus", "opening_hours": {"open_now": true}, "photos": [{"height": 1366, "html_attributions": ["<a href=\"https://maps.google.com/maps/contrib/115290440751925058771\">A Google User</a>"], "photo_reference": "AXQCQNSC8qhfBlrWhcGy3QnCEJoxkBtt-9IYTth0Ej5IS64uMgZmIQ5iI3s6XnHzfDnjYAFs6hq4ucvOWPNhK-4Qrd7ZybPqjxnHX4YyXHkmQ0k_QCsZayD0ybOf5N6wg97oYnzENWGU2DHXQY-oJU1zQJosECuYnFMwVW0zhwThlEApqumt2DIp2HXJn_2_OxDzncJlvyLaGzK0CUIotKHEi-U_SkJBsQRjt7tEGSXFRK2raaTYteLf9oQWe9VMZisS-5btlNfkfvYSH7iXiQKMIAsI1_0sw_DwgS5-JqjKrqT4PXOq2io", "width": 2048}], "place_id": "ChIJDQi2-byzi4gR68YrRRmcoiw", "plus_code": {"compound_code": "M59G+89 Anniston, Alabama", "global_code": "865PM59G+89"}, "rating": 2.7, "reference": "ChIJDQi2-byzi4gR68YrRRmcoiw", "types": ["hospital", "health", "point_of_interest", "establishment"], "user_ratings_total": 143}, {"business_status": "OPERATIONAL", "formatted_address": "901 Leighton Ave #401, Anniston, AL 36207, United States", "geometry": {"location": {"lat": 33.6559276, "lng": -85.8245744}, "viewport": {"northeast": {"lat": 33.65758482989272, "lng": -85.82297887010728}, "southwest": {"lat": 33.65488517010728, "lng": -85.82567852989273}}}, "icon": "https://maps.gstatic.com/mapfiles/place_api/icons/v1/png_71/generic_business-71.png", "icon_background_color": "#7B9EB0", "icon_mask_base_uri": "https://maps.gstatic.com/mapfiles/place_api/icons/v2/generic_pinlet", "name": "Anniston Oral Facial Surgery", "opening_hours": {"open_now": true}, "photos": [{"height": 1920, "html_attributions": ["<a href=\"https://maps.google.com/maps/contrib/104086778928041838229\">Kirk Rose</a>"], "photo_reference": "AXQCQNR0T_WXn9u3vbc3iAfJ8yqrvb35ua32LZDTveMhNzSC2as09_MCQ4JFNERUSQGzeCAogQIioiFtZebfP4lE5vbdzeOggkZDeMoaPsSQFDklf_Kx97FVT5Erd66xa2V4rgUOFnfc0pw4dY61gNZBZE1jc6MIAX-39xer3tpxKqe62pu3urJtBAZMtynbmXQMwBAg-O5wC-Nwu5wpXZgxmbRrjoHZAd1XSwfGRqYN2fGMEBiNzCl-KKekLQmgTSbqIoSFRrhoQFQC7hpa800-_KirMy1Dp6znHhACilWtoy2-Z35-iZ-UkbiPhzuk1neHyuBqtFTg-VOey8J4Vvw6pTqhtzLtiFjyVYLj1EA_Nd6q317soXbPPsKcokeHsKf1tNZs2XC5nLqJBDKAGsr4M-kZadbY1PvagQJzUbnpfAAgbB4QnCg93oBuJ7B7Dkkpr-xYtIJzjhGjGmvz0jpLM3By2vgGGo6XuGzTA-8_g2U0ZliitzdlHGc96ePu07hr0fbyXAY-eZMCCoLEBghCakDddObyFnnkaLq_IQ8gEz-uPUWK_D2TKANYW0DLmI1dXdsKfQ", "width": 1080}], "place_id": "ChIJkzvnGsGzi4gR7qf0LOX1868", "plus_code": {"compound_code": "M54G+95 Anniston, Alabama", "global_code": "865PM54G+95"}, "rating": 4.8, "reference": "ChIJkzvnGsGzi4gR7qf0LOX1868", "types": ["doctor", "health", "point_of_interest", "establishment"], "user_ratings_total": 222}, {"business_status": "OPERATIONAL", "formatted_address": "171 Town Center Dr, Anniston, AL 36205, United States", "geometry": {"location": {"lat": 33.7135265, "lng": -85.7853765}, "viewport": {"northeast": {"lat": 33.71498227989272, "lng": -85.78433642010728}, "southwest": {"lat": 33.71228262010727, "lng": -85.78703607989273}}}, "icon": "https://maps.gstatic.com/mapfiles/place_api/icons/v1/png_71/generic_business-71.png", "icon_background_color": "#7B9EB0", "icon_mask_base_uri": "https://maps.gstatic.com/mapfiles/place_api/icons/v2/generic_pinlet", "name": "Urquhart Plastic Surgery", "opening_hours": {"open_now": true}, "place_id": "ChIJ_TYzrpKzi4gRxAD6z4to6QQ", "plus_code": {"compound_code": "P677+CR Anniston, Alabama", "global_code": "865PP677+CR"}, "rating": 4.6, "reference": "ChIJ_TYzrpKzi4gRxAD6z4to6QQ", "types": ["doctor", "health", "point_of_interest", "establishment"], "user_ratings_total": 22}, {"business_status": "OPERATIONAL", "formatted_address": "901 Leighton Ave Suite 702, Anniston, AL 36207, United States", "geometry": {"location": {"lat": 33.6569151, "lng": -85.8248601}, "viewport": {"northeast": {"lat": 33.65823402989272, "lng": -85.82348882010727}, "southwest": {"lat": 33.65553437010728, "lng": -85.82618847989272}}}, "icon": "https://maps.gstatic.com/mapfiles/place_api/icons/v1/png_71/generic_business-71.png", "icon_background_color": "#7B9EB0", "icon_mask_base_uri": "https://maps.gstatic.com/mapfiles/place_api/icons/v2/generic_pinlet", "name": "Johnson Roderick G", "place_id": "ChIJkzvnGsGzi4gRcerF4Pm_PyE", "plus_code": {"compound_code": "M54G+Q3 Anniston, Alabama", "global_code": "865PM54G+Q3"}, "rating": 4, "reference": "ChIJkzvnGsGzi4gRcerF4Pm_PyE", "types": ["doctor", "health", "point_of_interest", "establishment"], "user_ratings_total": 1}, {"business_status": "CLOSED_PERMANENTLY", "formatted_address": "1901 Leighton Ave, Anniston, AL 36207, United States", "geometry": {"location": {"lat": 33.6692558, "lng": -85.82467249999999}, "viewport": {"northeast": {"lat": 33.67057987989272, "lng": -85.82333227010729}, "southwest": {"lat": 33.66788022010728, "lng": -85.82603192989272}}}, "icon": "https://maps.gstatic.com/mapfiles/place_api/icons/v1/png_71/generic_business-71.png", "icon_background_color": "#7B9EB0", "icon_mask_base_uri": "https://maps.gstatic.com/mapfiles/place_api/icons/v2/generic_pinlet", "name": "Anniston General Surgery Center", "permanently_closed": true, "photos": [{"height": 3024, "html_attributions": ["<a href=\"https://maps.google.com/maps/contrib/104938708729912623689\">Anniston General Surgery Center</a>"], "photo_reference": "AXQCQNQOOqSuEqtIggYO1hvWXLwqVNpJdzuN-g9rwgaATNEdUO2jrtMu8352q67TFtE3cPw-ebEDfMMMFTzNN47CiFarv6As7tuxF20I877rTKDNIzjE5UCohBMdzzwgEJuEhjqEPYJuaMApWTliqF-TzEKTDhIDRh67cbQZVU6sJf1yyLowggXWazKV9ELAIdhFdzIxDKw9b2jTyS-d59QguztaozbqpPeWfbHPdBDTSONwhnrubLp6k-Fiq9euQvb78kKFN4lSdWocKoQ2wB1ITdFzR30K4B4alkSN6i3Kwgq73kn75qs", "width": 4032}], "place_id": "ChIJXWANxLyzi4gR2Fi-EaHMdi4", "plus_code": {"compound_code": "M59G+P4 Anniston, Alabama", "global_code": "865PM59G+P4"}, "rating": 5, "reference": "ChIJXWANxLyzi4gR2Fi-EaHMdi4", "types": ["doctor", "health", "point_of_interest", "establishment"], "user_ratings_total": 6}]