[{"business_status": "OPERATIONAL", "formatted_address": "3161 Carrollton Rd, Saginaw, MI 48604, United States", "geometry": {"location": {"lat": 43.4524352, "lng": -83.9363405}, "viewport": {"northeast": {"lat": 43.45374482989272, "lng": -83.93485312010728}, "southwest": {"lat": 43.45104517010728, "lng": -83.93755277989271}}}, "icon": "https://maps.gstatic.com/mapfiles/place_api/icons/v1/png_71/generic_business-71.png", "icon_background_color": "#7B9EB0", "icon_mask_base_uri": "https://maps.gstatic.com/mapfiles/place_api/icons/v2/generic_pinlet", "name": "Garpiel Group", "opening_hours": {"open_now": true}, "photos": [{"height": 851, "html_attributions": ["<a href=\"https://maps.google.com/maps/contrib/102492303518746314289\">Garpiel Landscaping, Lawn Care and Fertilizing</a>"], "photo_reference": "AXQCQNS8VisyPNB1ZtYG2a3BV-u4MZNzXMJAU15Jkb-yMXIdIfd2ZV-bYI82G4mkhQ1gqhIPdd19ZNK__UVueFxokw0fStXqpeXN9qOYMoAICdGgiO4zKGW5MXmgVDsXXW7XwHy7Ph0EO8CmcTRVTjjsk7Ol932QlFvchbS6nV_jkhu3GOEP7e21IB-_PeyhBcHzdiKwDN4ur_TEqiXnRN35JRMmOOyFpsBgB-GGmAToUAELEXqobG5IQzCZ5FeGNz2VKca7I4dVQ-h_c-T5GfKmW9Bw-AximtblKeze_xFdg_Zpa-f_JWg", "width": 1280}], "place_id": "ChIJgb4BBonCI4gRa8QUg4dgIUQ", "plus_code": {"compound_code": "F327+XF Saginaw, Michigan", "global_code": "86MRF327+XF"}, "rating": 4.1, "reference": "ChIJgb4BBonCI4gRa8QUg4dgIUQ", "types": ["general_contractor", "point_of_interest", "establishment"], "user_ratings_total": 96}, {"business_status": "OPERATIONAL", "formatted_address": "1170 S Center Rd, Saginaw, MI 48638, United States", "geometry": {"location": {"lat": 43.4065927, "lng": -84.014934}, "viewport": {"northeast": {"lat": 43.40794327989272, "lng": -84.01355547010728}, "southwest": {"lat": 43.40524362010727, "lng": -84.01625512989273}}}, "icon": "https://maps.gstatic.com/mapfiles/place_api/icons/v1/png_71/generic_business-71.png", "icon_background_color": "#7B9EB0", "icon_mask_base_uri": "https://maps.gstatic.com/mapfiles/place_api/icons/v2/generic_pinlet", "name": "Becker Lawncare & Landscaping", "opening_hours": {"open_now": true}, "photos": [{"height": 695, "html_attributions": ["<a href=\"https://maps.google.com/maps/contrib/105896541781657801950\">Becker Lawncare &amp; Landscaping</a>"], "photo_reference": "AXQCQNSisYx-0MHfCFB27TJozYQqFhe54xwbhMAgAZ6NL8yZiTlyOlM7-6-jw8Ga47lyfKs8n9AAnQ2TUlKyLJt_05Pqst7zffiguCyuVno6Xw5lF8cw1tDMFe3F6r64K9MWVzsqgypMlPGqg-0FfjjMbgjUDzZV1YCgi459qjp5Rh3bqyCN59LY9px3dilikewajiEmvp66qAaM1512dSBMW-jfTmYEscRXCWe8UD9ar-0kQTeueQRey-xGeQA3efU_pl5cHpMIAdsPMLO3q7jv0O2YoGiYdcrJaDVoQ_aqrF3BrpNtMiI", "width": 525}], "place_id": "ChIJwSSsJsXDI4gRQ1xdWrnqEeM", "plus_code": {"compound_code": "CX4P+J2 Saginaw, Michigan", "global_code": "86MQCX4P+J2"}, "rating": 3.5, "reference": "ChIJwSSsJsXDI4gRQ1xdWrnqEeM", "types": ["general_contractor", "point_of_interest", "establishment"], "user_ratings_total": 17}, {"business_status": "OPERATIONAL", "formatted_address": "1344 Bay St, Saginaw, MI 48602, United States", "geometry": {"location": {"lat": 43.4273629, "lng": -83.9750763}, "viewport": {"northeast": {"lat": 43.42872612989272, "lng": -83.97384322010727}, "southwest": {"lat": 43.42602647010728, "lng": -83.97654287989272}}}, "icon": "https://maps.gstatic.com/mapfiles/place_api/icons/v1/png_71/generic_business-71.png", "icon_background_color": "#7B9EB0", "icon_mask_base_uri": "https://maps.gstatic.com/mapfiles/place_api/icons/v2/generic_pinlet", "name": "The Wash Boys Property Maintenance & Landscape Contractor", "opening_hours": {"open_now": true}, "photos": [{"height": 3024, "html_attributions": ["<a href=\"https://maps.google.com/maps/contrib/116780331952973487513\">Wash Boy&#39;s Property Maintenance &amp; Landscape Contractor</a>"], "photo_reference": "AXQCQNQp0w-VnLTmqHAud90oQ8SbhnPrN3-aMgHP7_v3Ee1KAS6xxkKMbpACzr4KjWZyT7r8Xl5A55_2Bg2WvxPxHyuJH4pjgdorheuBc5z_Y4UCBgVemZof-_ZzOfDWENuP404nF6TFzyodMb91nkv1m8kzKetBRjDbhCcmInms5YL3Zi_-pCUkjYp1AY16pnzSUKUIMY3nhu_7kck7XFa7JO2QmKSv77ADdj6A_AkI61A596NJNedGO6KDJHAt4cNF6qgGTC1r7oW7XClBdmh97HEmdCUlNfZKoIlE5n3JVsMaQ1Tb5bo", "width": 4032}], "place_id": "ChIJL6OTSbPDI4gR_Y3uQ_e3Sog", "plus_code": {"compound_code": "C2GF+WX Saginaw, Michigan", "global_code": "86MRC2GF+WX"}, "rating": 3.8, "reference": "ChIJL6OTSbPDI4gR_Y3uQ_e3Sog", "types": ["general_contractor", "point_of_interest", "establishment"], "user_ratings_total": 16}, {"business_status": "OPERATIONAL", "formatted_address": "5247 N Westervelt Rd, Saginaw, MI 48604, United States", "geometry": {"location": {"lat": 43.4827717, "lng": -83.91774640000001}, "viewport": {"northeast": {"lat": 43.48410077989272, "lng": -83.91606937010728}, "southwest": {"lat": 43.48140112010728, "lng": -83.91876902989273}}}, "icon": "https://maps.gstatic.com/mapfiles/place_api/icons/v1/png_71/generic_business-71.png", "icon_background_color": "#7B9EB0", "icon_mask_base_uri": "https://maps.gstatic.com/mapfiles/place_api/icons/v2/generic_pinlet", "name": "Bell Landscaping", "opening_hours": {"open_now": false}, "photos": [{"height": 1512, "html_attributions": ["<a href=\"https://maps.google.com/maps/contrib/107791669256064824892\">Bell Landscaping</a>"], "photo_reference": "AXQCQNR52UcnH4hhlAR0779AQH9AzSf6lYFOAzVL2KhA7w9Ur5GUeu_e6DBcDfBS_B6wHjlUZqnSQocAyNwaV6xmN4yID5uNs7BJn0a0fLLFJPQgby4A8Fw4ytiucBUM1ZdQEjZXzPSV4-XjzCKvniuV05ZOSWZOZlSBp92zkvOQoDipnUc1ALko7f_ZVwMAgbk0IkgEAUUBhGmbKYvn2zmtop5mDekMRYNM12C1tFwWxNYnpLqcPz2_qCP29Yh8fxhJ7vFMl_HYGcRFYrgeTP_VjoZUI5VRoFpZ5uh9fBMdeueG5T1luD8", "width": 2016}], "place_id": "ChIJ5zoZwuXnI4gRVxuZ5P8u2Ys", "plus_code": {"compound_code": "F3MJ+4W Saginaw, Michigan", "global_code": "86MRF3MJ+4W"}, "rating": 3.5, "reference": "ChIJ5zoZwuXnI4gRVxuZ5P8u2Ys", "types": ["general_contractor", "point_of_interest", "establishment"], "user_ratings_total": 65}, {"business_status": "OPERATIONAL", "formatted_address": "2936 Bay Rd, Saginaw, MI 48603, United States", "geometry": {"location": {"lat": 43.4494323, "lng": -83.97489340000001}, "viewport": {"northeast": {"lat": 43.45073517989271, "lng": -83.97355492010728}, "southwest": {"lat": 43.44803552010727, "lng": -83.97625457989272}}}, "icon": "https://maps.gstatic.com/mapfiles/place_api/icons/v1/png_71/generic_business-71.png", "icon_background_color": "#7B9EB0", "icon_mask_base_uri": "https://maps.gstatic.com/mapfiles/place_api/icons/v2/generic_pinlet", "name": "HJ Contracting LLC", "opening_hours": {"open_now": true}, "photos": [{"height": 4032, "html_attributions": ["<a href=\"https://maps.google.com/maps/contrib/103753572771893805481\">HJ Contracting LLC</a>"], "photo_reference": "AXQCQNQ21UzcwCb_yJhDz3E8nkKEb56vh5f628KIpxFkJ5KoWa0L9sRBD8mvt8ePaLc3sLcTP2J1OjBFNi79a1OguwYqbxBZFFklwJNo1vkXSTA4baSNAdaRnPYS592nTl1KRLJRkFP1M1NXyhebwbERNm6sZINUuQXxcis_xK9L5Uf58Ns4J2_2vvVY5REZnc-kYa_6fgSQKtrhoD11LBCAeGYKxxTsb9z-UKbi-3QruFk-BTSfH84l9QVymWwDPPE_XVssnmylcWk1fAEy8E4bXRYSM9IYo7pe3k-Ge9W3vUNsDtn11Ns", "width": 3024}], "place_id": "ChIJCzwQ7WXsA0wR8YNlus-hGuE", "plus_code": {"compound_code": "C2XG+Q2 Saginaw, Michigan", "global_code": "86MRC2XG+Q2"}, "rating": 5, "reference": "ChIJCzwQ7WXsA0wR8YNlus-hGuE", "types": ["general_contractor", "point_of_interest", "establishment"], "user_ratings_total": 16}, {"business_status": "OPERATIONAL", "formatted_address": "3314 Bundy St, Saginaw, MI 48601, United States", "geometry": {"location": {"lat": 43.39394009999999, "lng": -83.9574786}, "viewport": {"northeast": {"lat": 43.39529067989272, "lng": -83.95624947010728}, "southwest": {"lat": 43.39259102010727, "lng": -83.95894912989272}}}, "icon": "https://maps.gstatic.com/mapfiles/place_api/icons/v1/png_71/generic_business-71.png", "icon_background_color": "#7B9EB0", "icon_mask_base_uri": "https://maps.gstatic.com/mapfiles/place_api/icons/v2/generic_pinlet", "name": "Affordable Lawn Care & Landscape Service LLC", "opening_hours": {"open_now": true}, "photos": [{"height": 400, "html_attributions": ["<a href=\"https://maps.google.com/maps/contrib/101151290633542915358\">Affordable Lawn Care &amp; Landscape Service LLC</a>"], "photo_reference": "AXQCQNSZplHp_oeRNAvvxexrXjUVHb-uVd5iuXL4iELCCNl2nXP0wxj86mH46ayF6daHsPSGUXaxMQh6MKivqoaNxiW1OEiY6PTouTX7TFZrxfeb5U1SLatumbBMv-6rIV2aPfKdgQTdzA1iEyTDh6hap2e-26UuZ7kMaDZgs_7PZdl-kn9CNho5FCGJRyoCIY9vyRKAbMeKuwnyCZVmzcaplIJG70PCZGnhRySYxkuIWTMtllcQ86XC5FDLSCPmQ2fUX6FFDacpFJPuOv1KDpG81EguOes-NrzrLU4fNKxjeyAP5lpDIz4", "width": 600}], "place_id": "ChIJVfagy43BI4gRe9evueXES5M", "plus_code": {"compound_code": "92VV+H2 Saginaw, Michigan", "global_code": "86MR92VV+H2"}, "rating": 3, "reference": "ChIJVfagy43BI4gRe9evueXES5M", "types": ["general_contractor", "point_of_interest", "establishment"], "user_ratings_total": 6}, {"business_status": "OPERATIONAL", "formatted_address": "1460 Agricola Dr, Saginaw, MI 48604, United States", "geometry": {"location": {"lat": 43.4861288, "lng": -83.9451945}, "viewport": {"northeast": {"lat": 43.48728447989272, "lng": -83.94385047010728}, "southwest": {"lat": 43.48458482010728, "lng": -83.94655012989273}}}, "icon": "https://maps.gstatic.com/mapfiles/place_api/icons/v1/png_71/generic_business-71.png", "icon_background_color": "#7B9EB0", "icon_mask_base_uri": "https://maps.gstatic.com/mapfiles/place_api/icons/v2/generic_pinlet", "name": "Brian Leddy's Lawn Care & Landscaping LLC", "opening_hours": {"open_now": true}, "photos": [{"height": 1280, "html_attributions": ["<a href=\"https://maps.google.com/maps/contrib/107929622254098343199\">A Google User</a>"], "photo_reference": "AXQCQNREHwn_HyR94UsB6Pm9nCzwcZBvHII8q1VOyx-x-GB0y_38IsFLSTYRAcfxJ66ilcqfjIULuDq3OZo9AuUywyDPvcTaVq8bwYaGFH39DWxXYQlZ-hG6tFvFKcbUQxMxT_0N8kVHNRNfSd3y8L66oR7jJZKuJKsRza0403hJ6FSbZC4jdhgOwq-_S5x0MtYZ37Ut238zAJ1_IrRGOUZGwvqHHuYpbaSpfVz3mIautBfgYIA4K_HG6q-YnL0x8LMMb6xS77ZC6eXRGOd88z_Jm4HVAnBiP-RkqX10ocuhxm6KYdc3", "width": 1920}], "place_id": "ChIJgdCBgUbDI4gR9PWBmaHjifU", "plus_code": {"compound_code": "F3P3+FW Saginaw, Michigan", "global_code": "86MRF3P3+FW"}, "rating": 3.5, "reference": "ChIJgdCBgUbDI4gR9PWBmaHjifU", "types": ["general_contractor", "point_of_interest", "establishment"], "user_ratings_total": 12}, {"business_status": "OPERATIONAL", "formatted_address": "3691 Fashion Square Blvd Suite 1, Saginaw, MI 48603, United States", "geometry": {"location": {"lat": 43.461028, "lng": -83.9702095}, "viewport": {"northeast": {"lat": 43.46231057989272, "lng": -83.96870327010727}, "southwest": {"lat": 43.45961092010728, "lng": -83.97140292989272}}}, "icon": "https://maps.gstatic.com/mapfiles/place_api/icons/v1/png_71/generic_business-71.png", "icon_background_color": "#7B9EB0", "icon_mask_base_uri": "https://maps.gstatic.com/mapfiles/place_api/icons/v2/generic_pinlet", "name": "Custom Personalized Lawn Care", "opening_hours": {"open_now": true}, "photos": [{"height": 1344, "html_attributions": ["<a href=\"https://maps.google.com/maps/contrib/112608967595857606066\">Custom Personalized Lawn Care</a>"], "photo_reference": "AXQCQNTilY47rlRrEcRAze3NPuAzRJonnyojnSyKIZMKz_thfnMXOIzljFUwAAvGfBkIT1wAMLFNnM_-ISQwkghkWTiwbYinI1m58locgiDB9JftbJqioRmRzrkXjgsfGf7LQD98QX_s9KAdx_RL_a96NNZLqPcZ_mIPeIOMzPNoKydr00TmnW183XfX3lwXTXujWlyjOE6qzGIT0gaiiN7GRk42agZsWNHvbzS_W5ncAmRCtbTEi97E0hwXmz9XEgQ4zgyNfBcicGTE_aAsCNLMVmCmWAbAMYVhqqqYNumxApw5VR7rugs", "width": 2000}], "place_id": "ChIJUX207TDDI4gRx6sxYJa1ha8", "plus_code": {"compound_code": "F26H+CW Saginaw, Michigan", "global_code": "86MRF26H+CW"}, "rating": 4.9, "reference": "ChIJUX207TDDI4gRx6sxYJa1ha8", "types": ["point_of_interest", "establishment"], "user_ratings_total": 109}, {"business_status": "OPERATIONAL", "formatted_address": "1410 Bay St, Saginaw, MI 48602, United States", "geometry": {"location": {"lat": 43.4284523, "lng": -83.974994}, "viewport": {"northeast": {"lat": 43.42980252989272, "lng": -83.97379937010729}, "southwest": {"lat": 43.42710287010728, "lng": -83.97649902989272}}}, "icon": "https://maps.gstatic.com/mapfiles/place_api/icons/v1/png_71/generic_business-71.png", "icon_background_color": "#7B9EB0", "icon_mask_base_uri": "https://maps.gstatic.com/mapfiles/place_api/icons/v2/generic_pinlet", "name": "Strzynski Lawn Care", "opening_hours": {"open_now": true}, "place_id": "ChIJVZ9rKbPDI4gR9x_6a1jO2i0", "plus_code": {"compound_code": "C2HG+92 Saginaw, Michigan", "global_code": "86MRC2HG+92"}, "rating": 4.5, "reference": "ChIJVZ9rKbPDI4gR9x_6a1jO2i0", "types": ["general_contractor", "point_of_interest", "establishment"], "user_ratings_total": 10}, {"business_status": "OPERATIONAL", "formatted_address": "5456 Garfield Rd #5, Saginaw, MI 48603, United States", "geometry": {"location": {"lat": 43.4868921, "lng": -84.08754499999999}, "viewport": {"northeast": {"lat": 43.48824122989272, "lng": -84.08621277010727}, "southwest": {"lat": 43.48554157010728, "lng": -84.08891242989272}}}, "icon": "https://maps.gstatic.com/mapfiles/place_api/icons/v1/png_71/generic_business-71.png", "icon_background_color": "#7B9EB0", "icon_mask_base_uri": "https://maps.gstatic.com/mapfiles/place_api/icons/v2/generic_pinlet", "name": "Dobis Landscaping", "opening_hours": {"open_now": false}, "photos": [{"height": 4032, "html_attributions": ["<a href=\"https://maps.google.com/maps/contrib/111292547371937270241\">J Gillman</a>"], "photo_reference": "AXQCQNTxE1YsHRthH5F6f3Eg4V9J_vCVPHOF1Ko_8w0mZs2QObVcRBwm9LHNfIN5BBbIr3OQw7ZEqZ-Yp3IoHZ3_bM66PjgAUpsQT3x035PVMQV9jPe_HxUfIgF6nUsYtLD_b1WfN4DecthSjLJsTc2SJAHd7JhErS_CYF3cMEny30m4gsL-AbzoxxJ5nbvEpNhElXrxXU6JdaPwwZfXPFTLV5MoVuywQMyBP1axvAt5Wf7H10N9DsHLukLmIOvavSJKPU5irSI7EI-og8lvPiiDBkNjLPBfTdw_TGamnMq15CuHCnmXxwNHt_gep2_GeaKDGsXnVXarLqq-qo3cXH2xFWxAEPgFH3OuXfnzNI41wx1Tlpn0Bs0foEDk-RSU_v0HBHLW1Fo2aWkJsmy1YzL42p-dm52rceEO5k92JV_mg2UATjwj1XlrnlscUbI7Tz-vDbh39WLHknxzFbck83NooytHtlE6EkZvx8sxpRPwdn675mRY7nLo6dvrT5mYck7cMcuDeseT5-sbJmMPPWDoZBbwA-w95T6yqQoiRO-PUBiomAmzUJ_sMxCha4Hn_0hC97u7XIeQ", "width": 3024}], "place_id": "ChIJWT93jq3aI4gRQL8b5apBthQ", "plus_code": {"compound_code": "FWP6+QW Saginaw, Michigan", "global_code": "86MQFWP6+QW"}, "rating": 3.9, "reference": "ChIJWT93jq3aI4gRQL8b5apBthQ", "types": ["general_contractor", "point_of_interest", "establishment"], "user_ratings_total": 36}, {"business_status": "OPERATIONAL", "formatted_address": "3871 East St, Saginaw, MI 48601, United States", "geometry": {"location": {"lat": 43.38391559999999, "lng": -83.954967}, "viewport": {"northeast": {"lat": 43.38526292989271, "lng": -83.95381437010728}, "southwest": {"lat": 43.38256327010727, "lng": -83.95651402989273}}}, "icon": "https://maps.gstatic.com/mapfiles/place_api/icons/v1/png_71/generic_business-71.png", "icon_background_color": "#7B9EB0", "icon_mask_base_uri": "https://maps.gstatic.com/mapfiles/place_api/icons/v2/generic_pinlet", "name": "Silver Clean-Up Lawn Maintenance - Landscape Designer and Lawn Service", "opening_hours": {"open_now": true}, "photos": [{"height": 708, "html_attributions": ["<a href=\"https://maps.google.com/maps/contrib/105527464267541978312\">Silver Clean-Up Lawn Maintenance - Residential Lawn Services in Saginaw MI, Lawn Maintenance Company Saginaw</a>"], "photo_reference": "AXQCQNSOGpEcQav2nkYNQaBqBHyIBf18h2BXhjOfNr24AxADqu1CWZO0ip7Bm7tPHgWHFgHLeXOBnwKHS2-tU0aHYoEhkrXRS4wefuogrhzGPeYs2uE5Gm2-MBfe_W1QRVL7RF-IYmHEksmPMInyS4J_q3t25YnEo7-0MN4CxvUkr6F6XPpbd5G0ZcvZbXxvLkrRo1jQ7SbqOFdhGhbqP7nGeKczf4Lydxa1bsbi4csIR1vhFjdsybEG7ndzBmRiVPjWhRrLIXblSLHos1cB8AGzTcUb7ic8OaqOS_2aY4SMNYeJQjdWu74", "width": 1400}], "place_id": "ChIJZ2040wPDI4gRUcdjCJAEYtc", "plus_code": {"compound_code": "92MW+H2 Saginaw, Michigan", "global_code": "86MR92MW+H2"}, "rating": 3.9, "reference": "ChIJZ2040wPDI4gRUcdjCJAEYtc", "types": ["general_contractor", "point_of_interest", "establishment"], "user_ratings_total": 23}]