[{"business_status": "OPERATIONAL", "formatted_address": "5636 London Dr, Austintown, OH 44515, United States", "geometry": {"location": {"lat": 41.0966661, "lng": -80.7715856}, "viewport": {"northeast": {"lat": 41.09801787989272, "lng": -80.77039327010728}, "southwest": {"lat": 41.09531822010727, "lng": -80.77309292989271}}}, "icon": "https://maps.gstatic.com/mapfiles/place_api/icons/v1/png_71/generic_business-71.png", "icon_background_color": "#7B9EB0", "icon_mask_base_uri": "https://maps.gstatic.com/mapfiles/place_api/icons/v2/generic_pinlet", "name": "Scott's Construction llc", "opening_hours": {"open_now": true}, "photos": [{"height": 1128, "html_attributions": ["<a href=\"https://maps.google.com/maps/contrib/103165879502051927309\">A Google User</a>"], "photo_reference": "AXQCQNQRbzWr-E4zotFlc9ry837KRrUewjhC2CiPjF1MhcPSa2yZvFqCkKnea_HfXeRrcz9qVihbFUKTlIVDjik5yRJpySKjDf9KIS_Q1ZXA6ccC4vKdiD8cP1QUul92t8dAHtuhlOihGNJZkbri8Y4FJ4ZA9mrqC-qbzI28QmotbRFqCktxqANBsR6RVJndGLIMqh1fMrBEiJdBUP_DHRfzDPLNfRizHw1ZY-bxuug_fW1HI_Br9WCjJbgCkuPDGXZwpXcni8K3I0E7vH9EqivjHAhv7nqfs7-3ExYugaz-MRKAC2YVd8U", "width": 1440}], "place_id": "ChIJ11iiu7v7M4gRBliCU95kQL0", "plus_code": {"compound_code": "36WH+M9 Austintown, Ohio", "global_code": "86HX36WH+M9"}, "rating": 5, "reference": "ChIJ11iiu7v7M4gRBliCU95kQL0", "types": ["general_contractor", "point_of_interest", "establishment"], "user_ratings_total": 14}, {"business_status": "OPERATIONAL", "formatted_address": "1727 Mahoning Ave, Youngstown, OH 44509, United States", "geometry": {"location": {"lat": 41.1020868, "lng": -80.6861212}, "viewport": {"northeast": {"lat": 41.10354002989272, "lng": -80.68476132010728}, "southwest": {"lat": 41.10084037010728, "lng": -80.68746097989273}}}, "icon": "https://maps.gstatic.com/mapfiles/place_api/icons/v1/png_71/generic_business-71.png", "icon_background_color": "#7B9EB0", "icon_mask_base_uri": "https://maps.gstatic.com/mapfiles/place_api/icons/v2/generic_pinlet", "name": "J Hardie Construction LLC", "opening_hours": {"open_now": true}, "photos": [{"height": 3000, "html_attributions": ["<a href=\"https://maps.google.com/maps/contrib/105057348814297229681\">J Hardie Construction LLC</a>"], "photo_reference": "AXQCQNQLxYa1KQEPwPjxhASGas83MagF9z4ckYQEBCLARyMw3M5Dv5zn4CbbtJvgWgfrjchPSuqqi6YCFev0wENSBc21Fk47asvmuE8eboj64Z37k9ma7EI6ZDPgj-PfPjjh464JhmjOxfaLo-P2O8TtwvDBa0Qfw9lUtO6ux9_ChiuuXaJCa2dXpwpwGAqju-Oyg6OrAYxakh7-50TZyE0xawDaC2PgNkMlIEVlOjwt7Wn-wZIdaGxhmAIZlazYfwxl_GT2qSEdDZQbJTnDAEnvwTypAqF30XN1xd72TtA-MIYbnbLjsiY", "width": 4084}], "place_id": "ChIJ59dyr0TlM4gRS-BHxGKylb0", "plus_code": {"compound_code": "4827+RH Youngstown, Ohio", "global_code": "86HX4827+RH"}, "rating": 5, "reference": "ChIJ59dyr0TlM4gRS-BHxGKylb0", "types": ["roofing_contractor", "point_of_interest", "establishment"], "user_ratings_total": 53}, {"business_status": "OPERATIONAL", "formatted_address": "157 S Four Mile Run Rd, Youngstown, OH 44515, United States", "geometry": {"location": {"lat": 41.0991057, "lng": -80.7145971}, "viewport": {"northeast": {"lat": 41.10039652989271, "lng": -80.71335672010729}, "southwest": {"lat": 41.09769687010727, "lng": -80.71605637989272}}}, "icon": "https://maps.gstatic.com/mapfiles/place_api/icons/v1/png_71/shopping-71.png", "icon_background_color": "#4B96F3", "icon_mask_base_uri": "https://maps.gstatic.com/mapfiles/place_api/icons/v2/shopping_pinlet", "name": "CMC Builders", "opening_hours": {"open_now": true}, "photos": [{"height": 1441, "html_attributions": ["<a href=\"https://maps.google.com/maps/contrib/103669824616589131185\">CMC Builders</a>"], "photo_reference": "AXQCQNS0UlCl1C606ZW4_nWkl23k--iGGBN7JJjjnFN5G8bOcT_VaYf90o9oq8EzwfspsT3ki76PCJxN_9zLU0KjdhQfVA1uu81R4qr_uxyJr3Bk7A0OrCyWP-r-DHE8KJxsKrfXnSHFMYAdwWvuWzxzWOl8pw1g798iV7ptvtlvIDzNVtv4ExxNtVoQd92LiFflYYOBcjvdUk8ds8o2JBgXUBo5Kyw8Ax2tNWAoqbPemIZ-3HRjCUusg5_g0omVwXuhBXAD5DmTxN2LPhzOOrriCYdEM2X4RkBTqHQxdI4gzrrkRK3_Mt4", "width": 2560}], "place_id": "ChIJ34I_eB3jM4gR_n1aJJlz2VE", "plus_code": {"compound_code": "37XP+J5 Youngstown, Ohio", "global_code": "86HX37XP+J5"}, "rating": 4.7, "reference": "ChIJ34I_eB3jM4gR_n1aJJlz2VE", "types": ["home_goods_store", "general_contractor", "store", "point_of_interest", "establishment"], "user_ratings_total": 19}, {"business_status": "OPERATIONAL", "formatted_address": "75 Victoria Rd, Youngstown, OH 44515, United States", "geometry": {"location": {"lat": 41.1039611, "lng": -80.7835061}, "viewport": {"northeast": {"lat": 41.10510052989272, "lng": -80.78224617010727}, "southwest": {"lat": 41.10240087010727, "lng": -80.78494582989272}}}, "icon": "https://maps.gstatic.com/mapfiles/place_api/icons/v1/png_71/generic_business-71.png", "icon_background_color": "#7B9EB0", "icon_mask_base_uri": "https://maps.gstatic.com/mapfiles/place_api/icons/v2/generic_pinlet", "name": "Boak & Sons, Inc.", "opening_hours": {"open_now": true}, "photos": [{"height": 2250, "html_attributions": ["<a href=\"https://maps.google.com/maps/contrib/114046518042622636889\">A Google User</a>"], "photo_reference": "AXQCQNQJuYhb-Kknr8IFEoDEKHaQktBAdNFTEPRnAS90Efs6r6RZPkCavWiqSbRJowFch0HdXEJ5P-4zscDRv8_hGEF0q1On79zfPBrLSJnf6JUKhLjAZS-10BzADyau_tVa2muKpGZCcqIo9_TbjYFFOIpiHAluG3Tnda9Ycpnz6tPqP-fgL1SRo8RZGEbWBKAJOd0OajbtKn97ycFq1NmxDhI2IMPmT12xl8kCVTi_3O0ZjDREQflKK-ga70u8IQgreUYhWgvCnKR4HgPx-InUuBdH5_RnE1_qxngvqAyaimpPEjnRRWU", "width": 4000}], "place_id": "ChIJKaUwGPLiM4gRWCHmR7BXxKc", "plus_code": {"compound_code": "4638+HH Youngstown, Ohio", "global_code": "86HX4638+HH"}, "rating": 4.8, "reference": "ChIJKaUwGPLiM4gRWCHmR7BXxKc", "types": ["roofing_contractor", "general_contractor", "point_of_interest", "establishment"], "user_ratings_total": 155}, {"business_status": "OPERATIONAL", "formatted_address": "3650 Connecticut Ave unit d, Youngstown, OH 44515, United States", "geometry": {"location": {"lat": 41.10764080000001, "lng": -80.7132348}, "viewport": {"northeast": {"lat": 41.10888837989271, "lng": -80.71188567010728}, "southwest": {"lat": 41.10618872010727, "lng": -80.71458532989273}}}, "icon": "https://maps.gstatic.com/mapfiles/place_api/icons/v1/png_71/generic_business-71.png", "icon_background_color": "#7B9EB0", "icon_mask_base_uri": "https://maps.gstatic.com/mapfiles/place_api/icons/v2/generic_pinlet", "name": "Valhalla Construction LLC", "opening_hours": {"open_now": true}, "photos": [{"height": 1564, "html_attributions": ["<a href=\"https://maps.google.com/maps/contrib/111076695247384317087\">A Google User</a>"], "photo_reference": "AXQCQNRvlv90L5jV1vBTZrtoIojwQKRM-knL0MP-d4_g7_ud7mcF8l14xTAtMMx-HGQu7MzgQ19ICVNvJMSDKVc5C75CloYG1hHoh9DMgRV2rSy3Nu6416ZhRFVJ4E7k9ivgrQPtI_WTtH2dGVrYD4mOXlgAHZHrEO-1HlujjKMFP6Z5xUQe8iv4o_xMOOkuLpjuTx4RtldmAhgIfaO15uGo05WxiAzT0v3dsWTLwriPrLxN3R1EyftIa8CfD1l7J0ZvtQt7CB1jQmHFX5mIkWCx1dcrMdJGwsqM_3AYKRzSorVz9-9fKKQ", "width": 956}], "place_id": "ChIJ0123PNXlM4gRoEOvXwO2-Qo", "plus_code": {"compound_code": "475P+3P Youngstown, Ohio", "global_code": "86HX475P+3P"}, "rating": 5, "reference": "ChIJ0123PNXlM4gRoEOvXwO2-Qo", "types": ["general_contractor", "point_of_interest", "establishment"], "user_ratings_total": 5}, {"business_status": "OPERATIONAL", "formatted_address": "1221 N Meridian Rd Shop #10, Youngstown, OH 44509, United States", "geometry": {"location": {"lat": 41.1298564, "lng": -80.7102231}, "viewport": {"northeast": {"lat": 41.13123592989272, "lng": -80.70887297010728}, "southwest": {"lat": 41.12853627010728, "lng": -80.71157262989273}}}, "icon": "https://maps.gstatic.com/mapfiles/place_api/icons/v1/png_71/generic_business-71.png", "icon_background_color": "#7B9EB0", "icon_mask_base_uri": "https://maps.gstatic.com/mapfiles/place_api/icons/v2/generic_pinlet", "name": "Italiano Construction", "opening_hours": {"open_now": true}, "photos": [{"height": 4032, "html_attributions": ["<a href=\"https://maps.google.com/maps/contrib/100278942744153272768\">Italiano Construction</a>"], "photo_reference": "AXQCQNSiKeeW1rIbSH4YfOWxTzD6tZA7L_hkfNhCd1t0hrgQH5WcvCH3E15ZFzUgveDI3Qj7z2cUQ9ViTEUoEfViaUKa95Px2EiUNstazlAasuPuzCU8YanyYHEaXhtgOATeuRe-j_v_aMiB-zi52Rl4PCyu776PICyGQ6bWYs9mS9hg52k5rn0eTPeExAsk2N5kz-JLmOPrvKpAfsN5kfc21zqw52ulw6oqQh33HSnxR1YisptoU-SjYQNpfR6OWC91Y_eUop1rKJy5rf8q-t_CmMPXQN_-2eUCeMxHeG4FsX-rlk0xFno", "width": 3024}], "place_id": "ChIJq6rW7nzjM4gRapNUtl3VrWw", "plus_code": {"compound_code": "47HQ+WW Youngstown, Ohio", "global_code": "86HX47HQ+WW"}, "rating": 4.7, "reference": "ChIJq6rW7nzjM4gRapNUtl3VrWw", "types": ["point_of_interest", "establishment"], "user_ratings_total": 28}, {"business_status": "OPERATIONAL", "formatted_address": "1953 S Turner Rd, Austintown, OH 44515, United States", "geometry": {"location": {"lat": 41.0812807, "lng": -80.7886389}, "viewport": {"northeast": {"lat": 41.08263287989272, "lng": -80.78744907010727}, "southwest": {"lat": 41.07993322010728, "lng": -80.79014872989272}}}, "icon": "https://maps.gstatic.com/mapfiles/place_api/icons/v1/png_71/generic_business-71.png", "icon_background_color": "#7B9EB0", "icon_mask_base_uri": "https://maps.gstatic.com/mapfiles/place_api/icons/v2/generic_pinlet", "name": "LJM Construction Co", "place_id": "ChIJBbxt3bfiM4gRBXP9EWe_NGI", "plus_code": {"compound_code": "36J6+GH Austintown, Ohio", "global_code": "86HX36J6+GH"}, "rating": 5, "reference": "ChIJBbxt3bfiM4gRBXP9EWe_NGI", "types": ["general_contractor", "point_of_interest", "establishment"], "user_ratings_total": 1}, {"business_status": "OPERATIONAL", "formatted_address": "5057 New Rd, Austintown, OH 44515, United States", "geometry": {"location": {"lat": 41.0830183, "lng": -80.75071799999999}, "viewport": {"northeast": {"lat": 41.08465722989273, "lng": -80.74935917010727}, "southwest": {"lat": 41.08195757010728, "lng": -80.75205882989272}}}, "icon": "https://maps.gstatic.com/mapfiles/place_api/icons/v1/png_71/generic_business-71.png", "icon_background_color": "#7B9EB0", "icon_mask_base_uri": "https://maps.gstatic.com/mapfiles/place_api/icons/v2/generic_pinlet", "name": "Rock Solid Contruction Corp. LLC.", "opening_hours": {"open_now": true}, "photos": [{"height": 2340, "html_attributions": ["<a href=\"https://maps.google.com/maps/contrib/111842661578377412895\">Rock Solid Contruction Corp. LLC.</a>"], "photo_reference": "AXQCQNToGKp6aJiVLIrearRHtTN-seybHe1Mk7YGlwSvSXC2T146WB7ZloiXzaoLHlL2zLEjXdIL_9Nin9JGtFDoR674JoIjBpx_lPQ49qtblUjlT7EfJ_zhtNESX12iWU0MMj43ozCdIo34ezWc0Vgu5w3eMaiLLgBg0RhbkOB3GlwjudUMWrWnLr4AqknfRV1LBtH37PJGhw5b8rrGiTvoM4Sj_7BJWNWhOK2M5L54CjURxEPDeLB_oGsYAoHmoNZJMkpt6DM6QQckcazqoHd3BoPtQMm9iDfKag1audLLZ2J-JGVLa88", "width": 4160}], "place_id": "ChIJ2_jZvjvjM4gRRK6BXsDbPkg", "plus_code": {"compound_code": "36MX+6P Austintown, Ohio", "global_code": "86HX36MX+6P"}, "rating": 4.4, "reference": "ChIJ2_jZvjvjM4gRRK6BXsDbPkg", "types": ["general_contractor", "point_of_interest", "establishment"], "user_ratings_total": 13}, {"business_status": "OPERATIONAL", "formatted_address": "7068 Mahoning Ave, Youngstown, OH 44515, United States", "geometry": {"location": {"lat": 41.1012135, "lng": -80.7975903}, "viewport": {"northeast": {"lat": 41.10256657989272, "lng": -80.79598427010727}, "southwest": {"lat": 41.09986692010727, "lng": -80.79868392989272}}}, "icon": "https://maps.gstatic.com/mapfiles/place_api/icons/v1/png_71/generic_business-71.png", "icon_background_color": "#7B9EB0", "icon_mask_base_uri": "https://maps.gstatic.com/mapfiles/place_api/icons/v2/generic_pinlet", "name": "Joe Koch Construction Inc", "opening_hours": {"open_now": true}, "photos": [{"height": 811, "html_attributions": ["<a href=\"https://maps.google.com/maps/contrib/113433212577173331741\">A Google User</a>"], "photo_reference": "AXQCQNTG_NUGgo2IXt8Xr4RC7FeYF1YwKvUfQcNOR0LgrMJtinGQeXLyS_y2vQfN6838FbrFDEoZbGiubH89pikZGILlFcdUtnpplgfyRKW18aU7zjrFVcRtGmhifdbjbyHb8D93VkHa4BPv53Z-NTpXvbRXyrb_AmUebffe9FFD67xkAMaVpEqCnArv9se2jDh5cZh0Qfh0KY2IuCnvm-vo47xMHwbI_Rwydu433_jwDuf-SLWkO7GOPc9kt9_dvYG_rlgIA51QjQ82elFlfh66P8Ck6CT9qpQoczGZM-Qfb1HmASvG_Jk", "width": 1440}], "place_id": "ChIJWRQ3iZDiM4gRtjqGIsmMxEE", "plus_code": {"compound_code": "4622+FX Youngstown, Ohio", "global_code": "86HX4622+FX"}, "rating": 3.9, "reference": "ChIJWRQ3iZDiM4gRtjqGIsmMxEE", "types": ["general_contractor", "point_of_interest", "establishment"], "user_ratings_total": 13}, {"business_status": "OPERATIONAL", "formatted_address": "1121 N Meridian Rd, Youngstown, OH 44509, United States", "geometry": {"location": {"lat": 41.1274078, "lng": -80.7106838}, "viewport": {"northeast": {"lat": 41.12875872989272, "lng": -80.70956662010728}, "southwest": {"lat": 41.12605907010728, "lng": -80.71226627989273}}}, "icon": "https://maps.gstatic.com/mapfiles/place_api/icons/v1/png_71/generic_business-71.png", "icon_background_color": "#7B9EB0", "icon_mask_base_uri": "https://maps.gstatic.com/mapfiles/place_api/icons/v2/generic_pinlet", "name": "Alexander Construction, Inc.", "opening_hours": {"open_now": true}, "photos": [{"height": 545, "html_attributions": ["<a href=\"https://maps.google.com/maps/contrib/112094609264858461039\">Alexander Construction, Inc.</a>"], "photo_reference": "AXQCQNR0LDv4wj90rdTYM1lgNDnyWq67st-oywTvv7xOL5p8XXG273uYjD-Wzg4N6idaFJxLSK7WuyLYswy0l9oCBz8QqsFeFiwa58ZIEeiFHwM4DL3SytcvaVBZMkzIosVSWuClkyLHrG9i6EG1HBXGb1sGCUK_bOBJ20bwryEog_EOK90wD36tSzXl6QxNlUKWnU0p1P5LxGqEQB1cE0MNz_x78vHsPjZ3B98UAnOSwibYB-8lCO_ask2kSOMoYWpzF0DNmxjF4lJmhIov6p35qiCc04U2sT-ftMvU3vChKpDHrYWV", "width": 717}], "place_id": "ChIJua-0cEfjM4gRhaWJer723yc", "plus_code": {"compound_code": "47GQ+XP Youngstown, Ohio", "global_code": "86HX47GQ+XP"}, "rating": 4, "reference": "ChIJua-0cEfjM4gRhaWJer723yc", "types": ["home_goods_store", "general_contractor", "store", "point_of_interest", "establishment"], "user_ratings_total": 13}, {"business_status": "OPERATIONAL", "formatted_address": "1221 N Meridian Rd Unit #3, Youngstown, OH 44515, United States", "geometry": {"location": {"lat": 41.1298099, "lng": -80.7105687}, "viewport": {"northeast": {"lat": 41.13123207989273, "lng": -80.70921837010728}, "southwest": {"lat": 41.12853242010728, "lng": -80.71191802989273}}}, "icon": "https://maps.gstatic.com/mapfiles/place_api/icons/v1/png_71/generic_business-71.png", "icon_background_color": "#7B9EB0", "icon_mask_base_uri": "https://maps.gstatic.com/mapfiles/place_api/icons/v2/generic_pinlet", "name": "D&M Modern Contracting", "opening_hours": {"open_now": true}, "photos": [{"height": 4032, "html_attributions": ["<a href=\"https://maps.google.com/maps/contrib/111682523266453824313\">A Google User</a>"], "photo_reference": "AXQCQNTlM9mvhcefxD7xcOjSJ_aLT5ByQIaWNLXFGfwGN40iAPwbvB1RCjv5dGHxOIHyrcD6kZ0vpnLBlrF7OMIvCROVD9Vla0JHfNGnryAoCloBvjeEo3_rtMbdony9B02a1a2uiQEOLKnJD_WfjyDTbBJhPniFMSYjXvmBnBjphv9_9uC9XYSrC0z7lVY7OCR2tk_VmnJIQFFtAm_ofywPmk8IX0uQf56S3-AwXCZ_FPWJZp_69WjelKrcxddBSR2_NQVrQksg3IWudTiM-ROK_rEe12z6Epka8CF5n2qpNZ38-NChtEQ", "width": 3024}], "place_id": "ChIJ74PgDR_jM4gRzcT_SxD_VoM", "plus_code": {"compound_code": "47HQ+WQ Youngstown, Ohio", "global_code": "86HX47HQ+WQ"}, "rating": 4.4, "reference": "ChIJ74PgDR_jM4gRzcT_SxD_VoM", "types": ["general_contractor", "point_of_interest", "establishment"], "user_ratings_total": 15}, {"business_status": "OPERATIONAL", "formatted_address": "134 Ohltown Rd, Austintown, OH 44515, United States", "geometry": {"location": {"lat": 41.1061267, "lng": -80.7682564}, "viewport": {"northeast": {"lat": 41.10754722989272, "lng": -80.76674832010728}, "southwest": {"lat": 41.10484757010727, "lng": -80.76944797989273}}}, "icon": "https://maps.gstatic.com/mapfiles/place_api/icons/v1/png_71/generic_business-71.png", "icon_background_color": "#7B9EB0", "icon_mask_base_uri": "https://maps.gstatic.com/mapfiles/place_api/icons/v2/generic_pinlet", "name": "M&J Roofing and Home Improvements, LLC", "opening_hours": {"open_now": true}, "photos": [{"height": 1536, "html_attributions": ["<a href=\"https://maps.google.com/maps/contrib/105459807774771797744\">M&amp;J Roofing and Home Improvements, LLC</a>"], "photo_reference": "AXQCQNTga5FI4XYlop27GadmcCt-d_DM0HJAgBhfW0B4RY3Nv_CPOsg-qLqUqiAigpGbokLiyE3ziHbOYwIYtnPbV45p8xKCV7RjwiueLMigwngZ21OnAniDvZ7kE9a7pfzRvvThG-loQLTuFEccV4mQPLStobkAC4GJKreCoAFAPepTak1w3g6nc9w-ULAis14oAJ-C4mR59hwTtNZ7PJU-GjYYNeTo2eCwklh9CuJOwTJVM2ldleC5LsXrNubClgzyiEdw_gEUgmLHGIW4HPXS33jlw5YBs1sBLH0cDgb_5J-TcMA16Ak", "width": 2048}], "place_id": "ChIJv7u7rGHjM4gRlc7KK4ibWcQ", "plus_code": {"compound_code": "464J+FM Austintown, Ohio", "global_code": "86HX464J+FM"}, "rating": 4.8, "reference": "ChIJv7u7rGHjM4gRlc7KK4ibWcQ", "types": ["roofing_contractor", "point_of_interest", "establishment"], "user_ratings_total": 34}, {"business_status": "OPERATIONAL", "formatted_address": "2310 Mahoning Ave, Youngstown, OH 44509, United States", "geometry": {"location": {"lat": 41.1030338, "lng": -80.6943503}, "viewport": {"northeast": {"lat": 41.10424697989271, "lng": -80.69299282010728}, "southwest": {"lat": 41.10154732010727, "lng": -80.69569247989271}}}, "icon": "https://maps.gstatic.com/mapfiles/place_api/icons/v1/png_71/generic_business-71.png", "icon_background_color": "#7B9EB0", "icon_mask_base_uri": "https://maps.gstatic.com/mapfiles/place_api/icons/v2/generic_pinlet", "name": "J&M Construction", "opening_hours": {"open_now": true}, "photos": [{"height": 2080, "html_attributions": ["<a href=\"https://maps.google.com/maps/contrib/103896642886729329545\">A Google User</a>"], "photo_reference": "AXQCQNS6rOgVhXKfP8OxaKkY7preh1FcbfzxON6nUo0BDuJ5nPxC6tJfNEvX_6DZYWHKLEwRPKBrTqM4UENDh_mzBkmIZi1Cs80MwZVR9bNS4eGiONWPeXDUo6VgsJnp_1ntRDULxKxOQF4HOMJj_yRFhRYY7h3zafM5ZYyAWHpMH8_YF7nfDc1JnpncnxyJHIG326lgYaJvTel0HWuDaEWVlafrn3QfjLJ3NYzmUQBCJb3Q_vOKxCD1uQNidaasPeq6QwXAfb-jB9RnDF821hZpgpYXyYhBrPXXDMdmlSdqrzIUEJXfQ5w", "width": 4160}], "place_id": "ChIJ93b9lyflM4gRjIQH6BAoXHA", "plus_code": {"compound_code": "4834+67 Youngstown, Ohio", "global_code": "86HX4834+67"}, "rating": 3.5, "reference": "ChIJ93b9lyflM4gRjIQH6BAoXHA", "types": ["roofing_contractor", "general_contractor", "point_of_interest", "establishment"], "user_ratings_total": 17}, {"business_status": "OPERATIONAL", "formatted_address": "2232 Sprucewood Dr, Austintown, OH 44515, United States", "geometry": {"location": {"lat": 41.0780221, "lng": -80.7366617}, "viewport": {"northeast": {"lat": 41.07951537989272, "lng": -80.73530847010728}, "southwest": {"lat": 41.07681572010728, "lng": -80.73800812989272}}}, "icon": "https://maps.gstatic.com/mapfiles/place_api/icons/v1/png_71/generic_business-71.png", "icon_background_color": "#7B9EB0", "icon_mask_base_uri": "https://maps.gstatic.com/mapfiles/place_api/icons/v2/generic_pinlet", "name": "Kosmo Creative Construction LLC", "opening_hours": {"open_now": true}, "photos": [{"height": 4032, "html_attributions": ["<a href=\"https://maps.google.com/maps/contrib/105551327420283263355\">A Google User</a>"], "photo_reference": "AXQCQNTPLI5zjHDQb47_3A4-nPQYI4YFRsYKbMnyMCZ4G4HxMp5Hgr2imEeyNyJ2SJ23JeRUXvH-u156DZwzliBwBVQDVriD3AF0wzBCEkLDG5P65OHsBi6q4yw2Wt-ygEztfl6l5K-ovbpYVhUfhe-KpKCxiipiGwuRCxWkFcbpmCCnlBA-kpFAQ9KqfL9zLxg3ZBD5Z17Mx8SKVZp_5omNw4g1rp_uhj_Nlzmcf2ubJzlYIvdcXKcj891VxXFj15B8RBGruTHwLTPVUj2b4GZNWqE5Gi5MT5lVpnnfbTjOA0Epd6cPrNY", "width": 1908}], "place_id": "ChIJp06z6B7jM4gRCdW1rksBmBs", "plus_code": {"compound_code": "37H7+68 Austintown, Ohio", "global_code": "86HX37H7+68"}, "rating": 5, "reference": "ChIJp06z6B7jM4gRCdW1rksBmBs", "types": ["general_contractor", "point_of_interest", "establishment"], "user_ratings_total": 2}, {"business_status": "OPERATIONAL", "formatted_address": "4351 Kirk Rd, Youngstown, OH 44511, United States", "geometry": {"location": {"lat": 41.0673612, "lng": -80.7313042}, "viewport": {"northeast": {"lat": 41.06877632989273, "lng": -80.73004692010727}, "southwest": {"lat": 41.06607667010729, "lng": -80.73274657989272}}}, "icon": "https://maps.gstatic.com/mapfiles/place_api/icons/v1/png_71/shopping-71.png", "icon_background_color": "#4B96F3", "icon_mask_base_uri": "https://maps.gstatic.com/mapfiles/place_api/icons/v2/shopping_pinlet", "name": "Handyman-Austintown INC", "opening_hours": {"open_now": true}, "photos": [{"height": 4032, "html_attributions": ["<a href=\"https://maps.google.com/maps/contrib/116625191409199970996\">Jessica Simecek</a>"], "photo_reference": "AXQCQNT3fnJCgrdUmTW0wZzDiTjhMFXg2J45djeMQ4IMiDoAeNUDjGfH75-sesAZjdcWYzuy1GtxbO-le0TNNTu62vkR4BKA-E5NQzZiROtUOHbylVcAxgq5chkXjtAd2e1lfAqe2hauAcNB9UKjqsxuPch3p-5fd5x97mGXVlnTWYK3xCP_YoLqV7Ug7xqaV2k_N3T2Rmu_PFZ1OH9mNU_Vz4YWjGHkg1yrzgvJARlMAywNR_5narcv0OCnbs1CrDlb1OONRHDYrCZQcBGU5BO3HRrIrGIxQ2vR316vu4Fo8oGuL_Vcergb9Itkdl1kwRnQT47vTr75MI-7jaqe4r77FBNVFJxwht4LJZmnElN79zmuEhG0E_gfp17lQoRDDPOycYZ3-ld7-Td-PfCJrRxsLdUWgANDPRO-OGD0xpqV3n1OtH--m2VUu4oA4dqlYFIkVBp8N81hONw12pvNcz7iKtpLsO98CUBMZ35l-yUyva3md0-J6MJa81goGMq5Fe63yLVDE27SARkFNbrgZWp41ufG8LTquIL8PsIILJgsd2U8Zu5XKu9J9pn4htGG-jnXbW2Kw3-OHxD8qw", "width": 3024}], "place_id": "ChIJ46Wmx1LjM4gRzya0QptQg1A", "plus_code": {"compound_code": "3789+WF Youngstown, Ohio", "global_code": "86HX3789+WF"}, "rating": 4.7, "reference": "ChIJ46Wmx1LjM4gRzya0QptQg1A", "types": ["hardware_store", "general_contractor", "store", "point_of_interest", "establishment"], "user_ratings_total": 383}, {"business_status": "OPERATIONAL", "formatted_address": "331 Benton St, Youngstown, OH 44515, United States", "geometry": {"location": {"lat": 41.1119254, "lng": -80.7496486}, "viewport": {"northeast": {"lat": 41.11326937989272, "lng": -80.74866737010727}, "southwest": {"lat": 41.11056972010728, "lng": -80.7513670298927}}}, "icon": "https://maps.gstatic.com/mapfiles/place_api/icons/v1/png_71/generic_business-71.png", "icon_background_color": "#7B9EB0", "icon_mask_base_uri": "https://maps.gstatic.com/mapfiles/place_api/icons/v2/generic_pinlet", "name": "Davis Construction And Dryer Vent Serv", "opening_hours": {"open_now": true}, "place_id": "ChIJU_u7KaHjM4gRY64jhXOWtHw", "plus_code": {"compound_code": "4762+Q4 Youngstown, Ohio", "global_code": "86HX4762+Q4"}, "rating": 5, "reference": "ChIJU_u7KaHjM4gRY64jhXOWtHw", "types": ["general_contractor", "point_of_interest", "establishment"], "user_ratings_total": 1}, {"business_status": "OPERATIONAL", "formatted_address": "984 Bears Den Rd, Youngstown, OH 44511, United States", "geometry": {"location": {"lat": 41.0893696, "lng": -80.70413099999999}, "viewport": {"northeast": {"lat": 41.09062137989272, "lng": -80.70278092010726}, "southwest": {"lat": 41.08792172010728, "lng": -80.70548057989271}}}, "icon": "https://maps.gstatic.com/mapfiles/place_api/icons/v1/png_71/generic_business-71.png", "icon_background_color": "#7B9EB0", "icon_mask_base_uri": "https://maps.gstatic.com/mapfiles/place_api/icons/v2/generic_pinlet", "name": "New Harvest Construction", "opening_hours": {"open_now": true}, "photos": [{"height": 576, "html_attributions": ["<a href=\"https://maps.google.com/maps/contrib/106689094718299411342\">New Harvest Construction</a>"], "photo_reference": "AXQCQNT_oiyjRAwCAfWkR-vfIehuoHkUNhr23SWUynjDhsPkm1YscmgsS84JEcp9cDXIv7CBFgzI__0qvx8Xjc0BKbahqPoLt-1JmaOMIBJ6pmINzDUEssXMDK0mJH9kai9Dy8Gm545rDPIsBgDAGxVCK-zd-OQ_E01nM29K-SHeD0BhG4SEsc52pu6-JygvajLl07jgYjIR4eyFeU_-_3RCARu4WGK_Kk2KbWMUHL4I-bZmrcy9Doddjf_FG4HmMlXB4YOd80AP13fZkCMoPAnml3vvY5gXsNyJY906jQ9XFurK8R9Tqzc", "width": 1024}], "place_id": "ChIJd5T647PlM4gRKYLndULWMTU", "plus_code": {"compound_code": "37QW+P8 Youngstown, Ohio", "global_code": "86HX37QW+P8"}, "rating": 5, "reference": "ChIJd5T647PlM4gRKYLndULWMTU", "types": ["roofing_contractor", "general_contractor", "point_of_interest", "establishment"], "user_ratings_total": 8}, {"business_status": "OPERATIONAL", "formatted_address": "427 S Broad St, Canfield, OH 44406, United States", "geometry": {"location": {"lat": 41.0164498, "lng": -80.7604559}, "viewport": {"northeast": {"lat": 41.01780292989272, "lng": -80.75919912010728}, "southwest": {"lat": 41.01510327010728, "lng": -80.76189877989273}}}, "icon": "https://maps.gstatic.com/mapfiles/place_api/icons/v1/png_71/generic_business-71.png", "icon_background_color": "#7B9EB0", "icon_mask_base_uri": "https://maps.gstatic.com/mapfiles/place_api/icons/v2/generic_pinlet", "name": "Sam Pitzulo Homes & Remodeling", "opening_hours": {"open_now": true}, "photos": [{"height": 1675, "html_attributions": ["<a href=\"https://maps.google.com/maps/contrib/107758034122053601665\">Sam Pitzulo Homes &amp; Remodeling</a>"], "photo_reference": "AXQCQNTKFsgFANZynPKcWciqaC394r5n-NxwWJdPt5Ii7ab9CxW4KCcjQUHYqfdKEuMqit7QDbNFM391Sz8KzJfB5SX4IHCgaZrN6XYOuvOGtuMDKVltJWI_ZI_TlY1pjTxGevfTQGR4nFXcIIFTuPu_EQzwkPHF6vfNITgwD2m2oEZfmZJxQZAY6DouUWsref5EFw_tq2OMeSq-r4jEV-a_wqjx-x2ni5ZGzdsQCTuM4e3Am-tOGM7ilIXq6iLocyAomMNeR2xCBGP0rekqkUz097HS-55nDwq_WQOjXovxarcPS6nMsco", "width": 3115}], "place_id": "ChIJf1N2oE78M4gR8IBXaEHqLzM", "plus_code": {"compound_code": "268Q+HR Canfield, Ohio", "global_code": "86HX268Q+HR"}, "rating": 4.5, "reference": "ChIJf1N2oE78M4gR8IBXaEHqLzM", "types": ["home_goods_store", "general_contractor", "store", "point_of_interest", "establishment"], "user_ratings_total": 28}, {"business_status": "OPERATIONAL", "formatted_address": "1711 Keefer Rd, Girard, OH 44420, United States", "geometry": {"location": {"lat": 41.1782884, "lng": -80.67827539999999}, "viewport": {"northeast": {"lat": 41.17963417989272, "lng": -80.67711392010727}, "southwest": {"lat": 41.17693452010728, "lng": -80.67981357989272}}}, "icon": "https://maps.gstatic.com/mapfiles/place_api/icons/v1/png_71/generic_business-71.png", "icon_background_color": "#7B9EB0", "icon_mask_base_uri": "https://maps.gstatic.com/mapfiles/place_api/icons/v2/generic_pinlet", "name": "KD Construction & Remodeling LLC", "opening_hours": {"open_now": true}, "photos": [{"height": 4032, "html_attributions": ["<a href=\"https://maps.google.com/maps/contrib/106804768795678916996\">senthil varathan</a>"], "photo_reference": "AXQCQNRYlEtTwn2UaiUtON338J7fyey_dSqkSa-LW3O83W3oZBBFwc3yymS4oHHUfJxILgjkK9IpgwPx-BJU3_KAGFUgC9MgpCVZWls8vjVD--06pNnIYSqyRqt83usH9F51-yHsjSmJcYhOs4g3N0R82jqKAJPNUa9g-SgbM2KQ1kAsKFmif0lJoXPFsuP0QUb9S14yorADynz88zf1QSt1SWFk-r4TSWT-vr8tUp35pxdtcWGQPhMFZOjW5c_2jrWnfjsAoDblWzGRWG5Xefve5Ue2c04paBuZ2ehXVbAWQZYtglffHKCrU3MN_LDTcoxFcp5bUvrGzf7cApQJ-_o4rl8uKBOvIcy4atiMKvdLAWc8ZDrCkUY4MIAf5kdvx93-WWkDgxBNLy7sfWLuDHp9ut_y9Imk2XWQGmMWfBCXCCiEc1_Lev59r48axWPBKiN2zX_eQpTSxSkuz2A9eM3YlOAq-3IKbI_nFcCULnvXL28KY8Cg53Bj11O2kJv_GjYSsFQhHJAFNziul0gCBG-uHO_7uSdKU4AE6aRvr2HwVaLgq59Q7rUQIzBR3V6wj04cg22cYIkExSX8YQ", "width": 3024}], "place_id": "ChIJjdNbtPjmM4gR6gPKOKS5iM8", "plus_code": {"compound_code": "58HC+8P Girard, Ohio", "global_code": "86HX58HC+8P"}, "rating": 4, "reference": "ChIJjdNbtPjmM4gR6gPKOKS5iM8", "types": ["roofing_contractor", "general_contractor", "point_of_interest", "establishment"], "user_ratings_total": 5}, {"business_status": "OPERATIONAL", "formatted_address": "6495 Mahoning Ave, Youngstown, OH 44515, United States", "geometry": {"location": {"lat": 41.0992086, "lng": -80.7864476}, "viewport": {"northeast": {"lat": 41.10074352989272, "lng": -80.78509852010728}, "southwest": {"lat": 41.09804387010728, "lng": -80.78779817989273}}}, "icon": "https://maps.gstatic.com/mapfiles/place_api/icons/v1/png_71/generic_business-71.png", "icon_background_color": "#7B9EB0", "icon_mask_base_uri": "https://maps.gstatic.com/mapfiles/place_api/icons/v2/generic_pinlet", "name": "Zinz Construction and Restoration", "opening_hours": {"open_now": true}, "photos": [{"height": 2304, "html_attributions": ["<a href=\"https://maps.google.com/maps/contrib/114522807869455025945\">Zinz Construction and Restoration</a>"], "photo_reference": "AXQCQNRF3r8PcOfW-JEiLZCAA6Y_qcvF89KxGTzarIw_FzfUN-fLBB6yuk71XohvXJ8VRh60lKACzFJ-ZITF_3OPatDiqwxS0D9Lt7Oph3HaZtyAEm0p9Yi2E3BUNM6eZzNR3r6w92s4_dIoyxEm7oo6q4BlisUIZ1j4dvh_kHax2cOHxskOoNDt7XEgo2gVyUa-jaXn0pnX4pyvA-OC51b7862PJcmO3AZPZ4GqzrxO46HiPaCOgPpSnaH7rMiGhYsTHOkmsZOQvZ-x6fvPg3jF6Wf9PmND7Rt28r6ph9fGrgDzUb736s4", "width": 3072}], "place_id": "ChIJ9Ye-D0urNogR-evNCuWVulE", "plus_code": {"compound_code": "36X7+MC Youngstown, Ohio", "global_code": "86HX36X7+MC"}, "rating": 3.2, "reference": "ChIJ9Ye-D0urNogR-evNCuWVulE", "types": ["general_contractor", "point_of_interest", "establishment"], "user_ratings_total": 9}]