[{"business_status": "OPERATIONAL", "formatted_address": "8940 Beckett Rd, West Chester Township, OH 45069, United States", "geometry": {"location": {"lat": 39.3323399, "lng": -84.4444029}, "viewport": {"northeast": {"lat": 39.33368997989272, "lng": -84.44305767010728}, "southwest": {"lat": 39.33099032010728, "lng": -84.44575732989273}}}, "icon": "https://maps.gstatic.com/mapfiles/place_api/icons/v1/png_71/generic_business-71.png", "icon_background_color": "#7B9EB0", "icon_mask_base_uri": "https://maps.gstatic.com/mapfiles/place_api/icons/v2/generic_pinlet", "name": "DRK Construction Services LLC", "opening_hours": {"open_now": true}, "place_id": "ChIJZ2hu6d1PQIgRwIi6iB0FyZk", "plus_code": {"compound_code": "8HJ4+W6 Beckett Ridge, Ohio", "global_code": "86FQ8HJ4+W6"}, "rating": 4, "reference": "ChIJZ2hu6d1PQIgRwIi6iB0FyZk", "types": ["general_contractor", "point_of_interest", "establishment"], "user_ratings_total": 4}, {"business_status": "OPERATIONAL", "formatted_address": "4475 Muhlhauser Rd, West Chester Township, OH 45011, United States", "geometry": {"location": {"lat": 39.316184, "lng": -84.47442749999999}, "viewport": {"northeast": {"lat": 39.31777077989272, "lng": -84.47313652010727}, "southwest": {"lat": 39.31507112010728, "lng": -84.47583617989272}}}, "icon": "https://maps.gstatic.com/mapfiles/place_api/icons/v1/png_71/generic_business-71.png", "icon_background_color": "#7B9EB0", "icon_mask_base_uri": "https://maps.gstatic.com/mapfiles/place_api/icons/v2/generic_pinlet", "name": "All Claims Repairs Ohio", "opening_hours": {"open_now": true}, "photos": [{"height": 4000, "html_attributions": ["<a href=\"https://maps.google.com/maps/contrib/103882483563544259616\">All Claims Repairs Ohio</a>"], "photo_reference": "AXQCQNTgr7TdgeyOS2uO_a9j9NXOd_6Z4XRDbiFXWi1kRL9236eP2QpNlzKSL7RcSm6o77Zy3onLJp_m4R_chAYpwUeHYV0ADSEx9176X_2WpPHJJOq5y51bOakIfsXb3D2h4aS_ASJ_1FuUOt3o4zpF1a3OPBRLkV3mvIJuTdbUqszHPinv3KD_DvZ1drB87wICZJyu4zImO7ffo4eJoUgu1w6WjZaRKVLmv-8RQg50hxapyJCHBS5dne0Wy-NHC_92RatxV3fqCjjiHld0nn7D95_GzYP2GYLkjawsky8WrpWBUvVZoGU", "width": 6016}], "place_id": "ChIJdRWfhaxPQIgRI27-EI6ILXw", "plus_code": {"compound_code": "8G8G+F6 Fairfield, Ohio", "global_code": "86FQ8G8G+F6"}, "rating": 4.5, "reference": "ChIJdRWfhaxPQIgRI27-EI6ILXw", "types": ["general_contractor", "point_of_interest", "establishment"], "user_ratings_total": 161}, {"business_status": "OPERATIONAL", "formatted_address": "8930 Global Way, West Chester Township, OH 45069, United States", "geometry": {"location": {"lat": 39.334331, "lng": -84.445094}, "viewport": {"northeast": {"lat": 39.33602777989272, "lng": -84.44369107010728}, "southwest": {"lat": 39.33332812010728, "lng": -84.44639072989273}}}, "icon": "https://maps.gstatic.com/mapfiles/place_api/icons/v1/png_71/generic_business-71.png", "icon_background_color": "#7B9EB0", "icon_mask_base_uri": "https://maps.gstatic.com/mapfiles/place_api/icons/v2/generic_pinlet", "name": "ImproveIt Home Remodeling", "opening_hours": {"open_now": true}, "photos": [{"height": 3126, "html_attributions": ["<a href=\"https://maps.google.com/maps/contrib/104164250701882432553\">ImproveIt Home Remodeling</a>"], "photo_reference": "AXQCQNQP7YoyIKc1ogiLaj_5V-M8mUNCzkWGkabHyKPpnNU6eQkQuHF6NvGCMiJrEnUKcY-GtRvMLxTFpOeLIpRk1h4GDe5wspBqUoexQcvrRmndcZtna-XwDPhFOlC6V6d_fGHoDXCVEJc3_hxJAMBzE6tpPg5Uy2bNxgf9b2VOQ1Oc7WvY5fwXaoqCB6A_5L8evTZVydzCW0Db8dmS0yQntpyEBaB2sWf1AoMGhQfGuxsRfbyjaNZjFey42HC9wN-IkB4Fv155l1LmTHiBBEeeDx-FVgSSEyr-eFiLsd0VvrETLCV5q88", "width": 4689}], "place_id": "ChIJ-f2B28hTQIgRhGnV1opSl84", "plus_code": {"compound_code": "8HM3+PX Beckett Ridge, Ohio", "global_code": "86FQ8HM3+PX"}, "rating": 4.6, "reference": "ChIJ-f2B28hTQIgRhGnV1opSl84", "types": ["home_goods_store", "general_contractor", "store", "point_of_interest", "establishment"], "user_ratings_total": 520}, {"business_status": "OPERATIONAL", "formatted_address": "8939 Brookside Ave, West Chester Township, OH 45069, United States", "geometry": {"location": {"lat": 39.3293664, "lng": -84.4104931}, "viewport": {"northeast": {"lat": 39.33074052989272, "lng": -84.40921187010727}, "southwest": {"lat": 39.32804087010728, "lng": -84.41191152989272}}}, "icon": "https://maps.gstatic.com/mapfiles/place_api/icons/v1/png_71/generic_business-71.png", "icon_background_color": "#7B9EB0", "icon_mask_base_uri": "https://maps.gstatic.com/mapfiles/place_api/icons/v2/generic_pinlet", "name": "Destefano Homes & Remodeling", "opening_hours": {"open_now": true}, "photos": [{"height": 2448, "html_attributions": ["<a href=\"https://maps.google.com/maps/contrib/100367314303664084018\">Logan Wallace</a>"], "photo_reference": "AXQCQNToloOi2iuqtt8dlWviMmaF4rlci4v1zIaEeSM_SeCmI3YyDCE6m6NHl8sYibsziK7VEsFMbm3BN300To_RYh-svHP0YLzepA0XPqZQ8AlbhtM83S9zIeWOsbj7OecZEY1Z4RiVtRXgQvMuwsZwulZRu8lz8aS0Er7Oeo46Artz9czVC06wBavL0ChHDtM7YzLVeX5jEvntgIdLZpi0DiCUavE_qt_JwPPXit1nI7w9pNC7OAcWUv8IkrkBAZujSWABTQ-ftyUAEqzLUF3NT8FWJWlm0TeKlFC8j3kKOiV2ssXmd9wG2KKnU-5RmKXxVp1jBeLlwAGh6EzBQuIZonzcDDm_9ix-rf6nMXPh1qhXcGIQnj6nehP79v32EdQRDftJMCr1aOPuVDNSAdQ5hxXpn47lmS_GwEr_D2ORLPtqScflDA5TObEPFDJYaAbVopaIyWT0ZBxIk3INAv51ioymlBvTIkX5I95bJ6PSCRNGWAXHNI6DTRvb80-UPBorvCXusExq2lOatTvKDYyPg5--UJ0fRuiv6a-tCrSRfq5wiA1aStxOz4eNy7XhKabVh2quC4OY1HiLXw", "width": 3264}], "place_id": "ChIJebhVSkJQQIgRpyEYU0Ags9g", "plus_code": {"compound_code": "8HHQ+QR Olde West Chester, Ohio", "global_code": "86FQ8HHQ+QR"}, "rating": 5, "reference": "ChIJebhVSkJQQIgRpyEYU0Ags9g", "types": ["general_contractor", "point_of_interest", "establishment"], "user_ratings_total": 1}, {"business_status": "OPERATIONAL", "formatted_address": "8200 Beckett Park Dr Office 103, West Chester Township, OH 45069, United States", "geometry": {"location": {"lat": 39.3530808, "lng": -84.462469}, "viewport": {"northeast": {"lat": 39.35443382989272, "lng": -84.46107657010728}, "southwest": {"lat": 39.35173417010728, "lng": -84.46377622989273}}}, "icon": "https://maps.gstatic.com/mapfiles/place_api/icons/v1/png_71/generic_business-71.png", "icon_background_color": "#7B9EB0", "icon_mask_base_uri": "https://maps.gstatic.com/mapfiles/place_api/icons/v2/generic_pinlet", "name": "Ideal Siding West Chester", "opening_hours": {"open_now": true}, "photos": [{"height": 3024, "html_attributions": ["<a href=\"https://maps.google.com/maps/contrib/117428801069597736635\">Ideal Siding West Chester</a>"], "photo_reference": "AXQCQNRTisY1ZMtxuNYYUY-XdUB_13CaGb3w6rSrEy3xE6Cofamy9ytixUsOx6VqfVO975b7OjiO8-iOdEWiKc0uu0aX8qTkUZTkF3iHwpwvI5R2LSvLU65eDKDSD52lGqPGui9y_EyQrV7eG1NUyUO9YfBj5TnixQIvwydo3l-ZVBhBg4_af_ltAHfR_3uGcWJze4GZYT12zTHCV266RfvziWjyc4U7ogrjCaPIsBkfnIcjIg4dTUSyT8jyMl3rijYQiqsmcpUKgjVqw-H4zfGscElDfcT73ZDMMOB4i2iv4uyzMNp35Qo", "width": 4032}], "place_id": "ChIJW_Kh_69PQIgRocrcfQVGStk", "plus_code": {"compound_code": "9G3Q+62 Beckett Ridge, Ohio", "global_code": "86FQ9G3Q+62"}, "rating": 5, "reference": "ChIJW_Kh_69PQIgRocrcfQVGStk", "types": ["point_of_interest", "establishment"], "user_ratings_total": 5}, {"business_status": "OPERATIONAL", "formatted_address": "4952 Winton Rd, Fairfield, OH 45014, United States", "geometry": {"location": {"lat": 39.3427535, "lng": -84.5388992}, "viewport": {"northeast": {"lat": 39.34411927989272, "lng": -84.53761067010727}, "southwest": {"lat": 39.34141962010728, "lng": -84.54031032989272}}}, "icon": "https://maps.gstatic.com/mapfiles/place_api/icons/v1/png_71/generic_business-71.png", "icon_background_color": "#7B9EB0", "icon_mask_base_uri": "https://maps.gstatic.com/mapfiles/place_api/icons/v2/generic_pinlet", "name": "REP General Contracting", "opening_hours": {"open_now": true}, "photos": [{"height": 2048, "html_attributions": ["<a href=\"https://maps.google.com/maps/contrib/112017360467497003609\">REP General Contracting</a>"], "photo_reference": "AXQCQNRSRpOpdxXUIvebO-QZ9gBtQ6Gy_tbHCQO1xSF21m7kangD26gW6J6ZWqXuzkDGvtT392N20JDPF321ev3W3a0nDiHdyhcCeKccQeUWAn9Geb99z_eTPoHCwzw8QzypiSH5-hB4McFfVQlNtEwqZchsuAupa3fI-R54HXd8QpsSxPOwGyQSWCLLnkS3-WFyJYiv8U0UceXIuS7VsWFZfyWdndjPKEifuwMKIwLW8_qB8HGhMdrU5ZDRg1xCj3E9CNR6YD3Jra8l0HWunmR9Di6fSWIWsc9GZEYDvCtF7MNq2crgCXw", "width": 1536}], "place_id": "ChIJo0YPbOZJQIgRdoAzN6p3QdU", "plus_code": {"compound_code": "8FV6+4C Fairfield, Ohio", "global_code": "86FQ8FV6+4C"}, "rating": 5, "reference": "ChIJo0YPbOZJQIgRdoAzN6p3QdU", "types": ["general_contractor", "painter", "home_goods_store", "store", "point_of_interest", "establishment"], "user_ratings_total": 72}, {"business_status": "OPERATIONAL", "formatted_address": "7906 Tylersville Square Dr Unit D, West Chester Township, OH 45069, United States", "geometry": {"location": {"lat": 39.3535978, "lng": -84.3768308}, "viewport": {"northeast": {"lat": 39.35494407989272, "lng": -84.37541577010728}, "southwest": {"lat": 39.35224442010728, "lng": -84.37811542989272}}}, "icon": "https://maps.gstatic.com/mapfiles/place_api/icons/v1/png_71/generic_business-71.png", "icon_background_color": "#7B9EB0", "icon_mask_base_uri": "https://maps.gstatic.com/mapfiles/place_api/icons/v2/generic_pinlet", "name": "Wieland Builders LLC", "opening_hours": {"open_now": true}, "photos": [{"height": 1365, "html_attributions": ["<a href=\"https://maps.google.com/maps/contrib/108058064813317673275\">Wieland Builders LLC</a>"], "photo_reference": "AXQCQNQAH7xJeMqsf5NA5xLlXPUsQGsKewuuXSyuF9_4sHDfPjUshQk_XQeORF1WINI9ZWmqsDTVIL7JLmtXk0UfifzNjGRXjYWO2_uNj6Aym6T6S2juSVKr5R9c8ChmW0R4V54arUCoM5-iDvPVdE1E_XsIqfrVKTU_YAB1SU4lrYcnHzNdKm-FoY4u4K9yNiwhalMYX3wRZbGMQ-c5Iq41XQ3Ft8e_s-VQnlVIfclOgswbzewaxPoVHCYRTxOYk010y8C-lrP3fTcJ-dGp2VU0rbaTwTh0FuixxO35ICiHD6nNKuFczuc", "width": 2048}], "place_id": "ChIJpaKmSx5PQIgR-FwTe8x_mg4", "plus_code": {"compound_code": "9J3F+C7 Wetherington, Ohio", "global_code": "86FQ9J3F+C7"}, "rating": 5, "reference": "ChIJpaKmSx5PQIgR-FwTe8x_mg4", "types": ["general_contractor", "point_of_interest", "establishment"], "user_ratings_total": 26}, {"business_status": "OPERATIONAL", "formatted_address": "6355 Centre Park Dr, West Chester Township, OH 45069, United States", "geometry": {"location": {"lat": 39.3022898, "lng": -84.4188496}, "viewport": {"northeast": {"lat": 39.30363857989273, "lng": -84.41745587010728}, "southwest": {"lat": 39.30093892010728, "lng": -84.42015552989272}}}, "icon": "https://maps.gstatic.com/mapfiles/place_api/icons/v1/png_71/generic_business-71.png", "icon_background_color": "#7B9EB0", "icon_mask_base_uri": "https://maps.gstatic.com/mapfiles/place_api/icons/v2/generic_pinlet", "name": "Schumacher Dugan Construction", "opening_hours": {"open_now": true}, "photos": [{"height": 577, "html_attributions": ["<a href=\"https://maps.google.com/maps/contrib/117752065989607547698\">Sophie Schumacher</a>"], "photo_reference": "AXQCQNRBxueFMh2w9xywcHEBHGQwyOKosRAU6QWEl_5jVblkyyXlWuxRD7WAXddyWFN_FZCKWKFaJoUj4-5lQkQDtmdUI4hCa7YQo8KY0uH50IjV-1rR91T3BDGnZam-7_ZmDTriFM0C-x70t6fe4CH5fNnCbbJxBpDEIjbqXlp4Km1Y8Epvy9PkLldrMXi2NoG_Dl_nk4DC-wAlVX-zKwxWbXoH5WN7konO6NzXU9r7coUNiUngZ1RPdfI-zxD2E8NaOuE_wDroK7s4yfaUyN1dN9-lnpkzmA--QdLtYumtwx3ankAdvWsVC5PU4yUz6KrJpQ8zaqydMNQ9-pPqfV4firVEb3YYHRcSYFu5PtzLDFDv1OZJLB736QtgFkjWS-zsPhL5uQh4jxlWOHKxyhkCkqqxlvdnSu_ACHPuR-hC8-SlMiOvKi2JFuy1TXe-8SLXpvBsalnPpUNRawBZYvb8xjOGzUKec-QLFgGhdWy6f2cfmHuUamucpVxXbw8T7V7mVC7pOtarUAAGVFUGowK7coXNr66zxvIa9NFFZik4k3KzW-9oTjU1xsEXSb959gouYRCpsL4qHmaW1A", "width": 769}], "place_id": "ChIJRfAAA8lRQIgRawg7TAvH9TA", "plus_code": {"compound_code": "8H2J+WC Sharonville, Ohio", "global_code": "86FQ8H2J+WC"}, "rating": 4.3, "reference": "ChIJRfAAA8lRQIgRawg7TAvH9TA", "types": ["general_contractor", "point_of_interest", "establishment"], "user_ratings_total": 6}, {"business_status": "OPERATIONAL", "formatted_address": "Eagle Ridge Ct, West Chester Township, OH 45069, United States", "geometry": {"location": {"lat": 39.3307448, "lng": -84.4281307}, "viewport": {"northeast": {"lat": 39.33209462989272, "lng": -84.42678087010728}, "southwest": {"lat": 39.32939497010728, "lng": -84.42948052989271}}}, "icon": "https://maps.gstatic.com/mapfiles/place_api/icons/v1/png_71/generic_business-71.png", "icon_background_color": "#7B9EB0", "icon_mask_base_uri": "https://maps.gstatic.com/mapfiles/place_api/icons/v2/generic_pinlet", "name": "JB England Builders", "photos": [{"height": 3000, "html_attributions": ["<a href=\"https://maps.google.com/maps/contrib/111055649699795943195\">Carrie Simpson</a>"], "photo_reference": "AXQCQNRyrYRvli3wr8xiIds1kLA1JlCMFRKqv4pNg_dfH-C1Yv_uQ3c1pjZwzPKSzS5TGAq3_o4En2FvWocqu9p9uq9SQjkCkJPTA0MQv5Cop6AT1nA8-LtHrPQBrSsm1UK76SfZy9JMpgtR9kLVGe1k1zF8aVec-eubx6haGbleyYhAr8Uaq0p9r0kc3Yj7IzF9dtVjAycymwDtE2CN4KxNq1Scgwif9veTWTjyzoiUktOjVXajH3qohCrYmpANrrUz8cHXumexsHz5i-c6KKxDfDWSRgfawt66_UoXRbcsBw5lgA6dFyemvCLusRUrCrShubs-vjL0yws-yWgAQ_UFIv8osMDBvGfqZ8158WzdmYY23GaZUtgl_M5MxSHkNKAbnZDle74KeBTnmeBCzm5QXez6GHrtQjSikjYAEclQFgJ7pnl2F_HTnOzpORSqbDGkMvj0qKmY4r72aVi44oHv_RCICtN9n9otvetE6v9CDbbPcQnA89PF1df5gHqeAR18ZUDoOoQSsEOYGU7CVr6US4I_sbIY3lxU92xIA6zdTYlS9Nzc8LhLLH4iKAjtjAQcJLwXe-P2", "width": 4000}], "place_id": "ChIJdVOR3yJQQIgRraOPUW1sBus", "plus_code": {"compound_code": "8HJC+7P Beckett Ridge, Ohio", "global_code": "86FQ8HJC+7P"}, "rating": 4.4, "reference": "ChIJdVOR3yJQQIgRraOPUW1sBus", "types": ["general_contractor", "point_of_interest", "establishment"], "user_ratings_total": 7}, {"business_status": "OPERATIONAL", "formatted_address": "7556 Central Parke Blvd, Mason, OH 45040, United States", "geometry": {"location": {"lat": 39.329974, "lng": -84.315924}, "viewport": {"northeast": {"lat": 39.33129392989272, "lng": -84.31467442010728}, "southwest": {"lat": 39.32859427010727, "lng": -84.31737407989273}}}, "icon": "https://maps.gstatic.com/mapfiles/place_api/icons/v1/png_71/generic_business-71.png", "icon_background_color": "#7B9EB0", "icon_mask_base_uri": "https://maps.gstatic.com/mapfiles/place_api/icons/v2/generic_pinlet", "name": "Vineyard Construction Company LLC", "opening_hours": {"open_now": true}, "photos": [{"height": 3024, "html_attributions": ["<a href=\"https://maps.google.com/maps/contrib/101921075446054983695\">troy vineyard</a>"], "photo_reference": "AXQCQNRQNMpzy_p9I4YV6EQ6L5zNID6zxEf9rVVKOGj2rnq8j4XaRWwErFF5dHPoDtkTrpNeUbuDwgconA6MSftH6UM7IW1QdsoQTezZKiR6QQOcPl6NDAs_ePWfypiDlQe3iW5oVdghU0gGM9t5sCmz02tUC0zxqgODsl4xjt30m0V8YAOd1p5BxQgsVz92_KqMQ3_lg1Xf0t9Ew3M4NTY2FSubx-mJytIE7AAD5hShnDOnOfM3dKMK52HC00yS9PBPxrI05yl69IyGrGlfh3cHu2Q1o24tJ-gyF51jgEO5hdWca2aTr_Rbe6LBYs7czPDKCPZeT790smQ-bFHWUOXblJAw1V8yo8p5_kMaIRktEOaUrq3O86OIrxPl22Oc1H1xiITRVrP3o5poABfoCSenWsfz-WaDP0Tdp-lQrs97_TwCnOB1dRzR5PVWUoMjpnGywwMJ3JtcCbcG0VejinzD-46h_OynfuQZ6KdMsX3LfQAB2hbf9ig0mxDYCTuBIN4sKVSTHT7RCunTlBUdnT5Ni49eAMOAbes4TH3-BV_WKLElkTLJBka7ZQYlPKl6QnMwWGXbL1uh", "width": 4032}], "place_id": "ChIJAQDkbhzsQIgRik9pP0kcbRU", "plus_code": {"compound_code": "8MHM+XJ Mason, Ohio", "global_code": "86FQ8MHM+XJ"}, "rating": 4.9, "reference": "ChIJAQDkbhzsQIgRik9pP0kcbRU", "types": ["general_contractor", "point_of_interest", "establishment"], "user_ratings_total": 74}, {"business_status": "OPERATIONAL", "formatted_address": "6631 Stockton Rd, Fairfield, OH 45014, United States", "geometry": {"location": {"lat": 39.3223806, "lng": -84.4953343}, "viewport": {"northeast": {"lat": 39.32375527989272, "lng": -84.49399232010728}, "southwest": {"lat": 39.32105562010728, "lng": -84.49669197989272}}}, "icon": "https://maps.gstatic.com/mapfiles/place_api/icons/v1/png_71/shopping-71.png", "icon_background_color": "#4B96F3", "icon_mask_base_uri": "https://maps.gstatic.com/mapfiles/place_api/icons/v2/shopping_pinlet", "name": "Biehl Brothers Contracting", "opening_hours": {"open_now": true}, "photos": [{"height": 4800, "html_attributions": ["<a href=\"https://maps.google.com/maps/contrib/108698741994431393843\">Biehl Brothers Contracting</a>"], "photo_reference": "AXQCQNSgVZDTusWzvdM_4KIo9PLUD7IIwvzW5a4fhj94O7Hd5MuN5Ex2XLwv98f61UYG9NJfU44_uujQ7GpK0yTZoYXRGNZ32ZV7WSbMQO6xcGVRcGMt-z1drfLfwaXJGpJn7B_7a901rKT9ioVZGHagvIzHsq-9W4mg_df7R88asgfmKd7s9JB0A1u6INGR4EZtTvFxqBxrq8TpyxXJlRH6q5K8-XqU_FKZkSJY3ZBMuEZ8wVv_Ig7ihMiDiaWZT787mP-328ywV9n5ljS0UTpPXCZ659edp5vsi46j-tGlVEjxqz0njrg", "width": 3200}], "place_id": "ChIJO4ejP1O1QYgRK-U5VxeveZM", "plus_code": {"compound_code": "8GC3+WV Fairfield, Ohio", "global_code": "86FQ8GC3+WV"}, "rating": 4.8, "reference": "ChIJO4ejP1O1QYgRK-U5VxeveZM", "types": ["home_goods_store", "general_contractor", "store", "point_of_interest", "establishment"], "user_ratings_total": 42}, {"business_status": "OPERATIONAL", "formatted_address": "9277 Centre Pointe Dr # 200, West Chester Township, OH 45069, United States", "geometry": {"location": {"lat": 39.3281193, "lng": -84.4294204}, "viewport": {"northeast": {"lat": 39.32934197989272, "lng": -84.42812422010729}, "southwest": {"lat": 39.32664232010728, "lng": -84.43082387989273}}}, "icon": "https://maps.gstatic.com/mapfiles/place_api/icons/v1/png_71/generic_business-71.png", "icon_background_color": "#7B9EB0", "icon_mask_base_uri": "https://maps.gstatic.com/mapfiles/place_api/icons/v2/generic_pinlet", "name": "Ron Cunagin - Tradesmen International", "opening_hours": {"open_now": true}, "place_id": "ChIJ0Sb3l9lRQIgR8aSvCqEXvOI", "plus_code": {"compound_code": "8HHC+66 Beckett Ridge, Ohio", "global_code": "86FQ8HHC+66"}, "rating": 5, "reference": "ChIJ0Sb3l9lRQIgR8aSvCqEXvOI", "types": ["general_contractor", "point_of_interest", "establishment"], "user_ratings_total": 40}, {"business_status": "OPERATIONAL", "formatted_address": "9303 US-42, West Chester Township, OH 45069, United States", "geometry": {"location": {"lat": 39.3171449, "lng": -84.37131389999999}, "viewport": {"northeast": {"lat": 39.31839802989273, "lng": -84.36985432010727}, "southwest": {"lat": 39.31569837010728, "lng": -84.3725539798927}}}, "icon": "https://maps.gstatic.com/mapfiles/place_api/icons/v1/png_71/generic_business-71.png", "icon_background_color": "#7B9EB0", "icon_mask_base_uri": "https://maps.gstatic.com/mapfiles/place_api/icons/v2/generic_pinlet", "name": "Tri B Home Improvements", "opening_hours": {"open_now": true}, "photos": [{"height": 3024, "html_attributions": ["<a href=\"https://maps.google.com/maps/contrib/110451624348533130412\">Tri B Home Improvements</a>"], "photo_reference": "AXQCQNSQJxHB6xDP06YVgzC49zIDfzWZgiqpC-BxjN01He-9AUJBwWFD1pGR38N7iiBKG6Jqy8flRekV8YanW5I1XLwcBO2nJUeMsYZmtam914qOadOaDHxXNa0qW1-2V-kY__n1pQjFKeDp_Fd94AqUZzPsNSPTHBN8CFHumX3T3tjzYklb2MivHJWWybbrqowEqLsjLGEsqyFLJ_AttJSEtvblNlOYc_yk0ofeZMZQqpJyUnITzfE2DuE2srogcHb_b8cmrNMFDD8W-lE-Lf6x5xKRw_RB8GAvHtlFG2v7jwK7nD5zJiU", "width": 4032}], "place_id": "ChIJNf30ETNRQIgRSlXmLaGaByM", "plus_code": {"compound_code": "8J8H+VF Pisgah, Ohio", "global_code": "86FQ8J8H+VF"}, "rating": 5, "reference": "ChIJNf30ETNRQIgRSlXmLaGaByM", "types": ["point_of_interest", "establishment"], "user_ratings_total": 1}, {"business_status": "OPERATIONAL", "formatted_address": "209 Reading Rd, Mason, OH 45040, United States", "geometry": {"location": {"lat": 39.35926910000001, "lng": -84.3136688}, "viewport": {"northeast": {"lat": 39.36056997989272, "lng": -84.31224487010729}, "southwest": {"lat": 39.35787032010727, "lng": -84.31494452989273}}}, "icon": "https://maps.gstatic.com/mapfiles/place_api/icons/v1/png_71/shopping-71.png", "icon_background_color": "#4B96F3", "icon_mask_base_uri": "https://maps.gstatic.com/mapfiles/place_api/icons/v2/shopping_pinlet", "name": "Creative Contracting, Inc.", "opening_hours": {"open_now": true}, "photos": [{"height": 768, "html_attributions": ["<a href=\"https://maps.google.com/maps/contrib/102362943849920614676\">Creative Contacting</a>"], "photo_reference": "AXQCQNQxzr0noufW7qTm0E27AkbrdkQSh9f4MC4-HO8yrKzdX51JHpCbEJZ-aQ0hPV4zAgfs6xKeXBCEBvfAUbUZM5Q57G-mPMxuNVKXEFGwbKLTGTYh-Ep9BvLxhRPbW8CHXVIaxiG7vdmPk5vsLUcJabWESA8JgJRi2dO9ANpRaB2lQO6ja2ug2g4qo8PjO4erG_fB__oFdiHCVh3YHf-n3rg9MRPAVEt2b-PjzBfOYfSJrlQ32PHH0AU_sCFttQxUbWxWDxCO-oMkmzwTeEtKZf1kHGn9q1wFevYRSIq-kdOYlpyqK5o", "width": 1024}], "place_id": "ChIJRz_V80JYQIgRtFJ81Jq7XDE", "plus_code": {"compound_code": "9M5P+PG Mason, Ohio", "global_code": "86FQ9M5P+PG"}, "rating": 4.9, "reference": "ChIJRz_V80JYQIgRtFJ81Jq7XDE", "types": ["home_goods_store", "general_contractor", "store", "point_of_interest", "establishment"], "user_ratings_total": 51}, {"business_status": "OPERATIONAL", "formatted_address": "9010 Goldpark Dr, West Chester Township, OH 45069, United States", "geometry": {"location": {"lat": 39.33241659999999, "lng": -84.4642982}, "viewport": {"northeast": {"lat": 39.33375877989272, "lng": -84.46309657010727}, "southwest": {"lat": 39.33105912010728, "lng": -84.46579622989272}}}, "icon": "https://maps.gstatic.com/mapfiles/place_api/icons/v1/png_71/generic_business-71.png", "icon_background_color": "#7B9EB0", "icon_mask_base_uri": "https://maps.gstatic.com/mapfiles/place_api/icons/v2/generic_pinlet", "name": "Chandler Construction", "place_id": "ChIJnQrv171PQIgRzB6EkDrkR6k", "plus_code": {"compound_code": "8GJP+X7 Port Union, Ohio", "global_code": "86FQ8GJP+X7"}, "rating": 3.8, "reference": "ChIJnQrv171PQIgRzB6EkDrkR6k", "types": ["general_contractor", "point_of_interest", "establishment"], "user_ratings_total": 6}, {"business_status": "OPERATIONAL", "formatted_address": "6511 West Chester Rd Suite B, West Chester Township, OH 45069, United States", "geometry": {"location": {"lat": 39.3246234, "lng": -84.40953119999999}, "viewport": {"northeast": {"lat": 39.32597482989271, "lng": -84.40825392010727}, "southwest": {"lat": 39.32327517010727, "lng": -84.41095357989272}}}, "icon": "https://maps.gstatic.com/mapfiles/place_api/icons/v1/png_71/generic_business-71.png", "icon_background_color": "#7B9EB0", "icon_mask_base_uri": "https://maps.gstatic.com/mapfiles/place_api/icons/v2/generic_pinlet", "name": "Shamrock Restoration, LLC", "opening_hours": {"open_now": true}, "photos": [{"height": 768, "html_attributions": ["<a href=\"https://maps.google.com/maps/contrib/100689558539890030427\">john riebel</a>"], "photo_reference": "AXQCQNRNRYXs7sjIyfUvpuAn0COFRpbI64XswXesPUAR-fCuZb8FWivPv6oCFzs1Ps-R-69uxm64g_NsAyJDhmvHZ90lE_b2CdtRedemgLYz79wZpP878oaqJ4N1lb0qi4gRJCTV3hyVJtcvZx7vEwUwkh3INF5iaLuuoZyKF98o_sf4OwS5VGUglGfjI_582L17LefP3MuxZH1Tk4a_RPn7kSuN2gwW3hBTxOq8hCmdlhLng6cg69hf9gTueSQDnOIzOqs-UJqShmgvo8G885G_d2FQD-Snbh1IglYLseCgUk5ClJ0Br66qi5S9q0wrpY_Rb6Y7cbN0GZBRVb2E1rbwLCFiDjNj8LhJOPrk99w3YaQU7DEWEl_8vcfVjhgRZiw78uWgLM34386MbipXIkkKXTZb6xIhljJjf9GsHkIWdZzPnNwZDvxa0oKCjLf3bPsGgn1wXhYYbNV9Tg0VTf3rKAzYUNHgAz8k08l0L7GXtJ_PWU9jKkwv7H-EhTiw5UXJw-p4gnBtiSXwtu3tFq2ukJU516QYwiUKvTgGVV2yeIcE_us6OyjnG2r9AA84xhKYp9Agng7b", "width": 1024}], "place_id": "ChIJXRNPzBVXQIgR9a6m24BsY2s", "plus_code": {"compound_code": "8HFR+R5 Beckett Ridge, Ohio", "global_code": "86FQ8HFR+R5"}, "rating": 5, "reference": "ChIJXRNPzBVXQIgR9a6m24BsY2s", "types": ["roofing_contractor", "general_contractor", "point_of_interest", "establishment"], "user_ratings_total": 147}, {"business_status": "OPERATIONAL", "formatted_address": "7285 Wethersfield Dr, West Chester Township, OH 45069, United States", "geometry": {"location": {"lat": 39.3716252, "lng": -84.4523868}, "viewport": {"northeast": {"lat": 39.37292562989272, "lng": -84.45097352010727}, "southwest": {"lat": 39.37022597010727, "lng": -84.45367317989272}}}, "icon": "https://maps.gstatic.com/mapfiles/place_api/icons/v1/png_71/generic_business-71.png", "icon_background_color": "#7B9EB0", "icon_mask_base_uri": "https://maps.gstatic.com/mapfiles/place_api/icons/v2/generic_pinlet", "name": "JWS Construction Services", "photos": [{"height": 4032, "html_attributions": ["<a href=\"https://maps.google.com/maps/contrib/113325830577143435138\">A Google User</a>"], "photo_reference": "AXQCQNT0ZOzONe3ebrxyD-1TEMeOt9oRnUzcZPnUoZavZ9pgXWFpvdjACiQz-b2fSfloow08m3lA1ZdhQeYLDuhehWOY-zF0Cgnm2SipMl3ccLkpAHBy1nZbJKx2eEOAib9j1vk3ZaaRYNqbFBvXXdTrd3ynYkECMzadptNM8UZ9GFzJyN249HvPZEkI7ta2OG94YToqgC8o2xcC5BPGz4EFpt7b_UuZAstnqE4ks6ThKEpjxgCQCLfAzEErzEGtqeowsEtSL29tcFCKFmoTRAA85kZIddMBdQpmz01rU9SbAz695YCb1Gwg1vGZ94QgDZRkpsOeqNc6v9q2MLO9MV_cPOYt98fahS0Rcm-nMU8ZSIcWm-9FRlHVxT-SK5_FViAlZ74kXYjoM98a6WQUQrPn4DkwRsoPSDvR_1lC0k2-RUUSclfYgV5oCwQrbBl9E8qJxhequCDqQyCphpCEHqfu2siUzmfYV4hfGrku64IiqQZavBxQiZ0e3zJO-tNY2gJB6lm0LdMuCx9Pa8ppf64Qxl0qGJhS3DBIjW1yZFU2L-rsEprf9ZuAZ-3-6u6ZU5_uC8VDYg", "width": 3024}], "place_id": "ChIJ__9D6UZFQIgRcFFabQW8lOI", "plus_code": {"compound_code": "9GCX+M2 Beckett Ridge, Ohio", "global_code": "86FQ9GCX+M2"}, "rating": 5, "reference": "ChIJ__9D6UZFQIgRcFFabQW8lOI", "types": ["point_of_interest", "establishment"], "user_ratings_total": 1}, {"business_status": "OPERATIONAL", "formatted_address": "8354 Princeton Glendale Rd # 105, West Chester Township, OH 45069, United States", "geometry": {"location": {"lat": 39.3500723, "lng": -84.45887309999999}, "viewport": {"northeast": {"lat": 39.35153292989272, "lng": -84.45745407010727}, "southwest": {"lat": 39.34883327010728, "lng": -84.46015372989271}}}, "icon": "https://maps.gstatic.com/mapfiles/place_api/icons/v1/png_71/generic_business-71.png", "icon_background_color": "#7B9EB0", "icon_mask_base_uri": "https://maps.gstatic.com/mapfiles/place_api/icons/v2/generic_pinlet", "name": "Kaiser Roof and Exteriors", "opening_hours": {"open_now": true}, "photos": [{"height": 1920, "html_attributions": ["<a href=\"https://maps.google.com/maps/contrib/104353077223850489755\">Kaiser Roof and Exteriors</a>"], "photo_reference": "AXQCQNTq6WbY18ssLkrWx7uStyP2JVzVDgHYo-UHokH6SXPDysm1n_hjKg5dMUSAoo_OVXqbp1PBh7tE1DolRLJu7BkufKrc_9bSZ66nUmMo5JiFmKMj8rstE8AvL5MSy3ex3Z_cLdtbtpN9-1vsulIxfBJS57u86jCQuUKSPhxaynrJz008wlWrBFRDnleuOZHX7Pfsye5OrD8hy_zbinKDkDPBpgPlNmivzGiYlYsMORG1qjpQOJWisvxI75DHPQEmLJlmFcSZMJaPECgd5mZ01OMzVV-23Y8vRJGWPeEfjwm-DjDKqW8", "width": 1440}], "place_id": "ChIJczHhrvRPQIgRoh5V8CUL9t4", "plus_code": {"compound_code": "9G2R+2F Beckett Ridge, Ohio", "global_code": "86FQ9G2R+2F"}, "rating": 4.9, "reference": "ChIJczHhrvRPQIgRoh5V8CUL9t4", "types": ["roofing_contractor", "general_contractor", "point_of_interest", "establishment"], "user_ratings_total": 160}, {"business_status": "OPERATIONAL", "formatted_address": "8892 Beckett Rd, West Chester Township, OH 45069, United States", "geometry": {"location": {"lat": 39.3330284, "lng": -84.4436847}, "viewport": {"northeast": {"lat": 39.33430207989272, "lng": -84.44252492010727}, "southwest": {"lat": 39.33160242010727, "lng": -84.44522457989272}}}, "icon": "https://maps.gstatic.com/mapfiles/place_api/icons/v1/png_71/generic_business-71.png", "icon_background_color": "#7B9EB0", "icon_mask_base_uri": "https://maps.gstatic.com/mapfiles/place_api/icons/v2/generic_pinlet", "name": "American WeatherTECHs, LLC", "opening_hours": {"open_now": true}, "photos": [{"height": 315, "html_attributions": ["<a href=\"https://maps.google.com/maps/contrib/108135121450023741889\">American WeatherTECHs, LLC</a>"], "photo_reference": "AXQCQNTlsAFsXi17kcFbMyXdf3uEdViGT0RNZphtRmf3XWgXu9otQqmy7d6qwUaCxCAFK-9G0Dv4GkVF-1zCQrTuRI0W6z6fEOnvqFzROgQkMWCzJnKheWUvbH5uJM3LNSqQAPUoVcZXyFZAIQTr9fT1NNwRL8952FUyrY7V_WO5HQIL90_KD0c16iLmjDUYL7IuhJqVbyCLoKq0UcC-7c4P5e1EvDv14Mpj6EX04OA_3t3ntbVnxeq36wdB2O1Xaadk34_xf9xoryigYdoxvTrpdyId4SN8R21zEZ7MfFbwtMevQTglu7g", "width": 851}], "place_id": "ChIJ_WjVUX5aQIgRQnbzWTTkZbc", "plus_code": {"compound_code": "8HM4+6G Beckett Ridge, Ohio", "global_code": "86FQ8HM4+6G"}, "rating": 4.9, "reference": "ChIJ_WjVUX5aQIgRQnbzWTTkZbc", "types": ["roofing_contractor", "home_goods_store", "general_contractor", "store", "point_of_interest", "establishment"], "user_ratings_total": 628}, {"business_status": "OPERATIONAL", "formatted_address": "6834 West Chester Rd, West Chester Township, OH 45069, United States", "geometry": {"location": {"lat": 39.3250632, "lng": -84.4047386}, "viewport": {"northeast": {"lat": 39.32637497989272, "lng": -84.40339292010728}, "southwest": {"lat": 39.32367532010728, "lng": -84.40609257989271}}}, "icon": "https://maps.gstatic.com/mapfiles/place_api/icons/v1/png_71/generic_business-71.png", "icon_background_color": "#7B9EB0", "icon_mask_base_uri": "https://maps.gstatic.com/mapfiles/place_api/icons/v2/generic_pinlet", "name": "Benchmark Land Management", "opening_hours": {"open_now": false}, "photos": [{"height": 2014, "html_attributions": ["<a href=\"https://maps.google.com/maps/contrib/112875563232678497251\">Benchmark Land Management</a>"], "photo_reference": "AXQCQNSSyY_C3Ac7ZFiQ7Lhigv0EMNoNmqmd1qblyxTz5UkeVYEjQRsTA3i--CIKzjIR9EyOKYK4Yof0lQ0jjcbPAE-WFqL5ZZJLX82_7iFMV7UfEX89UH0XFHLYGgYLvb3AzQ0nohKBce5jf5KxchlYmTxP-ZKKNQsCTn3rn5OdbNs7NzBzyCIsGi6hEKrTDmdMBq-psRg4MJAGUCcVzWc2GuSRcRIYsBfmivD3DpgumFO2XAEmljOUk6cHGh4e4aoXE-m1ITPKh3M0zpKXd4uciWZ-9Rh-B1d_oQT59o7dHSm0NEN4S6k", "width": 3581}], "place_id": "ChIJxae6N1tQQIgRgwydDerF_GY", "plus_code": {"compound_code": "8HGW+24 Beckett Ridge, Ohio", "global_code": "86FQ8HGW+24"}, "rating": 4.8, "reference": "ChIJxae6N1tQQIgRgwydDerF_GY", "types": ["general_contractor", "point_of_interest", "establishment"], "user_ratings_total": 24}]