[{"business_status": "OPERATIONAL", "formatted_address": "7789 N Blackburn Rd, Athens, OH 45701, United States", "geometry": {"location": {"lat": 39.311475, "lng": -82.1218788}, "viewport": {"northeast": {"lat": 39.31294327989272, "lng": -82.12051567010727}, "southwest": {"lat": 39.31024362010728, "lng": -82.12321532989272}}}, "icon": "https://maps.gstatic.com/mapfiles/place_api/icons/v1/png_71/generic_business-71.png", "icon_background_color": "#7B9EB0", "icon_mask_base_uri": "https://maps.gstatic.com/mapfiles/place_api/icons/v2/generic_pinlet", "name": "Mike Myers Construction", "opening_hours": {"open_now": true}, "place_id": "ChIJn_58JPpzSIgRZ5otv2sgqDY", "plus_code": {"compound_code": "8V6H+H6 Athens, Ohio", "global_code": "86FV8V6H+H6"}, "rating": 4.3, "reference": "ChIJn_58JPpzSIgRZ5otv2sgqDY", "types": ["point_of_interest", "establishment"], "user_ratings_total": 6}, {"business_status": "OPERATIONAL", "formatted_address": "5253 Washington Rd, Albany, OH 45710, United States", "geometry": {"location": {"lat": 39.2267628, "lng": -82.2037119}, "viewport": {"northeast": {"lat": 39.22818577989272, "lng": -82.20250782010727}, "southwest": {"lat": 39.22548612010728, "lng": -82.20520747989272}}}, "icon": "https://maps.gstatic.com/mapfiles/place_api/icons/v1/png_71/generic_business-71.png", "icon_background_color": "#7B9EB0", "icon_mask_base_uri": "https://maps.gstatic.com/mapfiles/place_api/icons/v2/generic_pinlet", "name": "J&K Contracting", "opening_hours": {"open_now": false}, "photos": [{"height": 619, "html_attributions": ["<a href=\"https://maps.google.com/maps/contrib/104561480601085827652\">J&amp;K Contracting</a>"], "photo_reference": "AXQCQNQKlodChDt22eqmv9Or7L1kmQwvqRULLgD6g3G4QRvysq955Ny3zCvxbf6BADjE14SDjzgz-nSFZSQ0JENbQBVA0csF5OPktQH8mhvTpnUWlgW67BUPiwWRdh1yik-NBAupAfrlzD2o7HcIci1fHwnajWRaDGxOPFpLmj0gpGY5_xNMBMGB0Jj4d8thcDeO5ZMV5yX4fknCf_JYl6axwoY6JQugtzKTJrMEnsikrwrcAgOB0N68wx8j3Tuempha1Xnv4jqPIExSjwCeD5ATW6I8ym98T64O0D6HIGKontG0J0Lktuw", "width": 1000}], "place_id": "ChIJtxyd9Pd3SIgR7ZsF5M3DTnk", "plus_code": {"compound_code": "6QGW+PG Albany, Ohio", "global_code": "86FV6QGW+PG"}, "rating": 4.6, "reference": "ChIJtxyd9Pd3SIgR7ZsF5M3DTnk", "types": ["general_contractor", "point_of_interest", "establishment"], "user_ratings_total": 27}, {"business_status": "OPERATIONAL", "formatted_address": "45 W 1st St, The Plains, OH 45780, United States", "geometry": {"location": {"lat": 39.3683758, "lng": -82.1364796}, "viewport": {"northeast": {"lat": 39.36984227989272, "lng": -82.13511977010728}, "southwest": {"lat": 39.36714262010727, "lng": -82.13781942989272}}}, "icon": "https://maps.gstatic.com/mapfiles/place_api/icons/v1/png_71/generic_business-71.png", "icon_background_color": "#7B9EB0", "icon_mask_base_uri": "https://maps.gstatic.com/mapfiles/place_api/icons/v2/generic_pinlet", "name": "Danny's United Construction", "opening_hours": {"open_now": true}, "photos": [{"height": 2190, "html_attributions": ["<a href=\"https://maps.google.com/maps/contrib/102898717955162686358\">Kim Fornasari (barbarella20722)</a>"], "photo_reference": "AXQCQNQiK8RRhHQ7GLgIqpYFty1aGlWRZ6ppVrlPw9RSkOe4MYsCI4JPJR-9soM3Gy8nZosIu4JyfDlRjjKzVPDXsguOriCxWQ4as353HifAAGzRIbeHwp0BckF-pjj8pAb5BFvi3CuDa_7QBECkEW6JkgRDYDahYTfj-xiLLSfLIf8_r2bkum4jq20OyVWBToi_tk8obGd5Gp-fmtX9ISM4zoPP0Dk7V2C1pq-Cc_gVIHesDdD0m_4blQx53Wa6RhPyxWDU_ZcHsyxhrag1ylpHqJ2o6q5BXqTXgtcaqqU4TO2LGHC9qcZgl6lTcaup_a7siWehNYs0R9pmpbiVDjKedy6HlfSP-RrtQLou8wj8MJ4xPMNSQCcUZ5hycm-pJtVP3xawWFhMJOC8J_KLYTwsYTjht14YTYNfKN3V-8rZ2UBFk8GZ29uvp7XokPwUr_PSAM7fstio9dNUyMOhYArxa55bKF8vvE1JGW8kzKyCsHpJ3o7WYwEbo50EZp6a-9SeA4fSasPbZSKVmZ9RjQ2iUYdoJIM6NK8jtXhR8ips6uIzayfmc4eQr-39YQgi84g8uC0vsmsM", "width": 3024}], "place_id": "ChIJIUSFMi7LSYgRWUEgkatfyxA", "plus_code": {"compound_code": "9V97+9C The Plains, Ohio", "global_code": "86FV9V97+9C"}, "rating": 4.7, "reference": "ChIJIUSFMi7LSYgRWUEgkatfyxA", "types": ["roofing_contractor", "point_of_interest", "establishment"], "user_ratings_total": 46}, {"business_status": "OPERATIONAL", "formatted_address": "23 S Lancaster St, Athens, OH 45701, United States", "geometry": {"location": {"lat": 39.33077, "lng": -82.1052208}, "viewport": {"northeast": {"lat": 39.33209387989272, "lng": -82.10381882010728}, "southwest": {"lat": 39.32939422010728, "lng": -82.10651847989271}}}, "icon": "https://maps.gstatic.com/mapfiles/place_api/icons/v1/png_71/generic_business-71.png", "icon_background_color": "#7B9EB0", "icon_mask_base_uri": "https://maps.gstatic.com/mapfiles/place_api/icons/v2/generic_pinlet", "name": "A-Town Builders", "photos": [{"height": 2268, "html_attributions": ["<a href=\"https://maps.google.com/maps/contrib/101164815379950549858\">A-Town Builders</a>"], "photo_reference": "AXQCQNTKIXp5kReHPp6KW-bFrve6pM1MysoOFN1HWH7zd5XCChBlbYqv2fjZHcjFXM4MpsfZMhU9T1gpHtUQDLU0_PgpwJKeytdZSWfi1kOF3ORTORbnZ8kUjQjhKSX7CgHxvjL96WCgzBaJ4gwGNbrpV6dvKwsFFawFJD88Iw4Lpc_CdW7KuMFzDJWBhOHzcIsdTunVooiRdE3OdUu-O7Ye6_51e68lHKefFjDS1wTh8bTGAjnaDHiAavi-6jSMcNPWd88Pl5kIRBaE0RrI2uxtbzY8fq3eT0184YV5XHXBGl04jRrVgK8", "width": 4032}], "place_id": "ChIJ40hxk0GI0wARlxHlylqrTxo", "plus_code": {"compound_code": "8VJV+8W Athens, Ohio", "global_code": "86FV8VJV+8W"}, "rating": 5, "reference": "ChIJ40hxk0GI0wARlxHlylqrTxo", "types": ["general_contractor", "point_of_interest", "establishment"], "user_ratings_total": 1}, {"business_status": "OPERATIONAL", "formatted_address": "1 Parkway Dr, Athens, OH 45701, United States", "geometry": {"location": {"lat": 39.2915561, "lng": -82.0880152}, "viewport": {"northeast": {"lat": 39.29290607989273, "lng": -82.08673887010727}, "southwest": {"lat": 39.29020642010729, "lng": -82.08943852989272}}}, "icon": "https://maps.gstatic.com/mapfiles/place_api/icons/v1/png_71/generic_business-71.png", "icon_background_color": "#7B9EB0", "icon_mask_base_uri": "https://maps.gstatic.com/mapfiles/place_api/icons/v2/generic_pinlet", "name": "Stoltzfus Family Construction", "place_id": "ChIJY18-zhtmSIgRnR17GvPvVOo", "plus_code": {"compound_code": "7WR6+JR Athens, Ohio", "global_code": "86FV7WR6+JR"}, "rating": 5, "reference": "ChIJY18-zhtmSIgRnR17GvPvVOo", "types": ["general_contractor", "point_of_interest", "establishment"], "user_ratings_total": 2}, {"business_status": "OPERATIONAL", "formatted_address": "9091 Harner Rd, Athens, OH 45701, United States", "geometry": {"location": {"lat": 39.2431343, "lng": -82.13014989999999}, "viewport": {"northeast": {"lat": 39.24470567989272, "lng": -82.12848177010727}, "southwest": {"lat": 39.24200602010728, "lng": -82.13118142989272}}}, "icon": "https://maps.gstatic.com/mapfiles/place_api/icons/v1/png_71/generic_business-71.png", "icon_background_color": "#7B9EB0", "icon_mask_base_uri": "https://maps.gstatic.com/mapfiles/place_api/icons/v2/generic_pinlet", "name": "Athens Excavating & Concrete", "place_id": "ChIJnXPihEp3SIgR7MIzkuqP8dw", "plus_code": {"compound_code": "6VV9+6W Athens, Ohio", "global_code": "86FV6VV9+6W"}, "rating": 4.8, "reference": "ChIJnXPihEp3SIgR7MIzkuqP8dw", "types": ["general_contractor", "point_of_interest", "establishment"], "user_ratings_total": 4}, {"business_status": "OPERATIONAL", "formatted_address": "28 Shady Ln, The Plains, OH 45780, United States", "geometry": {"location": {"lat": 39.3672338, "lng": -82.13950779999999}, "viewport": {"northeast": {"lat": 39.36858807989272, "lng": -82.13782182010728}, "southwest": {"lat": 39.36588842010728, "lng": -82.14052147989271}}}, "icon": "https://maps.gstatic.com/mapfiles/place_api/icons/v1/png_71/generic_business-71.png", "icon_background_color": "#7B9EB0", "icon_mask_base_uri": "https://maps.gstatic.com/mapfiles/place_api/icons/v2/generic_pinlet", "name": "Hoon Inc Design Builders", "opening_hours": {"open_now": false}, "place_id": "ChIJwTntHYlzSIgRYxN718EA7pQ", "plus_code": {"compound_code": "9V86+V5 The Plains, Ohio", "global_code": "86FV9V86+V5"}, "rating": 5, "reference": "ChIJwTntHYlzSIgRYxN718EA7pQ", "types": ["general_contractor", "point_of_interest", "establishment"], "user_ratings_total": 5}, {"business_status": "OPERATIONAL", "formatted_address": "4455 Evergreen Drive, Albany, OH 45710, United States", "geometry": {"location": {"lat": 39.23214249999999, "lng": -82.20715}, "viewport": {"northeast": {"lat": 39.23356032989272, "lng": -82.20579367010728}, "southwest": {"lat": 39.23086067010728, "lng": -82.20849332989272}}}, "icon": "https://maps.gstatic.com/mapfiles/place_api/icons/v1/png_71/generic_business-71.png", "icon_background_color": "#7B9EB0", "icon_mask_base_uri": "https://maps.gstatic.com/mapfiles/place_api/icons/v2/generic_pinlet", "name": "Ron White Builders LLC", "opening_hours": {"open_now": true}, "photos": [{"height": 2268, "html_attributions": ["<a href=\"https://maps.google.com/maps/contrib/108668476003850758048\">Ron White Builders LLC</a>"], "photo_reference": "AXQCQNRdkoyGO1KW9ELM02Pw03q17Pq1l3wFZrk6nOdwrlHz0C802DXtvXALvcznB2uE0vJo0o4LMV38ZEFC4XY-JFK2qkrTlHWMFLON9LYqnyMg6kyiSY4nKE9DPHZfKXyDFQSAhXmylj2cNQ5o8YWLglY8HI0OZzvjfk21NvwsRCAU69F0cqzzxYYeUWMiiHruxRE7iupV_8PY6oDyuG3V4duW1gY_1UuQ6sUl41DerdxqxqIqDh6DpybC18s40jR3dsGMd3_exzu6_leDwu9jRrcSW-D9UAHd0p-C_TUwZn8ITU8Ji4c", "width": 4032}], "place_id": "ChIJNw05lQrYR4gRGDD4brNeWXU", "plus_code": {"compound_code": "6QJV+V4 Albany, Ohio", "global_code": "86FV6QJV+V4"}, "rating": 5, "reference": "ChIJNw05lQrYR4gRGDD4brNeWXU", "types": ["general_contractor", "point_of_interest", "establishment"], "user_ratings_total": 1}, {"business_status": "OPERATIONAL", "formatted_address": "7474 Radford Rd, Athens, OH 45701, United States", "geometry": {"location": {"lat": 39.3086218, "lng": -82.15215669999999}, "viewport": {"northeast": {"lat": 39.31001927989274, "lng": -82.15080197010728}, "southwest": {"lat": 39.30731962010729, "lng": -82.15350162989273}}}, "icon": "https://maps.gstatic.com/mapfiles/place_api/icons/v1/png_71/generic_business-71.png", "icon_background_color": "#7B9EB0", "icon_mask_base_uri": "https://maps.gstatic.com/mapfiles/place_api/icons/v2/generic_pinlet", "name": "Cetide LLC", "opening_hours": {"open_now": false}, "photos": [{"height": 1536, "html_attributions": ["<a href=\"https://maps.google.com/maps/contrib/100726009121154083089\">Cetide LLC</a>"], "photo_reference": "AXQCQNQbATDNP1kYsbgXO5lHcRDWuk-vAuOXvbYQAqlxkfU7ulBrCfDHH_z5oqOutfw4kaUl4nHZn85VaUk0o3VmKMlm85A042ftpSpFz4qaRvFnZesmfqIH7NiFp0AN8oOeorhvVqzING2C6psCArtMAvGxEtND0ZJldoNzqLKTjkGHN9vzui0KeZzypGlRlsTCnKeul1l0GcoXYSBSEQSMUMY2P5TkSWbBC32xsJHSarFE4XXy6kx8u_yGempZ1FRlbt3OJXqcxj1-BenNRzd7jk4MqSHZ29RxjxS4_LCJikUq8VhCxqw", "width": 2048}], "place_id": "ChIJaSJvFCF0SIgRPGGELxMxyEc", "plus_code": {"compound_code": "8R5X+C4 Athens, Ohio", "global_code": "86FV8R5X+C4"}, "rating": 5, "reference": "ChIJaSJvFCF0SIgRPGGELxMxyEc", "types": ["hardware_store", "general_contractor", "home_goods_store", "store", "point_of_interest", "establishment"], "user_ratings_total": 3}, {"business_status": "OPERATIONAL", "formatted_address": "6648 Hudnell Rd, Athens, OH 45701, United States", "geometry": {"location": {"lat": 39.3162928, "lng": -82.16915139999999}, "viewport": {"northeast": {"lat": 39.31749667989272, "lng": -82.16766472010728}, "southwest": {"lat": 39.31479702010728, "lng": -82.17036437989272}}}, "icon": "https://maps.gstatic.com/mapfiles/place_api/icons/v1/png_71/generic_business-71.png", "icon_background_color": "#7B9EB0", "icon_mask_base_uri": "https://maps.gstatic.com/mapfiles/place_api/icons/v2/generic_pinlet", "name": "TAM Construction", "opening_hours": {}, "place_id": "ChIJpzqmNi10SIgRJgyyb75qNlU", "plus_code": {"compound_code": "8R8J+G8 Athens, Ohio", "global_code": "86FV8R8J+G8"}, "rating": 2.3, "reference": "ChIJpzqmNi10SIgRJgyyb75qNlU", "types": ["general_contractor", "point_of_interest", "establishment"], "user_ratings_total": 3}, {"business_status": "OPERATIONAL", "formatted_address": "5315 Hebbardsville Rd, Athens, OH 45701, United States", "geometry": {"location": {"lat": 39.2771906, "lng": -82.1540423}, "viewport": {"northeast": {"lat": 39.27858502989272, "lng": -82.15268222010728}, "southwest": {"lat": 39.27588537010728, "lng": -82.15538187989273}}}, "icon": "https://maps.gstatic.com/mapfiles/place_api/icons/v1/png_71/generic_business-71.png", "icon_background_color": "#7B9EB0", "icon_mask_base_uri": "https://maps.gstatic.com/mapfiles/place_api/icons/v2/generic_pinlet", "name": "David White Services", "opening_hours": {"open_now": false}, "photos": [{"height": 4032, "html_attributions": ["<a href=\"https://maps.google.com/maps/contrib/106626932679697278980\">David White Services</a>"], "photo_reference": "AXQCQNTW-8IKpy_k2TQNGQM4Il0gbllubrkwIpl2BErgpmrUvlHh8vhqSz9aDwj1s4IMw7_Zn_BMnrqPtr0GBU2Yzy7J3veCmYoLEE_GF2QEShuk83T4jfWnkR0a_TlR4Tbzl2qPDXEWLnj-1XyBEd_QTJxa0X7nIqOnoDIK-Ugw7EiCf3coAkE-b6ZEEwbTIeIKt38e9uAAo8VFoxfPMhMrkeNpFjjsFSb9dr0yxyp-nOxCR3xVXSqVP66GXMJAu9d46rwsi0dulx0GC2eA-__MxQAXhGTIwLiA2Y-P7nErVWbWdgSZeHM", "width": 3024}], "place_id": "ChIJIYd6O-l2SIgRiYoSzxwvaLs", "plus_code": {"compound_code": "7RGW+V9 Athens, Ohio", "global_code": "86FV7RGW+V9"}, "rating": 4.7, "reference": "ChIJIYd6O-l2SIgRiYoSzxwvaLs", "types": ["electrician", "general_contractor", "home_goods_store", "store", "point_of_interest", "establishment"], "user_ratings_total": 206}, {"business_status": "OPERATIONAL", "formatted_address": "13191 Waterford Rd, Waterford, OH 45786, United States", "geometry": {"location": {"lat": 39.518992, "lng": -81.6023}, "viewport": {"northeast": {"lat": 39.52035667989272, "lng": -81.60090757010728}, "southwest": {"lat": 39.51765702010728, "lng": -81.60360722989272}}}, "icon": "https://maps.gstatic.com/mapfiles/place_api/icons/v1/png_71/generic_business-71.png", "icon_background_color": "#7B9EB0", "icon_mask_base_uri": "https://maps.gstatic.com/mapfiles/place_api/icons/v2/generic_pinlet", "name": "Kelly Lang Contractors, Inc.", "opening_hours": {"open_now": true}, "photos": [{"height": 720, "html_attributions": ["<a href=\"https://maps.google.com/maps/contrib/111828621558940639340\">Kelly Lang Contractors</a>"], "photo_reference": "AXQCQNTSTpYqwe4_UK2lQBCP4jE2vifnQWhNr6XsDarn-3-nGW8NmZlicJ4HOOOhXvIiLHhN2E0Uf01IVkuzpULmne3ZESCvzO0h3Eu95SLGwTOOje_YPNKA8ujUhUAkACrpTBJx9sYU0K9lRigOohjLCa0CvQLuHZC9PIA4awBrDaRj7VY750yPgCqMpev4_LlePdFCIFH7weF3u9TV7GFq6sxA7A4kJMomDsAHOMwuS7w15537glN5YNI25ASHCsLbefTrL0hEblc3Sgx89mwKu4EtgLczr32-IUeF6UqXU5spAFXbk3c", "width": 960}], "place_id": "ChIJg4IgwFEuSIgREwob0dPqso0", "plus_code": {"compound_code": "G99X+H3 Waterford, Ohio", "global_code": "86FWG99X+H3"}, "rating": 4.8, "reference": "ChIJg4IgwFEuSIgREwob0dPqso0", "types": ["general_contractor", "point_of_interest", "establishment"], "user_ratings_total": 10}, {"business_status": "OPERATIONAL", "formatted_address": "9449 Clover Ln, Athens, OH 45701, United States", "geometry": {"location": {"lat": 39.29359729999999, "lng": -82.11903149999999}, "viewport": {"northeast": {"lat": 39.29498212989272, "lng": -82.11772852010728}, "southwest": {"lat": 39.29228247010727, "lng": -82.12042817989273}}}, "icon": "https://maps.gstatic.com/mapfiles/place_api/icons/v1/png_71/shopping-71.png", "icon_background_color": "#4B96F3", "icon_mask_base_uri": "https://maps.gstatic.com/mapfiles/place_api/icons/v2/shopping_pinlet", "name": "Athens Kitchen & Bath", "opening_hours": {"open_now": false}, "photos": [{"height": 1602, "html_attributions": ["<a href=\"https://maps.google.com/maps/contrib/101238787527176783099\">Athens Kitchen &amp; Bath</a>"], "photo_reference": "AXQCQNSOHWLTFM83AtkY2IMf2u7DgotcNBg_4p22ABXOJLL0lvuMQ2seuJ83rfJC4VZwn2xM8T923pSAtJUodQpw8Wr77oIeCCFXNIIdK3nYDeiHpWMe6iKbVmvI4i14MXr8wwdt2_mhLEfafXoj7UUA_PLfhUksZzpoH6TtvfcIzKAbPIx9aDXfJsE85IcIjJ3BiSf6KnO6FmfE5lOKJSnsvrU76WHske9dnQRkovLaQAFgLJNySG1627JArNlwjno4POJ5ETyIjg_ZpjsBRGPjFsiAIA5FbtKL37-ZCkQRBIuuUMWC8Vc", "width": 2400}], "place_id": "ChIJJYyRSFBxSIgR1MdCmYJza1g", "plus_code": {"compound_code": "7VVJ+C9 Athens, Ohio", "global_code": "86FV7VVJ+C9"}, "rating": 4.4, "reference": "ChIJJYyRSFBxSIgR1MdCmYJza1g", "types": ["general_contractor", "furniture_store", "home_goods_store", "store", "point_of_interest", "establishment"], "user_ratings_total": 14}, {"business_status": "OPERATIONAL", "formatted_address": "6787 Baker Rd, Athens, OH 45701, United States", "geometry": {"location": {"lat": 39.3005755, "lng": -82.15988829999999}, "viewport": {"northeast": {"lat": 39.30183487989272, "lng": -82.15839437010727}, "southwest": {"lat": 39.29913522010728, "lng": -82.16109402989271}}}, "icon": "https://maps.gstatic.com/mapfiles/place_api/icons/v1/png_71/generic_business-71.png", "icon_background_color": "#7B9EB0", "icon_mask_base_uri": "https://maps.gstatic.com/mapfiles/place_api/icons/v2/generic_pinlet", "name": "Latta Earthworks Llc", "place_id": "ChIJ4c3Lrpx2SIgR8hkGPsyG2yY", "plus_code": {"compound_code": "8R2R+62 Athens, Ohio", "global_code": "86FV8R2R+62"}, "rating": 5, "reference": "ChIJ4c3Lrpx2SIgR8hkGPsyG2yY", "types": ["general_contractor", "point_of_interest", "establishment"], "user_ratings_total": 1}, {"business_status": "OPERATIONAL", "formatted_address": "8 N Court St, Athens, OH 45701, United States", "geometry": {"location": {"lat": 39.3295627, "lng": -82.1009943}, "viewport": {"northeast": {"lat": 39.33093007989272, "lng": -82.09972657010726}, "southwest": {"lat": 39.32823042010728, "lng": -82.10242622989271}}}, "icon": "https://maps.gstatic.com/mapfiles/place_api/icons/v1/png_71/generic_business-71.png", "icon_background_color": "#7B9EB0", "icon_mask_base_uri": "https://maps.gstatic.com/mapfiles/place_api/icons/v2/generic_pinlet", "name": "Rainstoppers Roofing", "opening_hours": {"open_now": true}, "photos": [{"height": 1920, "html_attributions": ["<a href=\"https://maps.google.com/maps/contrib/104452398004641682140\">Rainstoppers Roofing</a>"], "photo_reference": "AXQCQNRIHJkI1TEFWAp-khnxF8038qBhSZbGgvAhM9vw0wCIO_5gVvQWLBC2LWO4mCqsx8xbA0qjurZjEf_Qk4SbBSgnq5BFeZWLjejI6wOKPhQen8NM_IQVsii1UoXZm7WzvTc36T1D-KFR2mW9074xInQz8pBy7kv6GMMEesYrpY2Q3oU96r5SwTH4kVR-TnLRxbPVus_1lMis6O7HKHcchbb5gTPhUb-eht9BHEj8iBlDoNq17aU_9P6DpBk31zwxxWemhc--kQcW_sypGy4CeNhYi0HiSP1I2O9helOar5gRFiS58cU", "width": 2880}], "place_id": "ChIJbb9vVo5zSIgRjfQwjvpWQik", "plus_code": {"compound_code": "8VHX+RJ Athens, Ohio", "global_code": "86FV8VHX+RJ"}, "rating": 4.9, "reference": "ChIJbb9vVo5zSIgRjfQwjvpWQik", "types": ["roofing_contractor", "point_of_interest", "establishment"], "user_ratings_total": 41}, {"business_status": "OPERATIONAL", "formatted_address": "14300 Rainbow Lake Rd, Shade, OH 45776, United States", "geometry": {"location": {"lat": 39.1952968, "lng": -82.0333795}, "viewport": {"northeast": {"lat": 39.19603435000001, "lng": -82.03249272010727}, "southwest": {"lat": 39.19308415, "lng": -82.0351923798927}}}, "icon": "https://maps.gstatic.com/mapfiles/place_api/icons/v1/png_71/generic_business-71.png", "icon_background_color": "#7B9EB0", "icon_mask_base_uri": "https://maps.gstatic.com/mapfiles/place_api/icons/v2/generic_pinlet", "name": "ATOWN Roofing", "opening_hours": {"open_now": true}, "photos": [{"height": 1152, "html_attributions": ["<a href=\"https://maps.google.com/maps/contrib/111529177309337211909\">A Google User</a>"], "photo_reference": "AXQCQNQnFs2Ji2WWHULBHkrYpmXvF1u-a89zHTXVxt14jc04uEzESU5fvwCa8DecuiKnFM3SsoeVaAxMJ99EpuuBGdgF-ElVfF5sYKgkLyQpJSE2Jden7kNJMl2NQRU6MZ1-2CC_5b9UNn2RCAWCdmLXVGH3QYiEITgQtdo7noOKq0ybmZIYReoCwjQwU-qnQOKIgNWv3B5UoC7lRlwNbuplpDpGCY6tKYYQiE_HufxhJy_42o7KilzMzOElCywhSyJbkZrs1tlYIcF_U3Doajh8Es5XE7PkF6iwSQ66UcqOulsp1oi7-yM", "width": 2048}], "place_id": "ChIJhz-46_2zNKsR7_wmpwp7nTY", "plus_code": {"compound_code": "5XW8+4J Shade, Ohio", "global_code": "86FV5XW8+4J"}, "rating": 4.6, "reference": "ChIJhz-46_2zNKsR7_wmpwp7nTY", "types": ["roofing_contractor", "point_of_interest", "establishment"], "user_ratings_total": 31}, {"business_status": "OPERATIONAL", "formatted_address": "6246 Radford Rd, Athens, OH 45701, United States", "geometry": {"location": {"lat": 39.290746, "lng": -82.15238099999999}, "viewport": {"northeast": {"lat": 39.29210642989271, "lng": -82.15121882010727}, "southwest": {"lat": 39.28940677010727, "lng": -82.15391847989271}}}, "icon": "https://maps.gstatic.com/mapfiles/place_api/icons/v1/png_71/generic_business-71.png", "icon_background_color": "#7B9EB0", "icon_mask_base_uri": "https://maps.gstatic.com/mapfiles/place_api/icons/v2/generic_pinlet", "name": "Dan Inman Electric Inc", "opening_hours": {"open_now": true}, "place_id": "ChIJec3s9ZZ2SIgRnGNZ9MHNNy4", "plus_code": {"compound_code": "7RRX+72 Athens, Ohio", "global_code": "86FV7RRX+72"}, "rating": 4.5, "reference": "ChIJec3s9ZZ2SIgRnGNZ9MHNNy4", "types": ["electrician", "point_of_interest", "establishment"], "user_ratings_total": 12}, {"business_status": "OPERATIONAL", "formatted_address": "93 Columbus Rd, Athens, OH 45701, United States", "geometry": {"location": {"lat": 39.3483594, "lng": -82.09515119999999}, "viewport": {"northeast": {"lat": 39.34968512989273, "lng": -82.09395612010726}, "southwest": {"lat": 39.34698547010728, "lng": -82.0966557798927}}}, "icon": "https://maps.gstatic.com/mapfiles/place_api/icons/v1/png_71/shopping-71.png", "icon_background_color": "#4B96F3", "icon_mask_base_uri": "https://maps.gstatic.com/mapfiles/place_api/icons/v2/shopping_pinlet", "name": "Kitchen Creations & Renovations", "opening_hours": {"open_now": true}, "photos": [{"height": 608, "html_attributions": ["<a href=\"https://maps.google.com/maps/contrib/101540461037362823901\">Kitchen Creations &amp; Renovations Athens</a>"], "photo_reference": "AXQCQNT2LCDabB0-jfgU6YJ4Eq5WrHdvWV4l9rfsDJIHVmQlMXmJS6ISvDyeZCiMU9eCJ7g0qoVK8aeoYdrffNIXXYkYZ-LFEZ-mj1VefXauRHzsLcVu1lh4bjcginQ_CLfrcr4mDI0yupGuXGbPqsDtNO0aLdnwtPNvj4Ez53JzD1NSNyVo62OY-Og5fx3xhO0p8IffT4GLCf6EDtu4sCnuElLzzE0_TTu7G8kPnVrLTbpOliW1dkDzS6tL-T4D28Hz6tlUQZl-PabwcqabUcz_g8evit3geFy6Xgk7oeIWNf9UNAohAis", "width": 1080}], "place_id": "ChIJWSiP5YhzSIgRA2V9cqFTD0w", "plus_code": {"compound_code": "8WX3+8W Athens, Ohio", "global_code": "86FV8WX3+8W"}, "rating": 5, "reference": "ChIJWSiP5YhzSIgRA2V9cqFTD0w", "types": ["general_contractor", "furniture_store", "home_goods_store", "store", "point_of_interest", "establishment"], "user_ratings_total": 6}, {"business_status": "OPERATIONAL", "formatted_address": "403 Watertown Rd, Waterford, OH 45786, United States", "geometry": {"location": {"lat": 39.4684888, "lng": -81.62876179999999}, "viewport": {"northeast": {"lat": 39.46980092989272, "lng": -81.62746012010727}, "southwest": {"lat": 39.46710127010728, "lng": -81.63015977989272}}}, "icon": "https://maps.gstatic.com/mapfiles/place_api/icons/v1/png_71/generic_business-71.png", "icon_background_color": "#7B9EB0", "icon_mask_base_uri": "https://maps.gstatic.com/mapfiles/place_api/icons/v2/generic_pinlet", "name": "Wolf Creek Contracting", "opening_hours": {"open_now": true}, "photos": [{"height": 450, "html_attributions": ["<a href=\"https://maps.google.com/maps/contrib/102456454090274133389\">Wolf Creek Contracting</a>"], "photo_reference": "AXQCQNQW08Uz9DNDNr5CRClwvawy7vRcgB_vVXBR8sOhMe01no39__rXLHb0Jx_TKRGpg6_XlhhP0bigoCfm57D2fBfDdI3NsGdLNqV-kWuNQK9a528uSm7KTnozayLDrjHZ95Rdu-TEtlRauAZS94lJowbS7t1Ct8guzIONt6M_fGlWDUVdRST3yXAu7uqFUEpWhGmc5I98EQOo79ciDdCZmFGUO9Ey4NF-AaSSI2sponNxObyniHrkK-l-6LtpWAYO-pOum9EXwkS4xFepKZ6pUETGnjZBQi2zoHSwduNkDJxkw3lghzE", "width": 650}], "place_id": "ChIJz_pnegwxSIgRCBh_0LihjAI", "plus_code": {"compound_code": "F99C+9F Waterford, Ohio", "global_code": "86FWF99C+9F"}, "rating": 4, "reference": "ChIJz_pnegwxSIgRCBh_0LihjAI", "types": ["general_contractor", "point_of_interest", "establishment"], "user_ratings_total": 4}, {"business_status": "OPERATIONAL", "formatted_address": "5265 Hebbardsville Rd, Athens, OH 45701, United States", "geometry": {"location": {"lat": 39.2769062, "lng": -82.15443599999999}, "viewport": {"northeast": {"lat": 39.27822682989272, "lng": -82.15299722010727}, "southwest": {"lat": 39.27552717010727, "lng": -82.15569687989272}}}, "icon": "https://maps.gstatic.com/mapfiles/place_api/icons/v1/png_71/generic_business-71.png", "icon_background_color": "#7B9EB0", "icon_mask_base_uri": "https://maps.gstatic.com/mapfiles/place_api/icons/v2/generic_pinlet", "name": "KAL Electric Inc", "opening_hours": {"open_now": true}, "photos": [{"height": 2832, "html_attributions": ["<a href=\"https://maps.google.com/maps/contrib/114995682708830156987\">KAL Electric Inc</a>"], "photo_reference": "AXQCQNSJJPByRxCl6sFyxNwYyAWMxgg80qx37T6jsA4LLrQXAG2aAqOKsiWID0UxB0qdDMVoH4d2TrY22JGt_5dYLwtJluHx2tuilS5yYRBSUB5e2hqdUkuAra3yZTevVGTxi2nEWQp0jkbK88dlDFagG_NORsyj5caebPKbY8yU0rwQkcuyJAUFl1OyegSVvlyVOTbcyi1hdFaCpCLdq-qsaJiR5iOkk1DuQYnCAGxHZPlqNOuLPxSzNcq2kE0_MfDdTyVus1JLMJ2MoUVtQ6-xQiCDzC1XqZMZyVArA0lA92dh34j-kgY", "width": 4256}], "place_id": "ChIJKXQHL-l2SIgR_jcwi_Vz27M", "plus_code": {"compound_code": "7RGW+Q6 Athens, Ohio", "global_code": "86FV7RGW+Q6"}, "rating": 5, "reference": "ChIJKXQHL-l2SIgR_jcwi_Vz27M", "types": ["electrician", "point_of_interest", "establishment"], "user_ratings_total": 10}]