[{"business_status": "OPERATIONAL", "formatted_address": "849 S 3 Notch St, Andalusia, AL 36420, United States", "geometry": {"location": {"lat": 31.2961331, "lng": -86.4947558}, "viewport": {"northeast": {"lat": 31.29755157989272, "lng": -86.49366067010727}, "southwest": {"lat": 31.29485192010728, "lng": -86.49636032989271}}}, "icon": "https://maps.gstatic.com/mapfiles/place_api/icons/v1/png_71/hospital-71.png", "icon_background_color": "#F88181", "icon_mask_base_uri": "https://maps.gstatic.com/mapfiles/place_api/icons/v2/hospital-H_pinlet", "name": "Andalusia Health", "opening_hours": {"open_now": true}, "photos": [{"height": 1173, "html_attributions": ["<a href=\"https://maps.google.com/maps/contrib/110143473801720492575\">Andalusia Health</a>"], "photo_reference": "AXQCQNQNkjr-7L-OykD2a3X_4g2qBTGkwE-sXH4otOpiPPD33LvQn9mVPqdbQftSXKi-RsFepUWRr4svELaStqdUkR92NxznnBuxjbmIbqRWsHWrb2w229cf_03IW7duKwwDGl5B4cZOFOxU_eidpvsdrJqPW3O63xl-D5TraP5g-t6abNySInXm1nyDj6ig2M16nIG4-wi--s4IDJwTGQieRoU86_qo8r5jKOJBzRO-A-5iLLqt-fi5hWVSWauAo6pEYzqR2-VV3Hi53J3sHyM0xodxBfAVMIyxfpMhOLIum-D0W7tNdTw", "width": 2048}], "place_id": "ChIJAc9PCQbskYgRUZKggBiPfSI", "plus_code": {"compound_code": "7GW4+F3 Andalusia, Alabama", "global_code": "863M7GW4+F3"}, "rating": 3.6, "reference": "ChIJAc9PCQbskYgRUZKggBiPfSI", "types": ["hospital", "health", "point_of_interest", "establishment"], "user_ratings_total": 262}, {"business_status": "OPERATIONAL", "formatted_address": "820 S 3 Notch St, Andalusia, AL 36420, United States", "geometry": {"location": {"lat": 31.29846929999999, "lng": -86.49495189999999}, "viewport": {"northeast": {"lat": 31.29964957989272, "lng": -86.49344632010727}, "southwest": {"lat": 31.29694992010728, "lng": -86.49614597989272}}}, "icon": "https://maps.gstatic.com/mapfiles/place_api/icons/v1/png_71/hospital-71.png", "icon_background_color": "#F88181", "icon_mask_base_uri": "https://maps.gstatic.com/mapfiles/place_api/icons/v2/hospital-H_pinlet", "name": "Andalusia General Surgeons", "opening_hours": {"open_now": true}, "place_id": "ChIJVf1j-rrtkYgR1x0f9XQ0A9c", "plus_code": {"compound_code": "7GX4+92 Andalusia, Alabama", "global_code": "863M7GX4+92"}, "reference": "ChIJVf1j-rrtkYgR1x0f9XQ0A9c", "types": ["hospital", "health", "point_of_interest", "establishment"]}, {"business_status": "OPERATIONAL", "formatted_address": "301 Medical Park Dr, Andalusia, AL 36420, United States", "geometry": {"location": {"lat": 31.2954433, "lng": -86.4920727}, "viewport": {"northeast": {"lat": 31.29679207989271, "lng": -86.49077157010727}, "southwest": {"lat": 31.29409242010727, "lng": -86.49347122989272}}}, "icon": "https://maps.gstatic.com/mapfiles/place_api/icons/v1/png_71/generic_business-71.png", "icon_background_color": "#7B9EB0", "icon_mask_base_uri": "https://maps.gstatic.com/mapfiles/place_api/icons/v2/generic_pinlet", "name": "Andalusia Medical Center", "opening_hours": {"open_now": true}, "photos": [{"height": 2160, "html_attributions": ["<a href=\"https://maps.google.com/maps/contrib/101181484802000773058\">Lewis Davis</a>"], "photo_reference": "AXQCQNQM32tPAGJO2hHd5oDCHU8E7jNObQebCl3R8zAxv40eILXEM1yc1XtQ5VD3ajODEVV2OH-yJ2owva_0dLSavmjn53tdOL1atjWzu1vUY1WuPkVsGiMRL4ubOz4ldb4i09c-ny1KrmNDqeP7KWYmk4yunzh0yOTJy3TSdackXo7C6Rw76U7GBY92ufTrmFRv_Ng3j9mW4Z5208y1AwlLjwyA0MFyx-H_GO8TfWk0WH7_7glQP07Pyqipd8OT1yvWmNhnHM2Q5f4j8pu1aCnxGDAUr4TEjV3m5gIEt69RxvWAutxu5hb6u1zNw5qThx_x8WTxGOVDTSGTf-az2msh7X6vQgK-xESIDulGWyLzFqQlZobjT5p9Mzpg3VNy6TkNabCWV80KbW0Q9Cq9i7DedTxubur2lTpSiZT7gAhz1822VFOs6nhjW4ZoDvs65T4b3OJLXkLU1bRp98jrUA48cHiOWUgV-ZBSK8LEEJnJUiqFg3ervSdb7oCvR7c1rc2yvSzhrtufk_K5_xCWC4H1dytqonnmS7_555Q9aoml3BZXspTM23RuG_awsEW-YQwFksos1AEK", "width": 3840}], "place_id": "ChIJjSJUgAXskYgRSbeY40K_F_4", "plus_code": {"compound_code": "7GW5+55 Andalusia, Alabama", "global_code": "863M7GW5+55"}, "rating": 3, "reference": "ChIJjSJUgAXskYgRSbeY40K_F_4", "types": ["doctor", "health", "point_of_interest", "establishment"], "user_ratings_total": 4}, {"business_status": "OPERATIONAL", "formatted_address": "301 Medical Ave. C, Andalusia, AL 36420, United States", "geometry": {"location": {"lat": 31.2952066, "lng": -86.49220729999999}, "viewport": {"northeast": {"lat": 31.29652492989272, "lng": -86.49085727010727}, "southwest": {"lat": 31.29382527010727, "lng": -86.49355692989272}}}, "icon": "https://maps.gstatic.com/mapfiles/place_api/icons/v1/png_71/hospital-71.png", "icon_background_color": "#F88181", "icon_mask_base_uri": "https://maps.gstatic.com/mapfiles/place_api/icons/v2/hospital-H_pinlet", "name": "Andalusia Orthopedics and Sports Medicine", "opening_hours": {"open_now": true}, "photos": [{"height": 2400, "html_attributions": ["<a href=\"https://maps.google.com/maps/contrib/110159852578808659121\">A Google User</a>"], "photo_reference": "AXQCQNQAaKTpRH89n2nIUDkJoZjpwxHku1Z-219P17D1M8o3IUv_h2y6Qz3xwqAbGVjALx0jCQDi-aJvwxiSarqn4ovpQ-XQYOOIZu2eErAXvJ0696Cy6TQGh7H0nNLCxKfLM9YEFk-d4uLBQ9JlgAfXxMSdhFNwCOZ4j39eHD0HNcn2aYtVtiei18sazKiuEwTWhglS7LS8yfRairzNwYRUvVjODFbfzk_tYun0DyoMPa4Q2b_vuK3qx-Jh5rDQ_ANOGySjsVXCN0Zwaer5Mvj41d0FuFevEB7On8aGCmH0MFwERo8mA-g", "width": 3600}], "place_id": "ChIJ3Rp3dwbskYgRCOJrd2WVQF0", "plus_code": {"compound_code": "7GW5+34 Andalusia, Alabama", "global_code": "863M7GW5+34"}, "rating": 4.1, "reference": "ChIJ3Rp3dwbskYgRCOJrd2WVQF0", "types": ["hospital", "health", "point_of_interest", "establishment"], "user_ratings_total": 7}, {"business_status": "OPERATIONAL", "formatted_address": "847 Western Bypass, Andalusia, AL 36420, United States", "geometry": {"location": {"lat": 31.2981568, "lng": -86.49925119999999}, "viewport": {"northeast": {"lat": 31.29953517989272, "lng": -86.49804432010727}, "southwest": {"lat": 31.29683552010728, "lng": -86.50074397989272}}}, "icon": "https://maps.gstatic.com/mapfiles/place_api/icons/v1/png_71/generic_business-71.png", "icon_background_color": "#7B9EB0", "icon_mask_base_uri": "https://maps.gstatic.com/mapfiles/place_api/icons/v2/generic_pinlet", "name": "Andalusia Family Healthcare", "opening_hours": {"open_now": true}, "photos": [{"height": 396, "html_attributions": ["<a href=\"https://maps.google.com/maps/contrib/115556435391682572358\">A Google User</a>"], "photo_reference": "AXQCQNQRVZXtLgz1HA1g7tLNT9CBp175GE0OsjM25VDU_hGjaLI2_t1INvWIAB0IJnjucESOZyEcsTTdIaSxzsaS0HQUxg0OleWEvzasqeiJPiuUqVxqVnEqmLFpZ8fxZjcyQwCu74Bkl-kzVvSta5uCB_VD8A1qXIW8HphdybN6J9piTuGVLDsNZ8xZkpdBxeKm0HnShPB6sHpNM0VLwKhzHTtrzyBxjJMTlQvM161XnvLY3wnzhOlR6HGEBTB1gsziWAOlYy9mjkwpFFoe9F2RSoV_nqUmcYn3CVAgC-HcdDBbDYjAV0I", "width": 704}], "place_id": "ChIJ3Rp3dwbskYgR4Zt_Xq4fWhg", "plus_code": {"compound_code": "7GX2+77 Andalusia, Alabama", "global_code": "863M7GX2+77"}, "rating": 4.8, "reference": "ChIJ3Rp3dwbskYgR4Zt_Xq4fWhg", "types": ["doctor", "health", "point_of_interest", "establishment"], "user_ratings_total": 32}, {"business_status": "OPERATIONAL", "formatted_address": "847 Western Bypass, Andalusia, AL 36420, United States", "geometry": {"location": {"lat": 31.2981568, "lng": -86.49925119999999}, "viewport": {"northeast": {"lat": 31.29953517989272, "lng": -86.49804432010727}, "southwest": {"lat": 31.29683552010728, "lng": -86.50074397989272}}}, "icon": "https://maps.gstatic.com/mapfiles/place_api/icons/v1/png_71/generic_business-71.png", "icon_background_color": "#7B9EB0", "icon_mask_base_uri": "https://maps.gstatic.com/mapfiles/place_api/icons/v2/generic_pinlet", "name": "Andalusia Walk-In Clinic", "opening_hours": {"open_now": true}, "photos": [{"height": 540, "html_attributions": ["<a href=\"https://maps.google.com/maps/contrib/107711424560134132239\">Ron \u201cYogi\u201d Terry</a>"], "photo_reference": "AXQCQNTjFYjecDwBf6UvGq6ZQR1GL9FjMsd0kOsvfl1phK5jzaQmndopxOCKhSZZnW4nY-wtpSI2-cnMXgl3wCHnQBnOX6M9eoHJ7g9eSw5zxvv5jbD8j2K8cf8oA83WG2PsuUdYZyCI34uiY3PUx9azAvMYhkCe7QOrq0t4FjcVGzAVBsbOn5W4W6bIY5OdG9Q_yKAl97g5VW8S0MMjxM_NHAMhnYcYyIMf1SGW9KAjyRIgF2AwOFkWY_rIurKZKqbBZSvMpqyIXjSd9pk9_0FARg-QERZ_NQuMtP-Wcwk2al6eV_UqOvAVelPqbUZfNtMYYNsuibBDDHAuyCasIoNgsH-ZAiwmeIdnyhIqXsLNnlaEqh0qFPv2oRUofgIkvhGQfe34JFqNPMefx8f-pSqPT_RBeq9qbJ6AQY93QtL-_uBLiFpwYeKMhjqzbI540em9TfY2nscycmh7DDTOkjZSsvhMAFAcHTwWNtEnacVRLJAwKfAAYWRK5L1JA_fzVNzawlgkkxM1ZmiiyLObZeIM7Fp4qQvFiOqoCQrG048Ih9v9PHUYo-aaJPSstoVZ9YRWxgDeE8jM", "width": 960}], "place_id": "ChIJgc3rhgXskYgR60XChP2CLkY", "plus_code": {"compound_code": "7GX2+77 Andalusia, Alabama", "global_code": "863M7GX2+77"}, "rating": 3.3, "reference": "ChIJgc3rhgXskYgR60XChP2CLkY", "types": ["health", "point_of_interest", "establishment"], "user_ratings_total": 45}, {"business_status": "OPERATIONAL", "formatted_address": "835 S 3 Notch St, Andalusia, AL 36420, United States", "geometry": {"location": {"lat": 31.29773309999999, "lng": -86.4945729}, "viewport": {"northeast": {"lat": 31.29921977989272, "lng": -86.49334877010727}, "southwest": {"lat": 31.29652012010727, "lng": -86.49604842989271}}}, "icon": "https://maps.gstatic.com/mapfiles/place_api/icons/v1/png_71/generic_business-71.png", "icon_background_color": "#7B9EB0", "icon_mask_base_uri": "https://maps.gstatic.com/mapfiles/place_api/icons/v2/generic_pinlet", "name": "Three Notch Medical Center", "opening_hours": {"open_now": true}, "photos": [{"height": 1152, "html_attributions": ["<a href=\"https://maps.google.com/maps/contrib/107711424560134132239\">Ron Terry</a>"], "photo_reference": "AXQCQNTiLcD7PWjr8OdDROD9d84GKuhLBicB9IpjNE0sPYpJIV9jhL4VZGn6hBVxf1GPgxPGMQXB6MaDv5wzvaZmqhbUp3ehKjz63gJ7CY7LXjcOolviYqc3_RjtjATlQ-LgVqIRRHz9k_uljANmDHqAOU7rUk98nZAlBePP3IBiND7Cm4T6j-99wFY-_u0oAxaqwob5X8kz7t8XFpuze2skUuufq_KN_7gm7dKwZxZU2ZNkh43xGDGpXeYxI1IObMuAakSfloO6hGoBaMn5L9Vmc5N7lnyG2ve7x0vlTf6FhrQH9dY0mX49-Z3gqaLJMcMfWzh5RKaJaSXlV4jjs_pi_9E8MlyOMnBj7v5M0ReExIbb71Fvm_u1FWiEeqiReLphIhPaiLbndYL_ZzoU5btm8KbrdlcDMk9_EbuGbamDw5I6bAif5kd0Zi0-SSWatvMdVRvvrAa3F_4JYVZcBn5E_SlYQ84-pJ1MjHnYz1PGeCANa-lFxVMzA3lrYnxCwOqmcxkXLZevxHnPzSXnwfbMK4M7N3CCYfy1CBieyb-SFlJzkL-ag1hdPoI1Pg8EM_btl1njNQ", "width": 2048}], "place_id": "ChIJ17E_mojukYgRbkpE53NhiJ8", "plus_code": {"compound_code": "7GX4+35 Andalusia, Alabama", "global_code": "863M7GX4+35"}, "rating": 4.8, "reference": "ChIJ17E_mojukYgRbkpE53NhiJ8", "types": ["doctor", "health", "point_of_interest", "establishment"], "user_ratings_total": 35}, {"business_status": "OPERATIONAL", "formatted_address": "508 E 3 Notch St #100, Andalusia, AL 36420, United States", "geometry": {"location": {"lat": 31.3078067, "lng": -86.47601739999999}, "viewport": {"northeast": {"lat": 31.30931467989273, "lng": -86.47463707010726}, "southwest": {"lat": 31.30661502010728, "lng": -86.47733672989271}}}, "icon": "https://maps.gstatic.com/mapfiles/place_api/icons/v1/png_71/generic_business-71.png", "icon_background_color": "#7B9EB0", "icon_mask_base_uri": "https://maps.gstatic.com/mapfiles/place_api/icons/v2/generic_pinlet", "name": "MainStreet Family Care", "opening_hours": {"open_now": true}, "photos": [{"height": 4032, "html_attributions": ["<a href=\"https://maps.google.com/maps/contrib/114098262193077387791\">Tianna Nelson</a>"], "photo_reference": "AXQCQNRzvh8POBY1Nt2hi-j6NCvjrkzkUF6--K8fVPEgV647PY36hhOrzLun7MRcXLwg_32o3FHH3jEP4zl1kCYf5udtXLyMItTHTA-2UOEzNGkmYa0Sx7RKc3Bgs3czaSbaqjKCMR7esOCZZrRUeccSwsGWXxhk9LzMDlWA56gbv9I5VVH4iV5hnHNipSs66oXrp2LElYpvAvcDNpPvYeUtUFZ9OXlzsi8dHc2aMbi8QPrm8fnEoh_dCypNtx5sadd1XxneGY4RjAnp9CM1QveBJWUuxO80vqonZsnkJLUGIWnZZgXrr4kGpXFqZZNUU8RTXlVtLZJnFVUUlle91yuVzoM1DFgbetGjUhnj2dWd_5gOB7joMGGH5rDlmPkY2l8el1BbcBidoT5HmSOJTjMKU9jrbeCUJH5Df-8jmWGE_ebilUvZjfSopU1ClJk9uInpkE6zwQxyuAiwWYoO0L9Bpk3I6tlKr4PsezZ-cPOPtfUeBVLO7pPU_wY7IemKkBT7azpbPYCnGgH9e-2JwtY0rq7_M-Z82FyB5jafzXrv8GOea9-MA_hHRVss2HS_SoJrFkFyOg", "width": 3024}], "place_id": "ChIJmWYCHp3ukYgR-mrutmvcb6w", "plus_code": {"compound_code": "8G5F+4H Andalusia, Alabama", "global_code": "863M8G5F+4H"}, "rating": 4.2, "reference": "ChIJmWYCHp3ukYgR-mrutmvcb6w", "types": ["health", "point_of_interest", "establishment"], "user_ratings_total": 479}, {"business_status": "OPERATIONAL", "formatted_address": "16685 US-84, Andalusia, AL 36421, United States", "geometry": {"location": {"lat": 31.32088989999999, "lng": -86.4282516}, "viewport": {"northeast": {"lat": 31.32213292989272, "lng": -86.42685237010727}, "southwest": {"lat": 31.31943327010728, "lng": -86.42955202989272}}}, "icon": "https://maps.gstatic.com/mapfiles/place_api/icons/v1/png_71/generic_business-71.png", "icon_background_color": "#7B9EB0", "icon_mask_base_uri": "https://maps.gstatic.com/mapfiles/place_api/icons/v2/generic_pinlet", "name": "Eye Center South", "opening_hours": {"open_now": true}, "photos": [{"height": 360, "html_attributions": ["<a href=\"https://maps.google.com/maps/contrib/117568257633937456874\">A Google User</a>"], "photo_reference": "AXQCQNRKMhdYzbZwMhlS0-dCcPTztdUFKLWH-oWImyB8PKeboVXZlQ5TblrnpVnKmV0ctnwZZrPtBbQbUmz0h4vYMzB5VVlrBvP7VolGgMALH8mhRLvx0i1PNDug2YLgEB905QouD2CN6DaYEgUABHE40tOBikCxjLRMzml_nlbWmXt8fV1wt3NkM_umaktE-lM1y8JFPQi31zDzYiCd1d5GvRBUEHymH-5u6Mul7ggrU3nDufKOZVzAjRTjrb6d1mMOjuFRtpjSXlNqVyEu37cQNcMrB23vlH5uweNumdrGrWWumXSVRnI", "width": 480}], "place_id": "ChIJzxJ0EhHukYgRv5P9pIPlqWg", "plus_code": {"compound_code": "8HCC+9M Andalusia, Alabama", "global_code": "863M8HCC+9M"}, "rating": 4.9, "reference": "ChIJzxJ0EhHukYgRv5P9pIPlqWg", "types": ["doctor", "health", "point_of_interest", "establishment"], "user_ratings_total": 18}, {"business_status": "OPERATIONAL", "formatted_address": "843 S 3 Notch St, Andalusia, AL 36420, United States", "geometry": {"location": {"lat": 31.2967835, "lng": -86.4958564}, "viewport": {"northeast": {"lat": 31.29832617989272, "lng": -86.49461152010728}, "southwest": {"lat": 31.29562652010728, "lng": -86.49731117989272}}}, "icon": "https://maps.gstatic.com/mapfiles/place_api/icons/v1/png_71/hospital-71.png", "icon_background_color": "#F88181", "icon_mask_base_uri": "https://maps.gstatic.com/mapfiles/place_api/icons/v2/hospital-H_pinlet", "name": "South Central Medical Center", "opening_hours": {"open_now": true}, "place_id": "ChIJA9vLRwbskYgR4evwAP9Ik5o", "plus_code": {"compound_code": "7GW3+PM Andalusia, Alabama", "global_code": "863M7GW3+PM"}, "rating": 2, "reference": "ChIJA9vLRwbskYgR4evwAP9Ik5o", "types": ["doctor", "hospital", "health", "point_of_interest", "establishment"], "user_ratings_total": 3}, {"business_status": "OPERATIONAL", "formatted_address": "109 Medical Park Dr # B, Andalusia, AL 36420, United States", "geometry": {"location": {"lat": 31.2974157, "lng": -86.494104}, "viewport": {"northeast": {"lat": 31.29882442989272, "lng": -86.49274272010727}, "southwest": {"lat": 31.29612477010728, "lng": -86.49544237989272}}}, "icon": "https://maps.gstatic.com/mapfiles/place_api/icons/v1/png_71/generic_business-71.png", "icon_background_color": "#7B9EB0", "icon_mask_base_uri": "https://maps.gstatic.com/mapfiles/place_api/icons/v2/generic_pinlet", "name": "Andalusia Women's Services + Family Health", "opening_hours": {"open_now": true}, "photos": [{"height": 2400, "html_attributions": ["<a href=\"https://maps.google.com/maps/contrib/114932420216261390088\">Andalusia Women&#39;s Services + Family Health</a>"], "photo_reference": "AXQCQNTyLValFO24VKdAT5u8v661lV_T9weC2N5jFwknLXMwHp3mkfRDzGQciVL8AwogeQzz5EKGP7NITZoJLwx3zQo8tuTsQFTT39bNUTD3mHWJGrj-LaTVhL5scn1Gbr0F8b9eGtLOTjo3Jl4QvBSyRiyqN5e9xQrBkVAonwKe5yCs12roncwgS-4zrpAdeZ1UexfpL2KNbuCoJAmFCOC2DahLr9fvfzsUiqb2ydsgPqsOwrUZ0bt2qK-hIVsgRu6d7D7sjyGjHOjPWBxDKgzlkQfcvyxRIu1iqP4tz1nQsYEHcNxJWaU", "width": 3600}], "place_id": "ChIJMd-9GADtkYgR9V7KBt1-UF0", "plus_code": {"compound_code": "7GW4+X9 Andalusia, Alabama", "global_code": "863M7GW4+X9"}, "rating": 5, "reference": "ChIJMd-9GADtkYgR9V7KBt1-UF0", "types": ["health", "point_of_interest", "establishment"], "user_ratings_total": 15}, {"business_status": "OPERATIONAL", "formatted_address": "822B S 3 Notch St, Andalusia, AL 36420, United States", "geometry": {"location": {"lat": 31.2983562, "lng": -86.495272}, "viewport": {"northeast": {"lat": 31.29950502989272, "lng": -86.49373752010727}, "southwest": {"lat": 31.29680537010728, "lng": -86.49643717989272}}}, "icon": "https://maps.gstatic.com/mapfiles/place_api/icons/v1/png_71/generic_business-71.png", "icon_background_color": "#7B9EB0", "icon_mask_base_uri": "https://maps.gstatic.com/mapfiles/place_api/icons/v2/generic_pinlet", "name": "Dermatology Specialists of Alabama - Andalusia", "opening_hours": {"open_now": true}, "photos": [{"height": 960, "html_attributions": ["<a href=\"https://maps.google.com/maps/contrib/112033288031684399618\">A Google User</a>"], "photo_reference": "AXQCQNQpPNp9FozMq3DGYS0GkAe6CHn9rr27daArQTQrfFL45wsjC0iu9Wn67btEbF1mhpEEm3FelPBL-3yln4kk4YFMMPM_jpEYfZbsbjK_y9n8ORIAB-RCFqGhpJ8Uh8gy7SSmdVgnyUKCPHcBGIqCBh3MyXgdkLz1gkeq4BJQisSOAA0kU5kT0S9MFf4b3PROz8gT0nj_BK4wcJk3FHGxJmT7TEeI0OJPEcVQDp0LqnJRCGyUzZaqzwe9mfxYdjzasluTAG1Mb1fZUMI4MEvdMHUPHuBnarDyccOhfKlIkz3R1IxY_kU", "width": 1309}], "place_id": "ChIJ03kaVzvtkYgRGfpCPyUwcS0", "plus_code": {"compound_code": "7GX3+8V Andalusia, Alabama", "global_code": "863M7GX3+8V"}, "rating": 4.9, "reference": "ChIJ03kaVzvtkYgRGfpCPyUwcS0", "types": ["doctor", "health", "point_of_interest", "establishment"], "user_ratings_total": 165}, {"business_status": "OPERATIONAL", "formatted_address": "820 S 3 Notch St A, Andalusia, AL 36420, United States", "geometry": {"location": {"lat": 31.2984854, "lng": -86.49500599999999}, "viewport": {"northeast": {"lat": 31.29964942989272, "lng": -86.49348557010727}, "southwest": {"lat": 31.29694977010728, "lng": -86.49618522989272}}}, "icon": "https://maps.gstatic.com/mapfiles/place_api/icons/v1/png_71/generic_business-71.png", "icon_background_color": "#7B9EB0", "icon_mask_base_uri": "https://maps.gstatic.com/mapfiles/place_api/icons/v2/generic_pinlet", "name": "Dr. Grover A. Wells III, MD", "place_id": "ChIJ3Rp3dwbskYgROyDzJ7iZ_1o", "plus_code": {"compound_code": "7GX3+9X Andalusia, Alabama", "global_code": "863M7GX3+9X"}, "rating": 5, "reference": "ChIJ3Rp3dwbskYgROyDzJ7iZ_1o", "types": ["doctor", "health", "point_of_interest", "establishment"], "user_ratings_total": 1}, {"business_status": "OPERATIONAL", "formatted_address": "300 Medical Ave. Suite 100, Andalusia, AL 36420, United States", "geometry": {"location": {"lat": 31.2948236, "lng": -86.4925765}, "viewport": {"northeast": {"lat": 31.29620112989272, "lng": -86.49123632010728}, "southwest": {"lat": 31.29350147010727, "lng": -86.49393597989271}}}, "icon": "https://maps.gstatic.com/mapfiles/place_api/icons/v1/png_71/generic_business-71.png", "icon_background_color": "#7B9EB0", "icon_mask_base_uri": "https://maps.gstatic.com/mapfiles/place_api/icons/v2/generic_pinlet", "name": "Andalusia Urology", "opening_hours": {"open_now": true}, "photos": [{"height": 2400, "html_attributions": ["<a href=\"https://maps.google.com/maps/contrib/104066990401267831892\">A Google User</a>"], "photo_reference": "AXQCQNSvQDZWlgmWkJXb8TygQ7tsn9WSFl6rm4OD-3UDcqGnYVJn0jv3Bd4diSXQHblSawZIGQgr0Ampa_M-4Birj1NATTDrG9Dn_qddglKq6nJ9zi1-DYbBrQpTVu6mB-0-q8S-0jci8CTAf9wQ7DefxvCRVTc9xZ91qZSaoc3Hc-QfkodsYhnVMFKY1yBI53vRbpLwYJ-Zl--uuWdcmsVkwf0sgcGy44uwBi3CQinNNqoiQ7XhE_TX23DEPfXtYjEBfOicgdTLCgv3GZuk-L3Xeou4Ahm91NEkHa4vfGaoYRA8Yscy1A4", "width": 3600}], "place_id": "ChIJN77ZfA_skYgRhucwKss4rzQ", "plus_code": {"compound_code": "7GV4+WX Andalusia, Alabama", "global_code": "863M7GV4+WX"}, "rating": 3.9, "reference": "ChIJN77ZfA_skYgRhucwKss4rzQ", "types": ["health", "point_of_interest", "establishment"], "user_ratings_total": 7}, {"business_status": "OPERATIONAL", "formatted_address": "104 Medical Park Dr, Andalusia, AL 36420, United States", "geometry": {"location": {"lat": 31.297211, "lng": -86.4953929}, "viewport": {"northeast": {"lat": 31.29854192989272, "lng": -86.49400267010728}, "southwest": {"lat": 31.29584227010728, "lng": -86.49670232989271}}}, "icon": "https://maps.gstatic.com/mapfiles/place_api/icons/v1/png_71/generic_business-71.png", "icon_background_color": "#7B9EB0", "icon_mask_base_uri": "https://maps.gstatic.com/mapfiles/place_api/icons/v2/generic_pinlet", "name": "Ascension Sacred Heart Cancer Care at Andalusia", "opening_hours": {"open_now": true}, "photos": [{"height": 288, "html_attributions": ["<a href=\"https://maps.google.com/maps/contrib/114534733848702029252\">Ascension Sacred Heart Cancer Care at Andalusia</a>"], "photo_reference": "AXQCQNSArvXnL6IPhb3b0p5of-7BepxNYceH-KDFeGGgynAmHDuLvrMghKkCCPsH2CiaV6CV-pH9_VJcKL4Q7Ts6MbKExcbUIpKvkKhU3tXUxPyCaLdk51kDE74hBjzbU3nwIWIVKYmIVYcxTCCC5Wl-4ru2SkqrOLMKmvdHiAuOfABiguI4vGT1FTa_bzzvzN82v5P0ZcT3n4ioS2tHPQ94yK_K-ifWeUWdmj24-speJtq-v94bHZLjFIuSxowzG6xCIHTsHglUeHELpZHCM29h0V2l2tgGrWx_cVVmkp1QGXupOOWdG-s", "width": 432}], "place_id": "ChIJ3Rp3dwbskYgR43tyLIc5BXs", "plus_code": {"compound_code": "7GW3+VR Andalusia, Alabama", "global_code": "863M7GW3+VR"}, "rating": 3.6, "reference": "ChIJ3Rp3dwbskYgR43tyLIc5BXs", "types": ["doctor", "health", "point_of_interest", "establishment"], "user_ratings_total": 7}, {"business_status": "OPERATIONAL", "formatted_address": "820 S 3 Notch St, Andalusia, AL 36420, United States", "geometry": {"location": {"lat": 31.2984629, "lng": -86.494946}, "viewport": {"northeast": {"lat": 31.29964637989272, "lng": -86.49344337010727}, "southwest": {"lat": 31.29694672010728, "lng": -86.49614302989272}}}, "icon": "https://maps.gstatic.com/mapfiles/place_api/icons/v1/png_71/generic_business-71.png", "icon_background_color": "#7B9EB0", "icon_mask_base_uri": "https://maps.gstatic.com/mapfiles/place_api/icons/v2/generic_pinlet", "name": "Wells III Ashton MD", "place_id": "ChIJ3Rp3dwbskYgR5aN3IGSJNgk", "plus_code": {"compound_code": "7GX4+92 Andalusia, Alabama", "global_code": "863M7GX4+92"}, "rating": 5, "reference": "ChIJ3Rp3dwbskYgR5aN3IGSJNgk", "types": ["doctor", "health", "point_of_interest", "establishment"], "user_ratings_total": 4}, {"business_status": "OPERATIONAL", "formatted_address": "1823 E 3 Notch St, Andalusia, AL 36421, United States", "geometry": {"location": {"lat": 31.3234196, "lng": -86.4624985}, "viewport": {"northeast": {"lat": 31.32484142989273, "lng": -86.46095727010727}, "southwest": {"lat": 31.32214177010728, "lng": -86.46365692989271}}}, "icon": "https://maps.gstatic.com/mapfiles/place_api/icons/v1/png_71/generic_business-71.png", "icon_background_color": "#7B9EB0", "icon_mask_base_uri": "https://maps.gstatic.com/mapfiles/place_api/icons/v2/generic_pinlet", "name": "Andalusia Health Open MRI", "opening_hours": {"open_now": false}, "place_id": "ChIJJWOaI4bukYgRAjZv9hm0pro", "plus_code": {"compound_code": "8GFQ+92 Andalusia, Alabama", "global_code": "863M8GFQ+92"}, "rating": 5, "reference": "ChIJJWOaI4bukYgRAjZv9hm0pro", "types": ["doctor", "health", "point_of_interest", "establishment"], "user_ratings_total": 2}, {"business_status": "OPERATIONAL", "formatted_address": "301 Medical Park Dr, Andalusia, AL 36420, United States", "geometry": {"location": {"lat": 31.2972147, "lng": -86.4947698}, "viewport": {"northeast": {"lat": 31.29856017989272, "lng": -86.49342292010728}, "southwest": {"lat": 31.29586052010728, "lng": -86.49612257989273}}}, "icon": "https://maps.gstatic.com/mapfiles/place_api/icons/v1/png_71/generic_business-71.png", "icon_background_color": "#7B9EB0", "icon_mask_base_uri": "https://maps.gstatic.com/mapfiles/place_api/icons/v2/generic_pinlet", "name": "Andalusia Medical Group", "place_id": "ChIJK_l-dwbskYgRkF5JW1LL8xc", "plus_code": {"compound_code": "7GW4+V3 Andalusia, Alabama", "global_code": "863M7GW4+V3"}, "rating": 1, "reference": "ChIJK_l-dwbskYgRkF5JW1LL8xc", "types": ["doctor", "health", "point_of_interest", "establishment"], "user_ratings_total": 1}, {"business_status": "OPERATIONAL", "formatted_address": "135 Medical Park Dr Suite 2B, Andalusia, AL 36420, United States", "geometry": {"location": {"lat": 31.2947001, "lng": -86.493355}, "viewport": {"northeast": {"lat": 31.29611997989272, "lng": -86.49208682010726}, "southwest": {"lat": 31.29342032010727, "lng": -86.49478647989271}}}, "icon": "https://maps.gstatic.com/mapfiles/place_api/icons/v1/png_71/generic_business-71.png", "icon_background_color": "#7B9EB0", "icon_mask_base_uri": "https://maps.gstatic.com/mapfiles/place_api/icons/v2/generic_pinlet", "name": "Clearway Pain Solutions - Andalusia", "opening_hours": {"open_now": false}, "photos": [{"height": 525, "html_attributions": ["<a href=\"https://maps.google.com/maps/contrib/117281888852627504121\">A Google User</a>"], "photo_reference": "AXQCQNR1cZrdGHElfV5W0NVFAtsAL_0T7xA3ALefV86VR4EeMwR6ffdjCIBq2C0NnAshbg8VXEzBFJ25dbkyZa-QV_sKUPz6duaSjWTLzes_bVOg9fNoNHDAp1anWIKpw2iyyhDg70Ixdk_Vm0IaVh1Im3qwUKxZjQocesuvmTybTBGcxjqTbKAB8V0sBc4mOZUFXeqdnHFhByHlp0Fw8pfgHAm1whGEG0EjzLMJf4266pW9Gsn2UCBOBScj0LgteWibY-TFvzM48QGoX8rbkR0a6b3b5zHzGoC1WeJURYMfwoBlBChen9g", "width": 2265}], "place_id": "ChIJDZTojxntkYgRs-jscsa1cbA", "plus_code": {"compound_code": "7GV4+VM Andalusia, Alabama", "global_code": "863M7GV4+VM"}, "rating": 4.5, "reference": "ChIJDZTojxntkYgRs-jscsa1cbA", "types": ["health", "point_of_interest", "establishment"], "user_ratings_total": 268}, {"business_status": "OPERATIONAL", "formatted_address": "512 E 3 Notch St, Andalusia, AL 36420, United States", "geometry": {"location": {"lat": 31.3078531, "lng": -86.4760531}, "viewport": {"northeast": {"lat": 31.30933787989272, "lng": -86.47463302010728}, "southwest": {"lat": 31.30663822010728, "lng": -86.47733267989273}}}, "icon": "https://maps.gstatic.com/mapfiles/place_api/icons/v1/png_71/generic_business-71.png", "icon_background_color": "#7B9EB0", "icon_mask_base_uri": "https://maps.gstatic.com/mapfiles/place_api/icons/v2/generic_pinlet", "name": "Southern Bone & Joint Specialists, Andalusia, Alabama", "opening_hours": {"open_now": true}, "place_id": "ChIJJcFD2xPvkYgR6sofWS9z3Rw", "plus_code": {"compound_code": "8G5F+4H Andalusia, Alabama", "global_code": "863M8G5F+4H"}, "rating": 3.7, "reference": "ChIJJcFD2xPvkYgR6sofWS9z3Rw", "types": ["doctor", "health", "point_of_interest", "establishment"], "user_ratings_total": 3}]