[{"business_status": "OPERATIONAL", "formatted_address": "13900 Hutchison Rd, Albion, MI 49224, United States", "geometry": {"location": {"lat": 42.2329443, "lng": -84.653205}, "viewport": {"northeast": {"lat": 42.23410317989272, "lng": -84.65185272010727}, "southwest": {"lat": 42.23140352010728, "lng": -84.65455237989272}}}, "icon": "https://maps.gstatic.com/mapfiles/place_api/icons/v1/png_71/generic_business-71.png", "icon_background_color": "#7B9EB0", "icon_mask_base_uri": "https://maps.gstatic.com/mapfiles/place_api/icons/v2/generic_pinlet", "name": "Potter's Lawn Care, LLC", "opening_hours": {"open_now": true}, "photos": [{"height": 3024, "html_attributions": ["<a href=\"https://maps.google.com/maps/contrib/103798801902167923022\">Sherry Early</a>"], "photo_reference": "AXQCQNQ7ALythtv1qhXCQDQEuwwEJwLCe2UYWR_otuj-1SAza_m7Idm_MCGo1Q7mXaNkjHoNj2y0SPmL193SggBT8WiBg_8guZD2pp1A_bWIRiFvmzLPfqTMdtlAvaZbimcjc4K_kscv7BzUz4zODMzEzRc6KYH2Nk-xqXeYMceP37AdmbK4iJqjPf-6wfiYjyTI8bKJu0w6rJTYGtuhsD_vlYqmpydjWZGZ4u7sq_x7HBXe4FVlTc3IsJM7XWuJMPZYMtFdGwWc2IA6DhNL90mfV6JlEgZVPRlaTEGni8xK7lztWs_hRI9cAnJ194UdopexPlLgmFKaeKeN69KOB0QtbYTCPwUcca5XlxtaHtGh_INR7GohkWvyh6z-t99bAAR5hIX46kaXqZivM51PGGO0PdfJX3s-sSpXMHDS1p0WJrVeEdXKtr4iQ-rm72wGV8i9KNQZwInzYtFlZc1PV7UnAvhWXwIGaTiSxOt99LwWifmidZxrR8s_SLwUD3hjn42uTQpzlDcYqJJIqwd6gJdF6gfTqS_n6wPWLsd_QMNXrD2xDfSRKEKg2R_ZWZFDkWEHIYax-A", "width": 4032}], "place_id": "ChIJZxim-Ecjm6IRWd-ll5KkxAQ", "plus_code": {"compound_code": "68MW+5P Albion, Michigan", "global_code": "86JQ68MW+5P"}, "rating": 5, "reference": "ChIJZxim-Ecjm6IRWd-ll5KkxAQ", "types": ["general_contractor", "point_of_interest", "establishment"], "user_ratings_total": 19}, {"business_status": "OPERATIONAL", "formatted_address": "6929 30 Mile Rd, Albion, MI 49224, United States", "geometry": {"location": {"lat": 42.3341828, "lng": -84.72189809999999}, "viewport": {"northeast": {"lat": 42.33507992989271, "lng": -84.71994027010727}, "southwest": {"lat": 42.33238027010727, "lng": -84.72263992989272}}}, "icon": "https://maps.gstatic.com/mapfiles/place_api/icons/v1/png_71/generic_business-71.png", "icon_background_color": "#7B9EB0", "icon_mask_base_uri": "https://maps.gstatic.com/mapfiles/place_api/icons/v2/generic_pinlet", "name": "Diamond Cut Lawn & Snow", "opening_hours": {"open_now": true}, "photos": [{"height": 4032, "html_attributions": ["<a href=\"https://maps.google.com/maps/contrib/117503455693888065588\">Diamond Cut Lawn &amp; Snow</a>"], "photo_reference": "AXQCQNTpCmg5IQJzvjbbWBkxp-ByogWnD-XifaPdhrm5ZvE_GsGmLAHbGxrDSFlVtE_ioet7h1_UbqWKltur1EVa-DaB4Frcf7cKzFc2jluRvqj2-z2itNNABMvKhuH-5ATcbeAPHh_ykibgCZxLwMfA58hsj_EvFC_-OPP4isQbry69sefrTebGS-dYFDxHaFCTPDfMV0xLl36WZjtKJEz1m6wU9_8sijFRAAwKIf5uJGOJHue984N5-qUTUXdFdHI9qoNh0Kx1nPJ48m8f7GGe606DwAl6-FLXK_aBD8h3VoVcaa_0WZ4", "width": 3024}], "place_id": "ChIJmUQ0_lAK44QRwqyjlg5CAI8", "plus_code": {"compound_code": "87MH+M6 Albion, Michigan", "global_code": "86JQ87MH+M6"}, "rating": 5, "reference": "ChIJmUQ0_lAK44QRwqyjlg5CAI8", "types": ["point_of_interest", "establishment"], "user_ratings_total": 30}, {"business_status": "OPERATIONAL", "formatted_address": "1201 3rd St, Albion, MI 49224, United States", "geometry": {"location": {"lat": 42.2555389, "lng": -84.76028079999999}, "viewport": {"northeast": {"lat": 42.25689087989272, "lng": -84.75880447010728}, "southwest": {"lat": 42.25419122010728, "lng": -84.76150412989273}}}, "icon": "https://maps.gstatic.com/mapfiles/place_api/icons/v1/png_71/generic_business-71.png", "icon_background_color": "#7B9EB0", "icon_mask_base_uri": "https://maps.gstatic.com/mapfiles/place_api/icons/v2/generic_pinlet", "name": "Aarora Lights Nursery Landscaping & Tree Service", "opening_hours": {"open_now": true}, "photos": [{"height": 3024, "html_attributions": ["<a href=\"https://maps.google.com/maps/contrib/112938491315901042018\">Aarora Lights Nursery Landscaping &amp; Tree Service</a>"], "photo_reference": "AXQCQNQE2bFCrwCgRJi5FYM7ZO4mKnLYWc7gr9P5ZjFH1Wh7gq5TA3FERpauabV6KUHaaLFtR6kL_m3jPIKMX6166bFHKABmo7_kGKQNBmRRleSsFGbb28aiYnLhT_rXG2i168Bf8vEMOmXgDgX62BWK-0veO_Kr4VMT1uW2UytKz7siOXFctDYs5K7YbnPS1rPcSNcuZJGqDfz34iFC5ONHdvmMxjgVm-k-McLpBliEMQbO3hxwsYjq8M5SgDlWTeUK9wCGhs0RboGnr9kn6RcVV6ory68-IaDuarq6foI7Rt2rk3B6JLQ", "width": 4032}], "place_id": "ChIJZ0z_p3BFPYgRExzHMRJWffU", "plus_code": {"compound_code": "764Q+6V Albion, Michigan", "global_code": "86JQ764Q+6V"}, "reference": "ChIJZ0z_p3BFPYgRExzHMRJWffU", "types": ["general_contractor", "point_of_interest", "establishment"]}, {"business_status": "OPERATIONAL", "formatted_address": "14555 Elm Row Rd, Albion, MI 49224, United States", "geometry": {"location": {"lat": 42.2359123, "lng": -84.6699066}, "viewport": {"northeast": {"lat": 42.23749622989272, "lng": -84.66856992010727}, "southwest": {"lat": 42.23479657010728, "lng": -84.67126957989272}}}, "icon": "https://maps.gstatic.com/mapfiles/place_api/icons/v1/png_71/generic_business-71.png", "icon_background_color": "#7B9EB0", "icon_mask_base_uri": "https://maps.gstatic.com/mapfiles/place_api/icons/v2/generic_pinlet", "name": "Carr Bros & Sons Inc", "opening_hours": {"open_now": true}, "photos": [{"height": 711, "html_attributions": ["<a href=\"https://maps.google.com/maps/contrib/107465359156316313119\">Carr Bros &amp; Sons Inc</a>"], "photo_reference": "AXQCQNQOmAITUX6XPxbe1RPCFJBQyXiRi77SJ537gvym6estIkAg57g3987-0FSoBIjBnWElbx4rEerJqSRexZlbd3EJsFpms-nDtKwgvKr0gQEaVXIPcuQ66A15i0hZ8CruPRcRZn8jgjF-iAOXctiKHhvp9GmY9WEaXewzRfD6614h_5ireX4UyeXIoSKwrx79baBGkpEDb8BgFG-7wlje3rtquIqosi-PDYlTQ7U24u0sNSwH8D3uNO_BuWgza826PiHQKLGByaIhsGhCCTJMJCAQb_OEDTppysorAxoKhMtUcWoMKn4", "width": 952}], "place_id": "ChIJRf_aam9GPYgR6rrtE2c9m0s", "plus_code": {"compound_code": "68PJ+92 Albion, Michigan", "global_code": "86JQ68PJ+92"}, "rating": 3.9, "reference": "ChIJRf_aam9GPYgR6rrtE2c9m0s", "types": ["general_contractor", "point_of_interest", "establishment"], "user_ratings_total": 7}, {"business_status": "OPERATIONAL", "formatted_address": "13613 Erie Rd, Albion, MI 49224, United States", "geometry": {"location": {"lat": 42.246617, "lng": -84.6520993}, "viewport": {"northeast": {"lat": 42.24799432989272, "lng": -84.65084522010729}, "southwest": {"lat": 42.24529467010728, "lng": -84.65354487989272}}}, "icon": "https://maps.gstatic.com/mapfiles/place_api/icons/v1/png_71/generic_business-71.png", "icon_background_color": "#7B9EB0", "icon_mask_base_uri": "https://maps.gstatic.com/mapfiles/place_api/icons/v2/generic_pinlet", "name": "Carr Brothers & Sons, Inc.", "opening_hours": {"open_now": true}, "photos": [{"height": 1137, "html_attributions": ["<a href=\"https://maps.google.com/maps/contrib/109245766724668268525\">Carr Brothers &amp; Sons, Inc.</a>"], "photo_reference": "AXQCQNRKWM742R5UEul6tVU39fF53lI_XadZmGwkwUNu_PI8XVhwJ6P-fmVShjPL3eNCJmD1U7dNJdPeN_4Zgj60hD-jTbud0tWUZPq-ZP82cVpQl_9ThdNpSegnvEFCzOnHCdIh1fjQAG_Ks4fSOEd2oRbY_ujyxJKuqb_w4wzpgpP8Gd086qGOAvssfzQN3PImGZwkvHymGo-UPgAabiqO5Bd6NpQC7GhFjYoyAyQw4sBuN5g0XJBqbYMrPOhBWhIR8buUanMBwIeaxEdq9A__SOLak4zRnVLARbu4suUxctZy32vaUt8", "width": 1808}], "place_id": "ChIJH5ThXL5HPYgRaEZ0gCxVoo0", "plus_code": {"compound_code": "68WX+J5 Albion, Michigan", "global_code": "86JQ68WX+J5"}, "rating": 4.1, "reference": "ChIJH5ThXL5HPYgRaEZ0gCxVoo0", "types": ["general_contractor", "point_of_interest", "establishment"], "user_ratings_total": 20}, {"business_status": "OPERATIONAL", "formatted_address": "E Chestnut St, Albion, MI 49224, United States", "geometry": {"location": {"lat": 42.2481032, "lng": -84.7506918}, "viewport": {"northeast": {"lat": 42.24960977989272, "lng": -84.74934257010727}, "southwest": {"lat": 42.24691012010727, "lng": -84.75204222989272}}}, "icon": "https://maps.gstatic.com/mapfiles/place_api/icons/v1/png_71/generic_business-71.png", "icon_background_color": "#7B9EB0", "icon_mask_base_uri": "https://maps.gstatic.com/mapfiles/place_api/icons/v2/generic_pinlet", "name": "J.A.J Local Lawncare service", "opening_hours": {"open_now": false}, "place_id": "ChIJpU3UYGFFPYgRlflNIU_ZMMg", "plus_code": {"compound_code": "66XX+6P Albion, Michigan", "global_code": "86JQ66XX+6P"}, "reference": "ChIJpU3UYGFFPYgRlflNIU_ZMMg", "types": ["point_of_interest", "establishment"]}, {"business_status": "OPERATIONAL", "formatted_address": "3027 Blue Ridge Rd, Clarklake, MI 49234, United States", "geometry": {"location": {"lat": 42.1657587, "lng": -84.3633373}, "viewport": {"northeast": {"lat": 42.16726842989272, "lng": -84.36222767010727}, "southwest": {"lat": 42.16456877010728, "lng": -84.36492732989271}}}, "icon": "https://maps.gstatic.com/mapfiles/place_api/icons/v1/png_71/generic_business-71.png", "icon_background_color": "#7B9EB0", "icon_mask_base_uri": "https://maps.gstatic.com/mapfiles/place_api/icons/v2/generic_pinlet", "name": "Wilcox Lawn & Landscaping", "opening_hours": {"open_now": true}, "photos": [{"height": 1081, "html_attributions": ["<a href=\"https://maps.google.com/maps/contrib/117997916681879034488\">Wilcox Lawn &amp; Landscaping</a>"], "photo_reference": "AXQCQNTY2iK1Ju9YlW09KYPqke2Ja_b5nt3QVFjh6hwWed4DACeEX0LcgtPYUr3MaKJvbSLNxNe2KBF9Tg2-3Nk99Gd3flrNP0cvLkKtxxpNf2EAxrwae3crGLobMfHObtLXTMTAtyHLseJEzNqE48Kf5H3OtMrif-hQG-MUDntHgDJTtgXm9kqj_8ebP6GGphBmHNxLyEFODhLQsJ36bgxickNXz-iWGanPXlRWnOmwpvmh_7GmSHBYpmOOzQV2J_iF1kEZAJ-7yS-xbdln81jnMiczZRfZETKKoLEHoLp3unsJU-cac3U", "width": 1920}], "place_id": "ChIJP82QshIiPYgR39EJk_ZgUBU", "plus_code": {"compound_code": "5J8P+8M Clarklake, Michigan", "global_code": "86JQ5J8P+8M"}, "rating": 4.6, "reference": "ChIJP82QshIiPYgR39EJk_ZgUBU", "types": ["general_contractor", "point_of_interest", "establishment"], "user_ratings_total": 185}, {"business_status": "OPERATIONAL", "formatted_address": "28069 C-Drive N, Albion, MI 49224, United States", "geometry": {"location": {"lat": 42.2665042, "lng": -84.7560062}, "viewport": {"northeast": {"lat": 42.26779587989272, "lng": -84.75454442010728}, "southwest": {"lat": 42.26509622010728, "lng": -84.75724407989273}}}, "icon": "https://maps.gstatic.com/mapfiles/place_api/icons/v1/png_71/generic_business-71.png", "icon_background_color": "#7B9EB0", "icon_mask_base_uri": "https://maps.gstatic.com/mapfiles/place_api/icons/v2/generic_pinlet", "name": "Jolly Green Junction & UHaul Rental Center/Stor-Mor Shed Dealer/Whistle Stop Christmas Shop", "opening_hours": {"open_now": true}, "photos": [{"height": 960, "html_attributions": ["<a href=\"https://maps.google.com/maps/contrib/101498012685669221259\">Jolly Green Junction &amp; UHaul Rental Center/Stor-Mor Shed Dealer/Whistle Stop Christmas Shop</a>"], "photo_reference": "AXQCQNSAAYoqLQgHlJlQPFHKztfRhDcLsPKeTUN-n4n3XBMpx6FxoRbsPEKv6xTcuACTEtQZwsqB4dHkztfMdvLxOsNtaE09oh452OkffkIkjgmFZF0ol4SdKyGwGNwnCH50OfqG1FuwluEw5-3P2ZLPCvVtwiwr2AF9VNFJzsOO3xxi-DNjv0fpuI9JBJkJm8Ot4IYAcFyv_S_oWEL16sMEJFR3M6A8jwS81dOiOcLZWph9iy6bw9vBLHcVT5wchVkWLLXucVQ5RT0-_BESJAiyNwX0TwCPXA8Zn55FZAZ7vymZHyCbzsU", "width": 1280}], "place_id": "ChIJmVGsAl1FPYgRyBOU6jsIVAs", "plus_code": {"compound_code": "768V+JH Albion, Michigan", "global_code": "86JQ768V+JH"}, "rating": 4.6, "reference": "ChIJmVGsAl1FPYgRyBOU6jsIVAs", "types": ["grocery_or_supermarket", "park", "store", "food", "point_of_interest", "establishment"], "user_ratings_total": 58}, {"business_status": "OPERATIONAL", "formatted_address": "6018 Rives Junction Rd, Jackson, MI 49201, United States", "geometry": {"location": {"lat": 42.3206334, "lng": -84.4637446}, "viewport": {"northeast": {"lat": 42.32198327989273, "lng": -84.46239462010728}, "southwest": {"lat": 42.31928362010729, "lng": -84.46509427989272}}}, "icon": "https://maps.gstatic.com/mapfiles/place_api/icons/v1/png_71/generic_business-71.png", "icon_background_color": "#7B9EB0", "icon_mask_base_uri": "https://maps.gstatic.com/mapfiles/place_api/icons/v2/generic_pinlet", "name": "Emerald Outdoor, LLC", "opening_hours": {"open_now": true}, "photos": [{"height": 912, "html_attributions": ["<a href=\"https://maps.google.com/maps/contrib/103089757678220311966\">Emerald Outdoor, LLC</a>"], "photo_reference": "AXQCQNTVaEtjLSL6NrysV7zPXc3Q2s_NS9hVOGrlB14N4Fp5SpuDUOe0qA7u4d7837UsOab59p14R5kJQH__4cGaV37lWdycWy2noOPFCs0KhNAJv0l718_1TOsGFmIhUPEYWGRyGj-rPCfRCXdF-Tw4yb02BtzBrSdzQ7vyJWe-iFzfU7N1Y5Nllvk-1297OqEO8Vqmn-0HLjTU3NgK2PBhGW32tyZItl4BUYMfCCYwQAKjP3WktzbC_aA0WVA28kmMQQOHAvGTqLiGTt3aA9kKNZp3uPYyI-jv1K9KBKB9bNFF1D478E4", "width": 1632}], "place_id": "ChIJm3mQtGI5PYgRLy8UnBiIv30", "plus_code": {"compound_code": "8GCP+7G Jackson, Michigan", "global_code": "86JQ8GCP+7G"}, "rating": 4.8, "reference": "ChIJm3mQtGI5PYgRLy8UnBiIv30", "types": ["general_contractor", "point_of_interest", "establishment"], "user_ratings_total": 39}, {"business_status": "OPERATIONAL", "formatted_address": "4621 Moscow Rd, Spring Arbor, MI 49283, United States", "geometry": {"location": {"lat": 42.193822, "lng": -84.518157}, "viewport": {"northeast": {"lat": 42.19514852989271, "lng": -84.51688165}, "southwest": {"lat": 42.19244887010727, "lng": -84.52198305000002}}}, "icon": "https://maps.gstatic.com/mapfiles/place_api/icons/v1/png_71/generic_business-71.png", "icon_background_color": "#7B9EB0", "icon_mask_base_uri": "https://maps.gstatic.com/mapfiles/place_api/icons/v2/generic_pinlet", "name": "Peak Landscape LLC", "opening_hours": {"open_now": true}, "photos": [{"height": 1536, "html_attributions": ["<a href=\"https://maps.google.com/maps/contrib/111572106913402855914\">Peak Landscape LLC</a>"], "photo_reference": "AXQCQNRGIRkUs4ipyO7AihhAg2_pGYscBibUC2_L2tynbKgPSWZni2E_VzqV1RHZRpKBe0JZBC5q5Vdd4UU9Ky8w7l4YPlsBGt22NobZza6b5_kjoc0wSRl-f5qD5n9hxSMRbh34bXxuZCi2vDfuOA3rLpJc-6gCtIfu9JulJ5MdhsIl9-gS6NrHLHZnzf6WypDJH09Dtg2Fzey0rkL_cL52jgKfyI0_4Z-V-B6_hktQrEAt2wzQtJEIL3uBcUSsrR_tgCYSQveiHiB6pfzKHG2zKrHeW5lK6sWEgpPSohw3KnU_7B8ghOI", "width": 2048}], "place_id": "ChIJQZcZZvlX4wYR-Ig4ewG8wPc", "plus_code": {"compound_code": "5FVJ+GP Spring Arbor, Michigan", "global_code": "86JQ5FVJ+GP"}, "rating": 5, "reference": "ChIJQZcZZvlX4wYR-Ig4ewG8wPc", "types": ["general_contractor", "point_of_interest", "establishment"], "user_ratings_total": 1}, {"business_status": "OPERATIONAL", "formatted_address": "1009 Jefferson St, Albion, MI 49224, United States", "geometry": {"location": {"lat": 42.2557714, "lng": -84.763609}, "viewport": {"northeast": {"lat": 42.25712277989272, "lng": -84.76210977010729}, "southwest": {"lat": 42.25442312010728, "lng": -84.76480942989274}}}, "icon": "https://maps.gstatic.com/mapfiles/place_api/icons/v1/png_71/park-71.png", "icon_background_color": "#4DB546", "icon_mask_base_uri": "https://maps.gstatic.com/mapfiles/place_api/icons/v2/tree_pinlet", "name": "Albion Community Gardens", "opening_hours": {"open_now": true}, "place_id": "ChIJPYmuAgBFPYgRM9YfbWSlJeE", "plus_code": {"compound_code": "764P+8H Albion, Michigan", "global_code": "86JQ764P+8H"}, "reference": "ChIJPYmuAgBFPYgRM9YfbWSlJeE", "types": ["park", "point_of_interest", "establishment"]}]