[{"business_status": "OPERATIONAL", "formatted_address": "4330 N Bend Rd, Ashtabula, OH 44004, United States", "geometry": {"location": {"lat": 41.8541697, "lng": -80.8442346}, "viewport": {"northeast": {"lat": 41.85551917989272, "lng": -80.84298567010728}, "southwest": {"lat": 41.85281952010727, "lng": -80.84568532989273}}}, "icon": "https://maps.gstatic.com/mapfiles/place_api/icons/v1/png_71/shopping-71.png", "icon_background_color": "#4B96F3", "icon_mask_base_uri": "https://maps.gstatic.com/mapfiles/place_api/icons/v2/shopping_pinlet", "name": "Cicogna Electric & Sign Co", "opening_hours": {"open_now": true}, "place_id": "ChIJn0AJ29yKMYgRi6o6BeRMaUQ", "plus_code": {"compound_code": "V534+M8 Ashtabula, Ohio", "global_code": "86HXV534+M8"}, "rating": 2.3, "reference": "ChIJn0AJ29yKMYgRi6o6BeRMaUQ", "types": ["point_of_interest", "store", "establishment"], "user_ratings_total": 53}, {"business_status": "OPERATIONAL", "formatted_address": "6209 Lake St, Kingsville, OH 44048, United States", "geometry": {"location": {"lat": 41.8959836, "lng": -80.6835354}, "viewport": {"northeast": {"lat": 41.89751772989272, "lng": -80.68189372010727}, "southwest": {"lat": 41.89481807010728, "lng": -80.68459337989272}}}, "icon": "https://maps.gstatic.com/mapfiles/place_api/icons/v1/png_71/shopping-71.png", "icon_background_color": "#4B96F3", "icon_mask_base_uri": "https://maps.gstatic.com/mapfiles/place_api/icons/v2/shopping_pinlet", "name": "B&A Signs", "opening_hours": {"open_now": true}, "place_id": "ChIJ_yDpy2cZMogRWOZDlZSELQE", "plus_code": {"compound_code": "V8W8+9H Kingsville, Ohio", "global_code": "86HXV8W8+9H"}, "rating": 5, "reference": "ChIJ_yDpy2cZMogRWOZDlZSELQE", "types": ["point_of_interest", "store", "establishment"], "user_ratings_total": 3}, {"business_status": "OPERATIONAL", "formatted_address": "4330 N Bend Rd, Ashtabula, OH 44004, United States", "geometry": {"location": {"lat": 41.8541695, "lng": -80.8442895}, "viewport": {"northeast": {"lat": 41.85551922989272, "lng": -80.84298567010728}, "southwest": {"lat": 41.85281957010728, "lng": -80.84568532989273}}}, "icon": "https://maps.gstatic.com/mapfiles/place_api/icons/v1/png_71/shopping-71.png", "icon_background_color": "#4B96F3", "icon_mask_base_uri": "https://maps.gstatic.com/mapfiles/place_api/icons/v2/shopping_pinlet", "name": "Cesco Imaging", "opening_hours": {"open_now": true}, "place_id": "ChIJmQVf94OLMYgRGPAhvODyerc", "plus_code": {"compound_code": "V534+M8 Ashtabula, Ohio", "global_code": "86HXV534+M8"}, "reference": "ChIJmQVf94OLMYgRGPAhvODyerc", "types": ["point_of_interest", "store", "establishment"]}, {"business_status": "OPERATIONAL", "formatted_address": "856 Lake Ave, Ashtabula, OH 44004, United States", "geometry": {"location": {"lat": 41.8925272, "lng": -80.8045124}, "viewport": {"northeast": {"lat": 41.89391917989272, "lng": -80.80305402010727}, "southwest": {"lat": 41.89121952010728, "lng": -80.8057536798927}}}, "icon": "https://maps.gstatic.com/mapfiles/place_api/icons/v1/png_71/shopping-71.png", "icon_background_color": "#4B96F3", "icon_mask_base_uri": "https://maps.gstatic.com/mapfiles/place_api/icons/v2/shopping_pinlet", "name": "Harbor Print Center LLC", "opening_hours": {"open_now": true}, "photos": [{"height": 1080, "html_attributions": ["<a href=\"https://maps.google.com/maps/contrib/101754874849112234807\">charger70@hotmail.com</a>"], "photo_reference": "AXQCQNQYh3grSJhurUhzfkkzPqbpnjmxenopQmgLPS-C198sXjOadTeLCMOMR8HyfqwOSKpl78uWKCBcl1VkVKbp3S8QJRyvxbr_SpFtRqR-6649_2Gv5OR907gslkTRx5dhw7_oeVSRfWH_sC74jn4h3TJolIqjudxCzVSeo2AYLsyLYv8el8H4p_SwgVbrP-AYcNU7CJjsrrp_vjeB_AHPaXT-zdmBUJ4MJ5y-ZYa-duqdbwiuL6JDRdrw3qlq5a1sEDBlv6KgHIOnn127tmJAvAUTX_fjMJx5gCcxEOexeQ-TSYbgeW6TTAq_p0S5Ac9w8l17cV7g9pYH1yXSCSYY-LvHNNDJE3Rs2ti0OioyfxffR5p46oYkH6eQKInVrziNk1p4x3wTKgb7BV3GNOqo_KiU3Ei-JGD-1ok-G3hYxnq-GUocZwuxbn1RT2cl1p0t7WK8fH6npXSF9kwuHVxan5EXP_yIvTy9GOvPfYfKZBQY9GXiVTlfgCbHeCGB41ti6d1f1gkGOqu3hGCWoHrNN76f0ShBwoYMBfm5eZDh4hc2psu-UiNfbHkOs_rvWTL673xgQBASw4-udQ", "width": 1920}], "place_id": "ChIJb1YLfN0fMogRdbEuNysMKac", "plus_code": {"compound_code": "V5VW+25 Ashtabula, Ohio", "global_code": "86HXV5VW+25"}, "rating": 5, "reference": "ChIJb1YLfN0fMogRdbEuNysMKac", "types": ["point_of_interest", "store", "establishment"], "user_ratings_total": 11}, {"business_status": "OPERATIONAL", "formatted_address": "432 E Main St, Geneva, OH 44041, United States", "geometry": {"location": {"lat": 41.807772, "lng": -80.9406229}, "viewport": {"northeast": {"lat": 41.80920232989273, "lng": -80.93930562010728}, "southwest": {"lat": 41.80650267010728, "lng": -80.94200527989273}}}, "icon": "https://maps.gstatic.com/mapfiles/place_api/icons/v1/png_71/shopping-71.png", "icon_background_color": "#4B96F3", "icon_mask_base_uri": "https://maps.gstatic.com/mapfiles/place_api/icons/v2/shopping_pinlet", "name": "Conrad Signs", "opening_hours": {"open_now": false}, "photos": [{"height": 1848, "html_attributions": ["<a href=\"https://maps.google.com/maps/contrib/101907602549462387862\">K Zimmerman</a>"], "photo_reference": "AXQCQNR8vkT-cNTlmmof9pZhGmmQwUEM7t4X7QraZHkNJ51U5Ra7_NLSRInxO8UdpXq-RI1mI5pLO7YZ5Acp5Hl_7Zwg_L-6BtdTMDhg1Q4d6zeh2YMIk4fnyHqB3TmVt7CpSl820CX-yQ-kJ5yaoj0L7X9TZ_j1IEXimAvgHVYZ0LeNxdxi8pbNuGGdc8GLQJFbyrgTIs3kkMMm8eD0GnKGG1C2v7uMquCGhbVsn8fuDBBuyhXDaj333qYHH8lZ35pftXPNIisO-Sw0vNreOTHn8yYUIHPRSTOdw5p6XChkO5FRe73BxAtk6qhOouqDi2lnNFbCqm4R4oryGRm5J9-Z4mwl5sH6Kf5SL11DhMBiGzDpjcujQJ6TT5tEwaVts5VNes5Vnrnl9dxh1YBKi9BR6TCC5sDHYsPz2-tuEccCj46RVn8GEPSKpynvxJ6LrbrHtBC7qz03ddiPDSsojFbGO_7uaj8kQMZH1Y00Hcsjjgs2ZTAfd9jF2JMFDH6yjbJwhX-63ZuF_-UtVnWO2rs6_zJMPbxVmpWRpKimWDoKTAoIc5VYXPFUGvYri_tuCeCmj2P4_nR7", "width": 4000}], "place_id": "ChIJCUQHBS2MMYgRIyLrYU76fBQ", "plus_code": {"compound_code": "R355+3Q Geneva, Ohio", "global_code": "86HXR355+3Q"}, "rating": 4.9, "reference": "ChIJCUQHBS2MMYgRIyLrYU76fBQ", "types": ["point_of_interest", "store", "establishment"], "user_ratings_total": 9}, {"business_status": "OPERATIONAL", "formatted_address": "295 W Prospect St, Painesville, OH 44077, United States", "geometry": {"location": {"lat": 41.7218469, "lng": -81.25703480000001}, "viewport": {"northeast": {"lat": 41.72323707989272, "lng": -81.25562747010727}, "southwest": {"lat": 41.72053742010727, "lng": -81.25832712989272}}}, "icon": "https://maps.gstatic.com/mapfiles/place_api/icons/v1/png_71/shopping-71.png", "icon_background_color": "#4B96F3", "icon_mask_base_uri": "https://maps.gstatic.com/mapfiles/place_api/icons/v2/shopping_pinlet", "name": "Ruff Neon Signs & Lighting Maintenance Inc.", "opening_hours": {"open_now": true}, "photos": [{"height": 1152, "html_attributions": ["<a href=\"https://maps.google.com/maps/contrib/115704628103306669052\">Ruff Neon Signs &amp; Lighting Maintenance Inc.</a>"], "photo_reference": "AXQCQNQ1L9qKPH4euDjAWuQfkP0AyCS-52LPZNJm4wTCZXvVrK0er2bmOoEW5R96lLob5BG1UsLZMIuHvIbRu_LsdwBqGS3kMSF0izNUI7twQVvXXge6Z4o2JN48P7SdZsbrQNPz95kZFNdjE7RXgqa-Eik6oIeWXuVR2MmznUVUsc7p1JFu40RSpgQY58HxmJYEzDpxEo4jrFugevVXe53dko62eRbMGJsNXIZ0yLIH1mC9ZZZD9lz4OBlwQjOYBwpxxSewdAXXKqEp-UHItEem43-ZhUyLo0jOl-6CEA2xoDdLrdKmih4", "width": 2048}], "place_id": "ChIJIyo3LKCkMYgRuZUYuoDZj30", "plus_code": {"compound_code": "PPCV+P5 Painesville, Ohio", "global_code": "86HWPPCV+P5"}, "rating": 4.8, "reference": "ChIJIyo3LKCkMYgRuZUYuoDZj30", "types": ["electrician", "general_contractor", "point_of_interest", "store", "establishment"], "user_ratings_total": 24}, {"business_status": "OPERATIONAL", "formatted_address": "2810 W 13th St, Ashtabula, OH 44004, United States", "geometry": {"location": {"lat": 41.8875801, "lng": -80.8227917}, "viewport": {"northeast": {"lat": 41.88902827989273, "lng": -80.82144287010728}, "southwest": {"lat": 41.88632862010728, "lng": -80.82414252989273}}}, "icon": "https://maps.gstatic.com/mapfiles/place_api/icons/v1/png_71/generic_business-71.png", "icon_background_color": "#7B9EB0", "icon_mask_base_uri": "https://maps.gstatic.com/mapfiles/place_api/icons/v2/generic_pinlet", "name": "Precision Marketing & Advertising", "opening_hours": {"open_now": true}, "photos": [{"height": 1792, "html_attributions": ["<a href=\"https://maps.google.com/maps/contrib/114342807101756428309\">A Google User</a>"], "photo_reference": "AXQCQNQ6eiE5kLYvNyXTeFs0TikvLIujyTfe1loGWo3xwQ2iTWR7kfdcjio3wdYDbGtWU3t6WMDfxEPs04tvGD9UvVQdgOxajIOcCxqNpnC6sVM7OqxYzmovSlV5_Pitrhi-Je4aHpo9eYJENeIzzKCJqwmOQ5oW9guTOAOv2i6EEsxMshvdqzu86Rk2stxpRyiWzk2Qt-aoNPS9aA0mdEJ_OVTHqNApmGheSXYP2D9LxJnhPtPA2aqww6Z0_C8GpTVEM0OooVJdNuozGkSM8UE8wxxc8MQgHNfe0rh8Y4UiKlB2JtfJsKM", "width": 828}], "place_id": "ChIJgb5wrRL1MYgRMY770ElBIFw", "plus_code": {"compound_code": "V5QG+2V Ashtabula, Ohio", "global_code": "86HXV5QG+2V"}, "reference": "ChIJgb5wrRL1MYgRMY770ElBIFw", "types": ["point_of_interest", "establishment"]}, {"business_status": "OPERATIONAL", "formatted_address": "4148 Main Ave, Ashtabula, OH 44004, United States", "geometry": {"location": {"lat": 41.8693677, "lng": -80.7804752}, "viewport": {"northeast": {"lat": 41.87076367989272, "lng": -80.77919157010727}, "southwest": {"lat": 41.86806402010728, "lng": -80.78189122989272}}}, "icon": "https://maps.gstatic.com/mapfiles/place_api/icons/v1/png_71/civic_building-71.png", "icon_background_color": "#7B9EB0", "icon_mask_base_uri": "https://maps.gstatic.com/mapfiles/place_api/icons/v2/civic-bldg_pinlet", "name": "IdentoGO", "place_id": "ChIJ0wlex2wfMogRtsDS0nlyX9w", "plus_code": {"compound_code": "V699+QR Ashtabula, Ohio", "global_code": "86HXV699+QR"}, "rating": 3, "reference": "ChIJ0wlex2wfMogRtsDS0nlyX9w", "types": ["point_of_interest", "establishment"], "user_ratings_total": 9}, {"business_status": "OPERATIONAL", "formatted_address": "3021 Avondale Ave, Ashtabula, OH 44004, United States", "geometry": {"location": {"lat": 41.8794494, "lng": -80.7791336}, "viewport": {"northeast": {"lat": 41.88079752989272, "lng": -80.77765702010727}, "southwest": {"lat": 41.87809787010728, "lng": -80.78035667989272}}}, "icon": "https://maps.gstatic.com/mapfiles/place_api/icons/v1/png_71/generic_business-71.png", "icon_background_color": "#7B9EB0", "icon_mask_base_uri": "https://maps.gstatic.com/mapfiles/place_api/icons/v2/generic_pinlet", "name": "Radical Designs", "opening_hours": {"open_now": true}, "photos": [{"height": 3456, "html_attributions": ["<a href=\"https://maps.google.com/maps/contrib/108007639443495364676\">A Google User</a>"], "photo_reference": "AXQCQNQwCkKtATyygKjHvHhUFHGdQn0bRMy-LMRR2UT0j8Qw-Dysad__sCgmMyNhbLqtz2wVmuCW6LMgBZPpjOWNU2WMSK0ui6Xk0IrLMLq_bf9aCH-iZhFumlQXZ0_wBuO3iUtJE4j2QaCKrELHD4-to_XfOMEoW7ho1WbwJ1eBRdXK0LXWGqGBvYUSiP6FRhdP_OVftFFRP-arCeCsNJwnltaQN46c8a2hpD3ZFx016V2LnJ_uRLNGLDNoZU5Adq6N_yMXs-qRh8GiVvmZO1Y5y7BL4xQnSC6wwZ3ztlsvYjeY4sAkLMk", "width": 5184}], "place_id": "ChIJaQ1SGBIfMogRupGg5PJYUCg", "plus_code": {"compound_code": "V6HC+Q8 Ashtabula, Ohio", "global_code": "86HXV6HC+Q8"}, "reference": "ChIJaQ1SGBIfMogRupGg5PJYUCg", "types": ["point_of_interest", "establishment"]}, {"business_status": "OPERATIONAL", "formatted_address": "4542 Main Ave, Ashtabula, OH 44004, United States", "geometry": {"location": {"lat": 41.86559099999999, "lng": -80.78197209999999}, "viewport": {"northeast": {"lat": 41.86695757989273, "lng": -80.78069507010727}, "southwest": {"lat": 41.86425792010728, "lng": -80.78339472989272}}}, "icon": "https://maps.gstatic.com/mapfiles/place_api/icons/v1/png_71/shopping-71.png", "icon_background_color": "#4B96F3", "icon_mask_base_uri": "https://maps.gstatic.com/mapfiles/place_api/icons/v2/shopping_pinlet", "name": "Playall Awards & Engraving", "place_id": "ChIJeU6zVScgMogRRVutWpymecI", "plus_code": {"compound_code": "V689+66 Ashtabula, Ohio", "global_code": "86HXV689+66"}, "rating": 4.2, "reference": "ChIJeU6zVScgMogRRVutWpymecI", "types": ["point_of_interest", "store", "establishment"], "user_ratings_total": 13}, {"business_status": "OPERATIONAL", "formatted_address": "1108 Bridge St, Ashtabula, OH 44004, United States", "geometry": {"location": {"lat": 41.8992343, "lng": -80.7995172}, "viewport": {"northeast": {"lat": 41.90070427989271, "lng": -80.79826437010728}, "southwest": {"lat": 41.89800462010727, "lng": -80.80096402989271}}}, "icon": "https://maps.gstatic.com/mapfiles/place_api/icons/v1/png_71/generic_business-71.png", "icon_background_color": "#7B9EB0", "icon_mask_base_uri": "https://maps.gstatic.com/mapfiles/place_api/icons/v2/generic_pinlet", "name": "Crooked Nail Customs", "opening_hours": {}, "photos": [{"height": 2988, "html_attributions": ["<a href=\"https://maps.google.com/maps/contrib/108306207259603880587\">Crooked Nail Customs</a>"], "photo_reference": "AXQCQNR1hoolKP0LPjOuPx6a3Sl2bWbbQKuzDhmcOZYd6zE_YGX1rNxHoa6Gef6mcgQ4CSWNmzyPiV2efCkV29GcQNGuRI91MrV8djiz7bFoxKPKNeGEQNXQD6DHio5mUbg-fmB7Iyk2PbFm_HAetgc7XSm3xUrLbCGdwdbu6AugAGl74-7x8T9EK8pD94xx2I6zYcPnDIel7a01AoxWfTXyuQ0G0JK9uJEdXJRh4kp5iE3fjpmkBjuFodlhEUVtJa0t2qMr1HZYNGy6LXVYzE_LJPmaPESwLBJIqp2qM1-aHKgXWtMHUTg", "width": 5312}], "place_id": "ChIJ1eTVLNAfMogRGS7zN1ktjvE", "plus_code": {"compound_code": "V6X2+M5 Ashtabula, Ohio", "global_code": "86HXV6X2+M5"}, "rating": 5, "reference": "ChIJ1eTVLNAfMogRGS7zN1ktjvE", "types": ["general_contractor", "point_of_interest", "home_goods_store", "store", "establishment"], "user_ratings_total": 8}, {"business_status": "OPERATIONAL", "formatted_address": "70 Ross Rd, Ashtabula, OH 44004, United States", "geometry": {"location": {"lat": 41.8564273, "lng": -80.7842405}, "viewport": {"northeast": {"lat": 41.85782482989273, "lng": -80.78281742010728}, "southwest": {"lat": 41.85512517010728, "lng": -80.78551707989271}}}, "icon": "https://maps.gstatic.com/mapfiles/place_api/icons/v1/png_71/generic_business-71.png", "icon_background_color": "#7B9EB0", "icon_mask_base_uri": "https://maps.gstatic.com/mapfiles/place_api/icons/v2/generic_pinlet", "name": "MDR Corporation", "opening_hours": {"open_now": true}, "photos": [{"height": 466, "html_attributions": ["<a href=\"https://maps.google.com/maps/contrib/113661087401084887794\">A Google User</a>"], "photo_reference": "AXQCQNRkPJqcK9fPz6Id5ENpAOB7JsK0lhtfs7LRgjjbhuomMRpeVcDGKEYNFOufgdB-kofqGZrvfUTxHcHzxGa_wlMUd6TZk3wi8ASAnycHEP3NvXbsOj03bPeVHIUn5PZ7XT_4Ii6_OWOS6UvkiFjf6Kcd5V2Qt7V7CZHEsd4dAQx5q75QPP7iZclExxCwrigjaFbYVLNMzsjOav51Ui7eIX0in52Xdf464e-GNfJOoWw1AqnlRlW1ki4xGx-MSvXdl9PP_YYv4-wARZiZRL19jI4K6xiWqV0em5fJPkZxkjq0S1QjDvc", "width": 720}], "place_id": "ChIJpWFLMSMgMogRtxig2SICjxg", "plus_code": {"compound_code": "V648+H8 Ashtabula, Ohio", "global_code": "86HXV648+H8"}, "rating": 5, "reference": "ChIJpWFLMSMgMogRtxig2SICjxg", "types": ["point_of_interest", "establishment"], "user_ratings_total": 1}, {"business_status": "OPERATIONAL", "formatted_address": "1833 E 51st St, Ashtabula, OH 44004, United States", "geometry": {"location": {"lat": 41.8606762, "lng": -80.77070619999999}, "viewport": {"northeast": {"lat": 41.86198777989272, "lng": -80.76933837010728}, "southwest": {"lat": 41.85928812010728, "lng": -80.77203802989271}}}, "icon": "https://maps.gstatic.com/mapfiles/place_api/icons/v1/png_71/generic_business-71.png", "icon_background_color": "#7B9EB0", "icon_mask_base_uri": "https://maps.gstatic.com/mapfiles/place_api/icons/v2/generic_pinlet", "name": "Ashtabula County Republican Party", "opening_hours": {"open_now": false}, "photos": [{"height": 404, "html_attributions": ["<a href=\"https://maps.google.com/maps/contrib/100589065917756584099\">A Google User</a>"], "photo_reference": "AXQCQNSLMceygofvzHw0zxsMGPHXmqZajxU6lfMCfWXGXujHwB-tNA-nrnK-pf3-DOzdNbB0OJIFfbxB0x3tz3z7lHTeEqOYxIhDmd6Jig5Jd9MqOszXBaHvOrHiB_PNdNbXeVK47OIiXUHFGy-ht6JP3PGlpMX-ZLV6x29VqOn8njhq5H4otL_mgG6_LRkbJvyehtVmsJcniaSn9-qXGUXtvSgOC3la4b1ezx091gddW0jfN998gwkDsHK0g7YXdpysY_b87J9dv39rDR_ypZA5GQHL_IsOj2JGbOiabwT565-HvB7wQXA", "width": 720}], "place_id": "ChIJI-O599UhMogRm5ulJQ0fGi4", "plus_code": {"compound_code": "V66H+7P Ashtabula, Ohio", "global_code": "86HXV66H+7P"}, "rating": 4.5, "reference": "ChIJI-O599UhMogRm5ulJQ0fGi4", "types": ["point_of_interest", "establishment"], "user_ratings_total": 20}, {"business_status": "OPERATIONAL", "formatted_address": "314 W Dussel Dr, Maumee, OH 43537, United States", "geometry": {"location": {"lat": 41.5829483, "lng": -83.6703931}, "viewport": {"northeast": {"lat": 41.58437772989272, "lng": -83.66906082010726}, "southwest": {"lat": 41.58167807010727, "lng": -83.67176047989271}}}, "icon": "https://maps.gstatic.com/mapfiles/place_api/icons/v1/png_71/shopping-71.png", "icon_background_color": "#4B96F3", "icon_mask_base_uri": "https://maps.gstatic.com/mapfiles/place_api/icons/v2/shopping_pinlet", "name": "FASTSIGNS of Maumee, OH", "opening_hours": {"open_now": true}, "photos": [{"height": 1202, "html_attributions": ["<a href=\"https://maps.google.com/maps/contrib/117485398608425479969\">FASTSIGNS</a>"], "photo_reference": "AXQCQNR34xoDHlGnjFlLzbBy_6irPhYb-0H3KS5Fh8Pk-xA4fBCiVjPJGFAnv_E-dNFh2ZnkkvdNVvQpaLR6xngdjF4kvMbX4EKo_sMHpld04EcZbEq56uqu-eaCg8VX6Q0NcYH1ocGEK-IKapa9G26zHftAzpXpxroTelVUk2eLkWMiY-IDsA8UG1yCgF6-IHA8GrOzanCXqUhZBz0ttLi4p_ErPxaBfReKkHsYzZ2AQDuW2rAcYNjmImHWP5LDpUrNUe9X4rR5VPiy3_1nFWSttC8n9NWoqUGcKerKkuI_M-3LdJbvQmY", "width": 1800}], "place_id": "ChIJXUJXfaxwPIgRYHbnM-VQJPQ", "plus_code": {"compound_code": "H8MH+5R Maumee, Ohio", "global_code": "86HRH8MH+5R"}, "price_level": 2, "rating": 4.9, "reference": "ChIJXUJXfaxwPIgRYHbnM-VQJPQ", "types": ["point_of_interest", "store", "establishment"], "user_ratings_total": 53}, {"business_status": "OPERATIONAL", "formatted_address": "1440 W Prospect Rd, Ashtabula, OH 44004, United States", "geometry": {"location": {"lat": 41.8604324, "lng": -80.80271669999999}, "viewport": {"northeast": {"lat": 41.86178407989272, "lng": -80.80142492010728}, "southwest": {"lat": 41.85908442010727, "lng": -80.80412457989272}}}, "icon": "https://maps.gstatic.com/mapfiles/place_api/icons/v1/png_71/civic_building-71.png", "icon_background_color": "#7B9EB0", "icon_mask_base_uri": "https://maps.gstatic.com/mapfiles/place_api/icons/v2/civic-bldg_pinlet", "name": "Greenelight Workforce", "opening_hours": {"open_now": true}, "place_id": "ChIJhybWTQQgMogRXfe6XKGGk7E", "plus_code": {"compound_code": "V56W+5X Ashtabula, Ohio", "global_code": "86HXV56W+5X"}, "rating": 5, "reference": "ChIJhybWTQQgMogRXfe6XKGGk7E", "types": ["point_of_interest", "establishment"], "user_ratings_total": 3}, {"business_status": "OPERATIONAL", "formatted_address": "3540 N Ridge Rd E, Ashtabula, OH 44004, United States", "geometry": {"location": {"lat": 41.8800816, "lng": -80.74892960000001}, "viewport": {"northeast": {"lat": 41.88143217989272, "lng": -80.74760622010727}, "southwest": {"lat": 41.87873252010727, "lng": -80.75030587989272}}}, "icon": "https://maps.gstatic.com/mapfiles/place_api/icons/v1/png_71/generic_business-71.png", "icon_background_color": "#7B9EB0", "icon_mask_base_uri": "https://maps.gstatic.com/mapfiles/place_api/icons/v2/generic_pinlet", "name": "ModWash", "opening_hours": {"open_now": true}, "photos": [{"height": 3264, "html_attributions": ["<a href=\"https://maps.google.com/maps/contrib/114012430625991999459\">HORROR FAN</a>"], "photo_reference": "AXQCQNTi5przi_il1foxYivAer-7T40A9sdbxIvDwHVGqptU77pGG-DmUStENpNGWVOKenAISO-BjQfn3_Nos8erQEuctHdaNosphuyPh6pEc868M3kJiZ9ZzFnyfDTsiEwTj9qlzrE8520XchfB4qUrDaBZVRuZljCwgQuaCnUBkviGNVCKyjzhpZGDo19EU-YYaKEQEuZ9kcy42YVTZyUdwW5DoRwS0y8kjrkOVGBf5UDLGQtq3wHoFf4xRLxqAJ7vckq9xI9NOd3X8ZrCkYChOUwEHJO3gSIzSa9XqHwwCIu_MnxWaeeHS2Vvg9lhifvcNZ441pJOhCgn7omPYxmE0_DxYQFAE88WvRlXyNsAkUzIDNZiDrFQ38JoJ10_7xTGzyykk0VMmOLyi5o1EEWea_wHPXt-OttSAVTIHpgM15C5AsrPbyzFEtxMMt4km0kaU53EoHqfpXr5ZARBoVlJ7E9Tq_E6jtnJNvkrDR9txrN1nBlj7saxBzhwET_cEZO6QEVmGj7ukbUFBSWF4AAq5YBD2_EAOxORHOf5AB0HVdzMqzLPWhqwCtynFzv8MrcQ_dWHaK9Z", "width": 1632}], "place_id": "ChIJE9DnTs4fMogR37kM598xIw4", "plus_code": {"compound_code": "V7J2+2C Ashtabula, Ohio", "global_code": "86HXV7J2+2C"}, "rating": 4.9, "reference": "ChIJE9DnTs4fMogR37kM598xIw4", "types": ["car_wash", "point_of_interest", "establishment"], "user_ratings_total": 1525}, {"business_status": "OPERATIONAL", "formatted_address": "4200 State Rd, Ashtabula, OH 44004, United States", "geometry": {"location": {"lat": 41.8677607, "lng": -80.7718501}, "viewport": {"northeast": {"lat": 41.86914822989272, "lng": -80.77050342010727}, "southwest": {"lat": 41.86644857010727, "lng": -80.77320307989271}}}, "icon": "https://maps.gstatic.com/mapfiles/place_api/icons/v1/png_71/generic_business-71.png", "icon_background_color": "#7B9EB0", "icon_mask_base_uri": "https://maps.gstatic.com/mapfiles/place_api/icons/v2/generic_pinlet", "name": "Ashtabula County Community Action Agency", "opening_hours": {"open_now": true}, "photos": [{"height": 2992, "html_attributions": ["<a href=\"https://maps.google.com/maps/contrib/101922087737094480594\">Krissy mitchell</a>"], "photo_reference": "AXQCQNQf6ih3BEVeU8Th4e3N_MNVuPpvnCrUKJThBd4HDQuatsFDBRplDVAPN3W0-qUNSzuVJI7pGEkMNDlIYsHkosJJ576kJ8HLbGYScqMJ9ZfYeh_iJ_S12Qp46r5KrjaQRAA2kuaDGE_hEv8POZKb1yDtCAc5vwORTnIfVr4JEm9oPeNCx12kNtjebF5ep-bBNkld0iT2jfhXANpr_3rTjGMt1-iPk6lgoOqOn5n2WY0-UTEnIJt4lTMjOTBadkyUcEoV5sRFKuGNodjkE2kPLLs5WuAE_2iiW8Uac8ssLiSm4ZTWYv8zWp10LOz1TUCOiGums5xzTUYalXZd_9aQvHRr2-JhS1ttgZdziy3a9kr8u1K5ENUS1ecwlj-dwTsLktSdnVfZUodedfhAbrYss5-YyPmg1jxwQrWLd1Iz2e4X7WUWyr87Eb98ThYYfTxBC92VktlRjjooSqOh0MkeY01iRpIktmncjnelTs_Ct-Fu0s1lk-adGXUxUua4sBZVbVmHpBNk4j0UYR3Xzfc7KHOfOgUJsVbB-k34hlai6XHdCajwPtRtFIZpa2siJfZT3hxX9EGS", "width": 2992}], "place_id": "ChIJwwGwgO0fMogRm-suoPq0ns8", "plus_code": {"compound_code": "V69H+27 Ashtabula, Ohio", "global_code": "86HXV69H+27"}, "rating": 4.5, "reference": "ChIJwwGwgO0fMogRm-suoPq0ns8", "types": ["point_of_interest", "establishment"], "user_ratings_total": 98}, {"business_status": "OPERATIONAL", "formatted_address": "2600 W Prospect Rd, Ashtabula, OH 44004, United States", "geometry": {"location": {"lat": 41.8532038, "lng": -80.8188562}, "viewport": {"northeast": {"lat": 41.85460172989272, "lng": -80.81756622010728}, "southwest": {"lat": 41.85190207010727, "lng": -80.82026587989272}}}, "icon": "https://maps.gstatic.com/mapfiles/place_api/icons/v1/png_71/civic_building-71.png", "icon_background_color": "#7B9EB0", "icon_mask_base_uri": "https://maps.gstatic.com/mapfiles/place_api/icons/v2/civic-bldg_pinlet", "name": "Infinity Resources Ashtabula Staffing Center", "opening_hours": {"open_now": true}, "photos": [{"height": 1966, "html_attributions": ["<a href=\"https://maps.google.com/maps/contrib/104775096391645343575\">Infinity Resources Ashtabula Staffing Center</a>"], "photo_reference": "AXQCQNRm2Gcgpd2cE2I6XuBApqLls29pQINSXMWuLXpU81G9sj9frEuUd2q8zStvuLcipX0UGIvsQiZuGF9j_ZgiqA1ICHmky2hOF5nunKXD3Lai1V2FWKxfc4quL5AsxjXcvsrkhC7VkCnrUEVuFKRcjs9Siz-qL-C_CGSOlJESq7iMizaDbJTJbHzvYALscXnB5ksHeOkpydcRZP5pr8HnXpz5c4QLjJdT8ZF7CAXjBubtkEVHKqeDm5E0qpKFwxpNqXV4Jl9TmplMMFge7z4_Wp3nloBB9yJR-5zokNx_T5La30VLrso", "width": 1242}], "place_id": "ChIJ7WgtaqOKMYgR1dO9135hTkM", "plus_code": {"compound_code": "V53J+7F Ashtabula, Ohio", "global_code": "86HXV53J+7F"}, "rating": 4.1, "reference": "ChIJ7WgtaqOKMYgR1dO9135hTkM", "types": ["point_of_interest", "establishment"], "user_ratings_total": 16}, {"business_status": "OPERATIONAL", "formatted_address": "1005 Lake Ave, Ashtabula, OH 44004, United States", "geometry": {"location": {"lat": 41.890893, "lng": -80.805875}, "viewport": {"northeast": {"lat": 41.89226412989271, "lng": -80.80435102010728}, "southwest": {"lat": 41.88956447010727, "lng": -80.80705067989273}}}, "icon": "https://maps.gstatic.com/mapfiles/place_api/icons/v1/png_71/generic_business-71.png", "icon_background_color": "#13B5C7", "icon_mask_base_uri": "https://maps.gstatic.com/mapfiles/place_api/icons/v2/generic_pinlet", "name": "All Occasions-Your Imagination Magic Studio Jim Hathy Magical Entertainer", "opening_hours": {"open_now": true}, "photos": [{"height": 576, "html_attributions": ["<a href=\"https://maps.google.com/maps/contrib/102947319137149465041\">All Occasions-Your Imagination Magic Studio Jim Hathy Magical Entertainer</a>"], "photo_reference": "AXQCQNSWeq3Jwb-PLvL76nyKSC6XA6jhW7wYU5dg4bC_MUTSR6u5sAbcmX3va1RvrUk_kUQDlQxPa6_DjexXC4rSUtbtVN0J3d70Wniv9VOK_n8UN-8DrOIicOiZ_uykCVhKSwVigaWtWySEtSlStmrAjDOjjIvpaUHZZIKk33d0v6J-WB9u3awLY-qftiLYHLN8XqHH_5zVLIG7otAU-_EWO0V1GP9B-0mUKd66swLOY-sFfdIz80JZ5L4iw3t7bLpke_rE7vxA97olsJS8zHt6V8mcbjd6pmbY9q3rhXrJw3bEUAiQpPc", "width": 1024}], "place_id": "ChIJ8VOjlN4fMogRXRgXlIDKiCs", "plus_code": {"compound_code": "V5RV+9J Ashtabula, Ohio", "global_code": "86HXV5RV+9J"}, "rating": 5, "reference": "ChIJ8VOjlN4fMogRXRgXlIDKiCs", "types": ["point_of_interest", "store", "establishment"], "user_ratings_total": 5}, {"business_status": "OPERATIONAL", "formatted_address": "457 Lake Ave, Ashtabula, OH 44004, United States", "geometry": {"location": {"lat": 41.8965593, "lng": -80.8051511}, "viewport": {"northeast": {"lat": 41.89783617989272, "lng": -80.80374402010727}, "southwest": {"lat": 41.89513652010728, "lng": -80.80644367989271}}}, "icon": "https://maps.gstatic.com/mapfiles/place_api/icons/v1/png_71/bar-71.png", "icon_background_color": "#FF9E67", "icon_mask_base_uri": "https://maps.gstatic.com/mapfiles/place_api/icons/v2/bar_pinlet", "name": "Jiggy's Classy Axe", "opening_hours": {"open_now": false}, "photos": [{"height": 1080, "html_attributions": ["<a href=\"https://maps.google.com/maps/contrib/102224732068691699159\">Kyle Titus</a>"], "photo_reference": "AXQCQNQyeO6MIE-FEzWGvZq23bPsidBQOwLHcQhCmICn7pk00opCNDOvsFh9P4WY_bNoa_fJOwZwO_wPXL0-O8lUdMZO7wSr_CJZtro1aWiNCZjHL3904H4L7Mi9u3q07PDZ_gPJzx0QLFAu1A8AvBQX8LHpGLx4uF4-wwNmwI4cFi2FIC_Zqgvk1Q-cWRHlBPkCzQTI58N5QAt-UgXFrMO6QMruAxdpas9OMCMmiMoLSq_GebQo0L9NzJpTL2NA1pfCv0uZMJLKFJGxEv3HbDhMxWPHp4qYwEeV_Adp9x9PfeuyA-hzjaZ4kFIFQGoqqJgNxWfqD8RuP7F1uDGIEE_oPxEgu5EYc-sds3mgtIHGmB1uLCIn0IdWThmMdSdDMlvjtrVeTA1AZ-npViiIJ5cKLjhA0iWlPC42wVZ60kPO-wy2elb9eVShtnFYQ3UJ5zwRdaFE7djaMN_o-HcEDaWbvl9J3KeBZrZIklvLYSTyG8Gu9zAGgAL9mPrHAt_i6Hgc2wZ4AS56OmLYzn9LYlKEFrBFEPPX5E21BQVyWJKDU6t6kRe02HjD3nfSsIpKmhPStKqJ2JeNIunVbg", "width": 1920}], "place_id": "ChIJHcgXwT8fMogRBWaiA_GPIC0", "plus_code": {"compound_code": "V5WV+JW Ashtabula, Ohio", "global_code": "86HXV5WV+JW"}, "rating": 5, "reference": "ChIJHcgXwT8fMogRBWaiA_GPIC0", "types": ["bar", "point_of_interest", "establishment"], "user_ratings_total": 21}]