[{"business_status": "OPERATIONAL", "formatted_address": "133 Wall St, Albertville, AL 35951, United States", "geometry": {"location": {"lat": 34.256229, "lng": -86.1801053}, "viewport": {"northeast": {"lat": 34.25758707989272, "lng": -86.17867902010727}, "southwest": {"lat": 34.25488742010728, "lng": -86.1813786798927}}}, "icon": "https://maps.gstatic.com/mapfiles/place_api/icons/v1/png_71/generic_business-71.png", "icon_background_color": "#7B9EB0", "icon_mask_base_uri": "https://maps.gstatic.com/mapfiles/place_api/icons/v2/generic_pinlet", "name": "Surgical Associates of Marshall County", "opening_hours": {"open_now": true}, "photos": [{"height": 475, "html_attributions": ["<a href=\"https://maps.google.com/maps/contrib/118362853919072062358\">Surgical Associates of Marshall County</a>"], "photo_reference": "AXQCQNSvUYsn1ST5RX1O6DPap2bRpbQOfhAGc9a1tGjIFfJ5uGAvA3ooE-L9ABkSxlKX9AWXs41AutLaRJL6PTi-tciGNBP2cJFdg8w6YUY8g9BMiMMjaiU1CfAY8w5Wg6LRokhdBlVchd2rXEiDx6u8dzmdnCwekoE3ASV4Orx_2_qqf_aCVltHke3ZCtsJGP3zfq5El4UGxcMpB5s4JOYew-5FY-677wHeNJdPHfoeAjXm99NO7oMvJIh9rbADtPaU_tASG1fCxiUVXmOrqiyfCqFly3M24odVTdWRjEx0tWke0-3Jh74", "width": 844}], "place_id": "ChIJJZDPEKQciogRC3xM9mptmVA", "plus_code": {"compound_code": "7R49+FW Albertville, Alabama", "global_code": "866M7R49+FW"}, "rating": 4.9, "reference": "ChIJJZDPEKQciogRC3xM9mptmVA", "types": ["doctor", "health", "point_of_interest", "establishment"], "user_ratings_total": 48}, {"business_status": "OPERATIONAL", "formatted_address": "52 Business Park Dr, Albertville, AL 35951, United States", "geometry": {"location": {"lat": 34.2777146, "lng": -86.2003685}, "viewport": {"northeast": {"lat": 34.27910442989272, "lng": -86.19909222010726}, "southwest": {"lat": 34.27640477010728, "lng": -86.20179187989271}}}, "icon": "https://maps.gstatic.com/mapfiles/place_api/icons/v1/png_71/generic_business-71.png", "icon_background_color": "#7B9EB0", "icon_mask_base_uri": "https://maps.gstatic.com/mapfiles/place_api/icons/v2/generic_pinlet", "name": "The Orthopaedic Center", "opening_hours": {"open_now": true}, "photos": [{"height": 321, "html_attributions": ["<a href=\"https://maps.google.com/maps/contrib/110513686405653695320\">A Google User</a>"], "photo_reference": "AXQCQNT8mKWd-GfmDeZNw5UttDfZZyQAtMeLh_eah92-uEfWeLdcouyXa-CX94LUtIZxuUES-0oYMiKC-yQ8OKUJAn7YoaEWjcBHf2lpcx-HGoCNuZ6EM94wyf2ab8jQ5BWeSFwKuvqdYqqEW1-skeRjfGZ8ndtk8jBVYsN6bUEDLkEr_Lnzlm5U7j_-Riz3BoWmn6o6l19gzUTeghv-GKs4T0pIu5M-Om6aKSvpEfNDINyaUw_m-_CNA6pAqHFbD3PrsWXNt1qnquDz0Bc2C7NLTP2ir6uNZxFur0Na3uTpGctypSi8SNY", "width": 720}], "place_id": "ChIJ1RDQcv4DiogRb7bwEtqvYi4", "plus_code": {"compound_code": "7QHX+3Q Albertville, Alabama", "global_code": "866M7QHX+3Q"}, "rating": 4.9, "reference": "ChIJ1RDQcv4DiogRb7bwEtqvYi4", "types": ["doctor", "health", "point_of_interest", "establishment"], "user_ratings_total": 141}, {"business_status": "OPERATIONAL", "formatted_address": "7938 AL-69 #120, Guntersville, AL 35976, United States", "geometry": {"location": {"lat": 34.3647801, "lng": -86.4208266}, "viewport": {"northeast": {"lat": 34.36607467989271, "lng": -86.41948762010728}, "southwest": {"lat": 34.36337502010727, "lng": -86.42218727989273}}}, "icon": "https://maps.gstatic.com/mapfiles/place_api/icons/v1/png_71/generic_business-71.png", "icon_background_color": "#7B9EB0", "icon_mask_base_uri": "https://maps.gstatic.com/mapfiles/place_api/icons/v2/generic_pinlet", "name": "Surgical Associates of Marshall County", "opening_hours": {"open_now": true}, "photos": [{"height": 475, "html_attributions": ["<a href=\"https://maps.google.com/maps/contrib/106051843827565624789\">Surgical Associates of Marshall County</a>"], "photo_reference": "AXQCQNSN9YJku61hUs_Wa5NsIWp986rcgRKpN-bf34vMNssLD6H34lg7PdKzLON0Og7LClg86ZeQG-CTPe9vNcw8lJv1TyYTcQRjCzafyNMquVDsPH-UC17LzBVfvcrw9XvyMPcaYuGd5tbOelaKIY_pcUxh-b8hjjwUjH6rIdsPy14NRQpY5e6d_GblEgt8dxqBxhNJ3lro6cwppirM2ecv5Re41qXZ9j8J0anfIQnkJYf8sKyy5ho-7EKNJavoX_hX78Dnh7ylsmP3ME6D5D7EV9fWn2P2mNzm9RNPE5pc2KSvDRTtOJA", "width": 844}], "place_id": "ChIJ8bDp9FTjiYgRwzEnVLEEjhc", "plus_code": {"compound_code": "9H7H+WM Guntersville, Alabama", "global_code": "866M9H7H+WM"}, "rating": 5, "reference": "ChIJ8bDp9FTjiYgRwzEnVLEEjhc", "types": ["health", "point_of_interest", "establishment"], "user_ratings_total": 92}, {"business_status": "OPERATIONAL", "formatted_address": "200 Sand Mountain Dr, Albertville, AL 35950, United States", "geometry": {"location": {"lat": 34.2665278, "lng": -86.2089489}, "viewport": {"northeast": {"lat": 34.26800102989272, "lng": -86.20753772010727}, "southwest": {"lat": 34.26530137010727, "lng": -86.21023737989272}}}, "icon": "https://maps.gstatic.com/mapfiles/place_api/icons/v1/png_71/generic_business-71.png", "icon_background_color": "#7B9EB0", "icon_mask_base_uri": "https://maps.gstatic.com/mapfiles/place_api/icons/v2/generic_pinlet", "name": "Oral Surgery Associates", "photos": [{"height": 2448, "html_attributions": ["<a href=\"https://maps.google.com/maps/contrib/105259438543010517686\">Kimberly Nesbit</a>"], "photo_reference": "AXQCQNSzOqne8jKyeKxE8V6yozHJ03miRtq2X-wkvAiLrPObnwmeYqwmTbkoFqgdqhKve9vWt6kLe-koyLAZ33fY-3Gr3YwlabDxiek-HuRltQqW1J-Ec0ADK1S3BxNsuAfPbc-DiGoZig7FT3uusOjHpW-UF9O1AF-M8D94V99hEdjv8kUKjjAxhlKdfesc_-6gwJjzocLIWjcrbDc84ncLvL_0UwW2CHmgzBlhkRPL9OLO7_CLwjoUoWMq3lnIEyIszW0_DhGW0-VCUvrMWobWmYGvtc2UH_l9jGbIX97Y1_VoFVsbnctyVWZOL-k7dp2a2QGvDIGFI--7RASpFLamWzqtoeAMSmTnhXh56BeSYNPqqGy4BZgIl4K_kijvnACO69FHpoiIP1w6g1rEkfC9D2238ZMMaVanySV_XVmru7m9o0eG-YKr510PgPe_u-KLwazdY8jxx_9ginxjNqVPg51ZL9-CGVJ89-uKERT1fDQRCXikpeDzL-qgpowanBwq1a5gUuvgGHE0t8QSTvogmSwqKwvarzZBfekboatk0wbA1ZgHoaNrTBc2PWSiSajm4Q7Xj4rPgKKmeQ", "width": 1836}], "place_id": "ChIJ2ysYm9MciogRnZn6AIW6dsY", "plus_code": {"compound_code": "7Q8R+JC Albertville, Alabama", "global_code": "866M7Q8R+JC"}, "rating": 4.3, "reference": "ChIJ2ysYm9MciogRnZn6AIW6dsY", "types": ["doctor", "health", "point_of_interest", "establishment"], "user_ratings_total": 139}, {"business_status": "OPERATIONAL", "formatted_address": "2505 US-431, Boaz, AL 35957, United States", "geometry": {"location": {"lat": 34.222103, "lng": -86.1609084}, "viewport": {"northeast": {"lat": 34.22359227989272, "lng": -86.15950512010727}, "southwest": {"lat": 34.22089262010727, "lng": -86.16220477989272}}}, "icon": "https://maps.gstatic.com/mapfiles/place_api/icons/v1/png_71/hospital-71.png", "icon_background_color": "#F88181", "icon_mask_base_uri": "https://maps.gstatic.com/mapfiles/place_api/icons/v2/hospital-H_pinlet", "name": "Marshall Medical Center South", "opening_hours": {"open_now": true}, "photos": [{"height": 2624, "html_attributions": ["<a href=\"https://maps.google.com/maps/contrib/118112881680182186291\">Marshall Medical Center South</a>"], "photo_reference": "AXQCQNTmBloAvxUB_WKQIKRepd7SFY-a6_JavRNQWxOgCSXJs3yH_U-axDa8cKa4DDYZp0vNgZNjcWebNs97G-w_su3T_gc9r6f9zSAacDnNFLYQOQv0jbueRfmhYNKuVA4xAeyJV5JmhNDxJSsQnK2Gxsr4yIFdBAp_GPACcwj7HOqKpazrC7iTwnwXohiZzFWGcf9w154JZbQjcVYuc2nhLpUbtcLbvzMyxiAAFdY8-fZI57zVkZUTf65UzE35Iq6vcB-eghIRj2hCVntfgr_5rioLMLu1oqLX_iGNUb7kc3IYs2Hald8", "width": 3936}], "place_id": "ChIJz8FV95sbiogRJzdjx373Zvo", "plus_code": {"compound_code": "6RCQ+RJ Boaz, Alabama", "global_code": "866M6RCQ+RJ"}, "rating": 4.6, "reference": "ChIJz8FV95sbiogRJzdjx373Zvo", "types": ["hospital", "doctor", "health", "point_of_interest", "establishment"], "user_ratings_total": 2800}, {"business_status": "OPERATIONAL", "formatted_address": "9524 US-431, Albertville, AL 35950, United States", "geometry": {"location": {"lat": 34.28937519999999, "lng": -86.24050489999999}, "viewport": {"northeast": {"lat": 34.29068442989272, "lng": -86.23947492010728}, "southwest": {"lat": 34.28798477010728, "lng": -86.24217457989272}}}, "icon": "https://maps.gstatic.com/mapfiles/place_api/icons/v1/png_71/generic_business-71.png", "icon_background_color": "#7B9EB0", "icon_mask_base_uri": "https://maps.gstatic.com/mapfiles/place_api/icons/v2/generic_pinlet", "name": "Clinical Urology Associates - Albertville", "opening_hours": {"open_now": true}, "photos": [{"height": 4032, "html_attributions": ["<a href=\"https://maps.google.com/maps/contrib/104339019784616752515\">A Google User</a>"], "photo_reference": "AXQCQNRS7LM14bx-ekT8KQgfyoxhKlilZG47FZ8DJ6CHdmgQR50FX2u4ytaJUvUSjp7oKumuaTMmws1waH28dY3-mYwcYxjT6b-KJbpyro7JmO31bI8pgIsxGBPrbofGJKa708enPfx9FrMNGzczMliL3Q0gMb8a7-ohCgwgm88hz6VzZMrMpPMzEuOK6BBgYJoGM3I4PWkbee-uI2s3ehQOAVyZEMRqGz6EvI8y5LI6gNF8KCW7RVA17_C1_fdg1vvf9pGGGlSQUyyCaqBqJ3qe_M2gxMEi7DWQYu7-I8Tw9vEOz-BjNPvNf9S0oeXoLT4TMNfrNehB36qR-G5_xwbItS97VHTTyNJpudz9X4pLEeTiNlFP2w73LNkVB-ScT0SUXniSmbnFOoIdOdUA6E0sUnaOJvNe9SOZPBeD3EkuITkBtg7OEL6MeVBR4kWjHpG3vpQc86SF2FQ1bkNCtDy3NnOH8WgovXmBtW42Z-knZsgj1dgWbnCumJRBZ9_xxShWS3Jj8b4_PYJPWV3jXx1I1tR3-Zhqk6GJa0pvqKfw6j_VsnojUJnZXUQatIx_F7-JKDd0ZSBy", "width": 3024}], "place_id": "ChIJzfnchhwDiogR5s23EHeB2mg", "plus_code": {"compound_code": "7QQ5+QQ Albertville, Alabama", "global_code": "866M7QQ5+QQ"}, "rating": 2.4, "reference": "ChIJzfnchhwDiogR5s23EHeB2mg", "types": ["health", "point_of_interest", "establishment"], "user_ratings_total": 14}, {"business_status": "OPERATIONAL", "formatted_address": "1939 Patterson St, Guntersville, AL 35976, United States", "geometry": {"location": {"lat": 34.3391, "lng": -86.3140207}, "viewport": {"northeast": {"lat": 34.34042492989272, "lng": -86.31258287010728}, "southwest": {"lat": 34.33772527010728, "lng": -86.31528252989273}}}, "icon": "https://maps.gstatic.com/mapfiles/place_api/icons/v1/png_71/generic_business-71.png", "icon_background_color": "#7B9EB0", "icon_mask_base_uri": "https://maps.gstatic.com/mapfiles/place_api/icons/v2/generic_pinlet", "name": "Cornerstone General Surgery Clinic, Inc.", "place_id": "ChIJ39w-TxT5iYgR7nuWiZ6d6kE", "plus_code": {"compound_code": "8MQP+JC Guntersville, Alabama", "global_code": "866M8MQP+JC"}, "rating": 5, "reference": "ChIJ39w-TxT5iYgR7nuWiZ6d6kE", "types": ["doctor", "health", "point_of_interest", "establishment"], "user_ratings_total": 3}, {"business_status": "OPERATIONAL", "formatted_address": "418 S 5th St, Gadsden, AL 35901, United States", "geometry": {"location": {"lat": 34.0073054, "lng": -86.0068965}, "viewport": {"northeast": {"lat": 34.00871957989272, "lng": -86.00580977010728}, "southwest": {"lat": 34.00601992010728, "lng": -86.00850942989271}}}, "icon": "https://maps.gstatic.com/mapfiles/place_api/icons/v1/png_71/generic_business-71.png", "icon_background_color": "#7B9EB0", "icon_mask_base_uri": "https://maps.gstatic.com/mapfiles/place_api/icons/v2/generic_pinlet", "name": "Gadsden Surgery Center", "opening_hours": {"open_now": true}, "place_id": "ChIJOw6jza4-iogRyhpt8mBRD7s", "plus_code": {"compound_code": "2X4V+W6 Gadsden, Alabama", "global_code": "866M2X4V+W6"}, "rating": 4.6, "reference": "ChIJOw6jza4-iogRyhpt8mBRD7s", "types": ["health", "point_of_interest", "establishment"], "user_ratings_total": 54}, {"business_status": "OPERATIONAL", "formatted_address": "133 Wall St, Albertville, AL 35951, United States", "geometry": {"location": {"lat": 34.2561638, "lng": -86.1802574}, "viewport": {"northeast": {"lat": 34.25751082989272, "lng": -86.17894222010729}, "southwest": {"lat": 34.25481117010727, "lng": -86.18164187989272}}}, "icon": "https://maps.gstatic.com/mapfiles/place_api/icons/v1/png_71/generic_business-71.png", "icon_background_color": "#7B9EB0", "icon_mask_base_uri": "https://maps.gstatic.com/mapfiles/place_api/icons/v2/generic_pinlet", "name": "Destination Weight Loss - Surgical Associates of Marshall County", "opening_hours": {"open_now": true}, "photos": [{"height": 280, "html_attributions": ["<a href=\"https://maps.google.com/maps/contrib/112671654086308914950\">Destination Weight Loss - Surgical Associates of Marshall County</a>"], "photo_reference": "AXQCQNQkX5BM8iwYGttLuxxVuvvUqO_YOMD5PKriB6lE6eHi-64nTi5Slb2fLtJn9ndn2R_7de7RC3CapbqAEYmtGLhrsYaZLsY0TKYsB7zspTpWviPNHZfnZ4f08_i6Ox4KtyMnQeD-5fiYfNxTvuhACcMll6gMHReZVf3Ecl8c-Lw68Balp-lC5nXR9sKTKERC0IUiXJy0YR0kuu2ei0PMXfKFmbykpRDmdDMrxaXIKBceyELVtia8jgRtzq3wnBw1vl52ARflsQrT0xQ_2u065iQNKjZS5odjStmPu2b0b6t-22rXlqE", "width": 842}], "place_id": "ChIJU_8rrqYciogR05QKBqjYEkM", "plus_code": {"compound_code": "7R49+FW Albertville, Alabama", "global_code": "866M7R49+FW"}, "reference": "ChIJU_8rrqYciogR05QKBqjYEkM", "types": ["health", "point_of_interest", "establishment"]}, {"business_status": "OPERATIONAL", "formatted_address": "9511 US-431, Albertville, AL 35950, United States", "geometry": {"location": {"lat": 34.288381, "lng": -86.24125459999999}, "viewport": {"northeast": {"lat": 34.29003142989272, "lng": -86.24005237010728}, "southwest": {"lat": 34.28733177010728, "lng": -86.24275202989271}}}, "icon": "https://maps.gstatic.com/mapfiles/place_api/icons/v1/png_71/generic_business-71.png", "icon_background_color": "#7B9EB0", "icon_mask_base_uri": "https://maps.gstatic.com/mapfiles/place_api/icons/v2/generic_pinlet", "name": "Rapid Care Family Medical Clinic", "opening_hours": {"open_now": true}, "photos": [{"height": 4000, "html_attributions": ["<a href=\"https://maps.google.com/maps/contrib/114926088184010026654\">Rachele Childers</a>"], "photo_reference": "AXQCQNSWGxjr4QIQTvw7NPepObuFq-MNvDZj_JW-UbVxw0yaGShqeTHU81da-24PYxrLhKK3Gg-2q1aYZhtfQ4erGIo2I5JNSZJ0Rt6iUU7vT7LLKutenjZ56czEQX1sTbc7f6DYGA35j37mE1tdGrKEvD7bFomtnXjdvfbqD0JirI5vHalS9dxeGKFn4wY9cc6xzyfeI4CQ3_BOcW_QUrZPol69gjdx_7f4hInQ9nAuZ_h-YLoVGVEkAinFYATYKlghSRzlXDMdUqih5cm91dLqZ63zHZbLhmvV7iwkjDrjJCXdFWaJf5wCOpfJpQRyMIQFbJoGdtXfOO3fxOaXsp1BXpOdodWA6XrvHSB4iUnae7PCIpb96eoIzBtaJH8Ioet6R3bQ77dcNvvYEIJBz-qsPnYawEnS09U_rIHaOiOCqAG7ZyDXTaZUI5U_DGH_DVIt7wcc1RCotvfWjiJzTpQZuJs9RhImX1bu8LT_4KpOdIcx5_8O7cCuyU5fxvGmsbUtH-djgWpmdz6jHAox3o5IrSoZz04vDlqdskMNSfi-aD-iTkvbVwwMPEmipIA4ORGrIZ68HDtJ", "width": 6000}], "place_id": "ChIJydrQirgCiogRgL9GPz_R3ZA", "plus_code": {"compound_code": "7QQ5+9F Albertville, Alabama", "global_code": "866M7QQ5+9F"}, "rating": 4.4, "reference": "ChIJydrQirgCiogRgL9GPz_R3ZA", "types": ["health", "point_of_interest", "establishment"], "user_ratings_total": 763}, {"business_status": "OPERATIONAL", "formatted_address": "38 Rowe Dr, Guntersville, AL 35976, United States", "geometry": {"location": {"lat": 34.3717151, "lng": -86.4210532}, "viewport": {"northeast": {"lat": 34.37308892989272, "lng": -86.41970282010728}, "southwest": {"lat": 34.37038927010727, "lng": -86.42240247989271}}}, "icon": "https://maps.gstatic.com/mapfiles/place_api/icons/v1/png_71/generic_business-71.png", "icon_background_color": "#7B9EB0", "icon_mask_base_uri": "https://maps.gstatic.com/mapfiles/place_api/icons/v2/generic_pinlet", "name": "Surgical Associates of Marshall County", "place_id": "ChIJgwfp9FTjiYgR_t-wdjY_dbk", "plus_code": {"compound_code": "9HCH+MH Guntersville, Alabama", "global_code": "866M9HCH+MH"}, "rating": 5, "reference": "ChIJgwfp9FTjiYgR_t-wdjY_dbk", "types": ["doctor", "health", "point_of_interest", "establishment"], "user_ratings_total": 1}, {"business_status": "OPERATIONAL", "formatted_address": "1440 Hwy Dr, Oxford, AL 36203, United States", "geometry": {"location": {"lat": 33.6130908, "lng": -85.8116124}, "viewport": {"northeast": {"lat": 33.61447967989272, "lng": -85.81018452010727}, "southwest": {"lat": 33.61178002010728, "lng": -85.81288417989272}}}, "icon": "https://maps.gstatic.com/mapfiles/place_api/icons/v1/png_71/generic_business-71.png", "icon_background_color": "#7B9EB0", "icon_mask_base_uri": "https://maps.gstatic.com/mapfiles/place_api/icons/v2/generic_pinlet", "name": "The Surgery Center", "opening_hours": {"open_now": true}, "place_id": "ChIJS1aNTAuxi4gR_Jq425jwI0k", "plus_code": {"compound_code": "J57Q+58 Oxford, Alabama", "global_code": "865PJ57Q+58"}, "rating": 4.4, "reference": "ChIJS1aNTAuxi4gR_Jq425jwI0k", "types": ["health", "point_of_interest", "establishment"], "user_ratings_total": 29}, {"business_status": "OPERATIONAL", "formatted_address": "2525 US-431, Boaz, AL 35957, United States", "geometry": {"location": {"lat": 34.2220946, "lng": -86.1600954}, "viewport": {"northeast": {"lat": 34.22345657989272, "lng": -86.15869997010729}, "southwest": {"lat": 34.22075692010728, "lng": -86.16139962989273}}}, "icon": "https://maps.gstatic.com/mapfiles/place_api/icons/v1/png_71/generic_business-71.png", "icon_background_color": "#7B9EB0", "icon_mask_base_uri": "https://maps.gstatic.com/mapfiles/place_api/icons/v2/generic_pinlet", "name": "Dr. John R. Groves, MD", "place_id": "ChIJJZDPEKQciogRIElEn0FQass", "plus_code": {"compound_code": "6RCQ+RX Boaz, Alabama", "global_code": "866M6RCQ+RX"}, "rating": 4.3, "reference": "ChIJJZDPEKQciogRIElEn0FQass", "types": ["doctor", "health", "point_of_interest", "establishment"], "user_ratings_total": 6}, {"business_status": "OPERATIONAL", "formatted_address": "11491 US-431, Albertville, AL 35950, United States", "geometry": {"location": {"lat": 34.2994506, "lng": -86.2733889}, "viewport": {"northeast": {"lat": 34.30092417989272, "lng": -86.27210407010728}, "southwest": {"lat": 34.29822452010728, "lng": -86.27480372989272}}}, "icon": "https://maps.gstatic.com/mapfiles/place_api/icons/v1/png_71/generic_business-71.png", "icon_background_color": "#7B9EB0", "icon_mask_base_uri": "https://maps.gstatic.com/mapfiles/place_api/icons/v2/generic_pinlet", "name": "Marshall Wound Healing Center", "opening_hours": {"open_now": true}, "photos": [{"height": 360, "html_attributions": ["<a href=\"https://maps.google.com/maps/contrib/103652294066679505863\">Marshall Wound Healing Center</a>"], "photo_reference": "AXQCQNTNuGJzSJS4U8JuUcRvNTRR_45vVkt_nlVWKcta6Wyq2jEBEoZNQ4Wk5zJb9spViossVSbB_lil8hqZ3KDEbDwQy7KY-KpA6Dc8V_2Jzm-bTxljKjZTuXk4jnCZojax_Q6FPuNynSm8rZwNscoSNMustDIettne96qWpjBKBFzSI-hZOf8erd19G5ATnaOO6CwamxuOaAA-GX8N9-JQeQuipMJBAIKKoQ2kerKeKhQqhK8tde4QAPNlNLsXPtbO4549O8t4fzANq2mNOPMove_49iw1jKIpvswsRcabvSZYaQTAnnA", "width": 519}], "place_id": "ChIJIaF7g0H4iYgRRPxTaNRRiYw", "plus_code": {"compound_code": "7PXG+QJ Albertville, Alabama", "global_code": "866M7PXG+QJ"}, "rating": 3, "reference": "ChIJIaF7g0H4iYgRRPxTaNRRiYw", "types": ["health", "point_of_interest", "establishment"], "user_ratings_total": 4}, {"business_status": "OPERATIONAL", "formatted_address": "11491 US-431, Albertville, AL 35950, United States", "geometry": {"location": {"lat": 34.299571, "lng": -86.27332179999999}, "viewport": {"northeast": {"lat": 34.30088987989272, "lng": -86.27198947010727}, "southwest": {"lat": 34.29819022010727, "lng": -86.27468912989272}}}, "icon": "https://maps.gstatic.com/mapfiles/place_api/icons/v1/png_71/generic_business-71.png", "icon_background_color": "#7B9EB0", "icon_mask_base_uri": "https://maps.gstatic.com/mapfiles/place_api/icons/v2/generic_pinlet", "name": "Beekley William H MD", "place_id": "ChIJFafAYkH4iYgR5pR8gc54LOY", "plus_code": {"compound_code": "7PXG+QJ Albertville, Alabama", "global_code": "866M7PXG+QJ"}, "reference": "ChIJFafAYkH4iYgR5pR8gc54LOY", "types": ["doctor", "health", "point_of_interest", "establishment"]}]