[{"business_status": "OPERATIONAL", "formatted_address": "4220 N Ridge Rd W, Ashtabula, OH 44004, United States", "geometry": {"location": {"lat": 41.8415754, "lng": -80.840285}, "viewport": {"northeast": {"lat": 41.84270822989271, "lng": -80.83867687010728}, "southwest": {"lat": 41.84000857010727, "lng": -80.84137652989271}}}, "icon": "https://maps.gstatic.com/mapfiles/place_api/icons/v1/png_71/shopping-71.png", "icon_background_color": "#4B96F3", "icon_mask_base_uri": "https://maps.gstatic.com/mapfiles/place_api/icons/v2/shopping_pinlet", "name": "Kelly's Gardens & Landscape Services", "opening_hours": {"open_now": true}, "photos": [{"height": 1768, "html_attributions": ["<a href=\"https://maps.google.com/maps/contrib/106219700403652066501\">Doug Farrell Godard</a>"], "photo_reference": "AXQCQNRam4TrEzNMukvEGfJHBin09F3N3AFK5sZFaqKGwcLqbV34-PMhTnIb7PQ1Pqo0U88isFz0Yo6SeO14uV7cRorLz-Y4jklnqqqQKcRe_IbyJVrrCcd-WU5725fcOnHd3Me5W41ScaQ8QmXK0ADPTzh920QsxI2y9D-s1BhqjXacR_CdBzizd-7_-fCYFx7sjBBXNfyWN5WSbI8mJSOjQnO0o5k46O4xywuaWDlsKaYyWFJMFxt_x5mt0X7JDChjaV8mhxOHixanHekZKbvC30ht_wzFMJVPpXG0_wqp9vLwNvkXQvWvOBALYk3e7Ek4tWJBhiQMRa4Fr_jZrzrD4ixiJIsWUsoVviO8znd8CHl2GFV-K5Sa0tAC1aPa1KkJqvjEySkMERA0TaKAFUxX3T_9P6hhPqAy8JGbDaFPFn7jvxTFXNIlxKFAyFIH2xTqe-0yVdE5zW5-YeRHeYBMklsyzpPchxBJgzdCICzz1BjOxcXbHXrZ5k68nwjzxDu-9dLIHn9oY9hV4B0nwDHuArQCGvJAlOXMChaGrXP2TIjU1btQUp7xzB1BCnkufCcTxAI6SRitw84GDQ", "width": 3141}], "place_id": "ChIJnxZIwe-KMYgRts0k-3h4EvM", "plus_code": {"compound_code": "R5R5+JV Ashtabula, Ohio", "global_code": "86HXR5R5+JV"}, "rating": 4.4, "reference": "ChIJnxZIwe-KMYgRts0k-3h4EvM", "types": ["store", "point_of_interest", "establishment"], "user_ratings_total": 207}, {"business_status": "OPERATIONAL", "formatted_address": "2312 Aetna Rd, Ashtabula, OH 44004, United States", "geometry": {"location": {"lat": 41.8639255, "lng": -80.765196}, "viewport": {"northeast": {"lat": 41.86533767989273, "lng": -80.76388967010728}, "southwest": {"lat": 41.86263802010728, "lng": -80.76658932989271}}}, "icon": "https://maps.gstatic.com/mapfiles/place_api/icons/v1/png_71/generic_business-71.png", "icon_background_color": "#7B9EB0", "icon_mask_base_uri": "https://maps.gstatic.com/mapfiles/place_api/icons/v2/generic_pinlet", "name": "Canters Classic Lawn Care", "opening_hours": {"open_now": true}, "photos": [{"height": 457, "html_attributions": ["<a href=\"https://maps.google.com/maps/contrib/100026597620423001807\">Canters Classic Lawn Care</a>"], "photo_reference": "AXQCQNR-5_IBDpuqYEfrdzXAfNH_yShJHFy_nc4a_gcZ2XQamMCNbkPd7WLw_fSyfG2eJk8wkj4zIdS06THzOPjsT8LRcQFFDTsiT5AcSkv9OO1IsMCNUmZJAxfdhKrqwSB5G92HxkAo-IarvBEkQY5qpfhH67Mjkvq_6XOG0r62pLnJvTRy8bDZISDjNCXs2u5_PybRVCT_PeERo9VVA65LiJrQirXQOZkEWYx_WSKu2iLLYqDXGSbBKFMjTMbHa5cWAdvvvYsdJ5Bg4laqBHyktpbi6mahkzXXDfp50aXFXIIjF53h0sU", "width": 844}], "place_id": "ChIJH4kPuR8gMogRb3qZRV6Bqno", "plus_code": {"compound_code": "V67M+HW Ashtabula, Ohio", "global_code": "86HXV67M+HW"}, "rating": 4.6, "reference": "ChIJH4kPuR8gMogRb3qZRV6Bqno", "types": ["point_of_interest", "establishment"], "user_ratings_total": 63}, {"business_status": "OPERATIONAL", "formatted_address": "504 W 57th St, Ashtabula, OH 44004, United States", "geometry": {"location": {"lat": 41.8564429, "lng": -80.78731200000001}, "viewport": {"northeast": {"lat": 41.85786512989271, "lng": -80.78596062010726}, "southwest": {"lat": 41.85516547010727, "lng": -80.78866027989271}}}, "icon": "https://maps.gstatic.com/mapfiles/place_api/icons/v1/png_71/generic_business-71.png", "icon_background_color": "#7B9EB0", "icon_mask_base_uri": "https://maps.gstatic.com/mapfiles/place_api/icons/v2/generic_pinlet", "name": "Brobst Landscaping", "opening_hours": {"open_now": false}, "place_id": "ChIJDTDPUj0gMogRrMnbKaJ9IeM", "plus_code": {"compound_code": "V647+G3 Ashtabula, Ohio", "global_code": "86HXV647+G3"}, "rating": 3.9, "reference": "ChIJDTDPUj0gMogRrMnbKaJ9IeM", "types": ["general_contractor", "point_of_interest", "establishment"], "user_ratings_total": 10}, {"business_status": "OPERATIONAL", "formatted_address": "5504 Adams Ave, Ashtabula, OH 44004, United States", "geometry": {"location": {"lat": 41.8589277, "lng": -80.7894769}, "viewport": {"northeast": {"lat": 41.86027877989272, "lng": -80.78828717010727}, "southwest": {"lat": 41.85757912010728, "lng": -80.79098682989272}}}, "icon": "https://maps.gstatic.com/mapfiles/place_api/icons/v1/png_71/generic_business-71.png", "icon_background_color": "#7B9EB0", "icon_mask_base_uri": "https://maps.gstatic.com/mapfiles/place_api/icons/v2/generic_pinlet", "name": "Miguel's Landscaping", "photos": [{"height": 3456, "html_attributions": ["<a href=\"https://maps.google.com/maps/contrib/105022667553290783548\">Miguel&#39;s Landscaping</a>"], "photo_reference": "AXQCQNQNMBCFeIFJ2gl7LlRVGjOqkAGbiaITnNjKOEg9WorjP8DqeyJIOeo3mOuO2nHTpQaHoOy4Zn792z2Oq6S5ZCw_V59PvV_u9Ue6-DPAvsBbq4k-wN3zbB98LJkWsAMhLFMlJUUSHjsws6c_K2ZVpoDwTaLLSG2kfNF1gVnOhuu69pYUUSnVf8yR0ovWiUr2PzFOuTUnakM7l-PhK-UJjBfb1KOIYMv8shMT0BK7Fa0a_cdzmrCgItyWpuLHIxlkkSggw9FUA0uDGwkOGj6bLY9DTql2gFtxGR1KHzWWQxbA-Sm9btM", "width": 4608}], "place_id": "ChIJtbszXhggMogRG3oxdWrgxFM", "plus_code": {"compound_code": "V656+H6 Ashtabula, Ohio", "global_code": "86HXV656+H6"}, "rating": 4.6, "reference": "ChIJtbszXhggMogRG3oxdWrgxFM", "types": ["point_of_interest", "establishment"], "user_ratings_total": 20}, {"business_status": "OPERATIONAL", "formatted_address": "4615 S Ridge Rd E, Ashtabula, OH 44004, United States", "geometry": {"location": {"lat": 41.87436890000001, "lng": -80.7320282}, "viewport": {"northeast": {"lat": 41.87561712989272, "lng": -80.73060832010728}, "southwest": {"lat": 41.87291747010728, "lng": -80.73330797989273}}}, "icon": "https://maps.gstatic.com/mapfiles/place_api/icons/v1/png_71/generic_business-71.png", "icon_background_color": "#7B9EB0", "icon_mask_base_uri": "https://maps.gstatic.com/mapfiles/place_api/icons/v2/generic_pinlet", "name": "MC Professional Lawn Care and Snow Plowing", "opening_hours": {"open_now": true}, "photos": [{"height": 576, "html_attributions": ["<a href=\"https://maps.google.com/maps/contrib/106713419872096523402\">MC Professional Lawn Care and Snow Plowing</a>"], "photo_reference": "AXQCQNTjzeWunLZqjqdmo0p9Z-FtB5f3arO8PWI8u51uMaiZLB3rK8NYU3ejJq2h8uaAVp0INLThJmMfhaFUV9JkTctlEYjTv1B72ryMxLrZdG1f2qKZ079yI0uXVJl7qJJJJ1ih8-S7Q8AIzR7NOJTpGLWbkI06K9BvqLjJu3fMB6kQ2N0aVzudkio4WQfIXzDJLrmqyVtq67XOOIYJHOgBvFtuJRfikWQSyyF-oEwl744_6M6_P5KxI2yxEizVDlNPdvs_8UOj_xizrw5la0GFwOyzGchH8BMua_J0GPXRJFbf1X5cjUE", "width": 720}], "place_id": "ChIJnYBrZs4ZMogRsGuaXAsNQEk", "plus_code": {"compound_code": "V7F9+P5 Ashtabula, Ohio", "global_code": "86HXV7F9+P5"}, "rating": 4.5, "reference": "ChIJnYBrZs4ZMogRsGuaXAsNQEk", "types": ["point_of_interest", "establishment"], "user_ratings_total": 86}, {"business_status": "OPERATIONAL", "formatted_address": "7639 Center Rd, Ashtabula, OH 44004, United States", "geometry": {"location": {"lat": 41.8289319, "lng": -80.85457029999999}, "viewport": {"northeast": {"lat": 41.83031567989272, "lng": -80.85291842010727}, "southwest": {"lat": 41.82761602010728, "lng": -80.85561807989272}}}, "icon": "https://maps.gstatic.com/mapfiles/place_api/icons/v1/png_71/generic_business-71.png", "icon_background_color": "#7B9EB0", "icon_mask_base_uri": "https://maps.gstatic.com/mapfiles/place_api/icons/v2/generic_pinlet", "name": "Mike's Lawn Care LLC", "opening_hours": {"open_now": true}, "photos": [{"height": 3024, "html_attributions": ["<a href=\"https://maps.google.com/maps/contrib/115881598639679239778\">A Google User</a>"], "photo_reference": "AXQCQNQRt50Wob5XNPWoIGfz1Vw3DYGnaX4safWbcJ2FD11dwVCBKdfwDUtRDvNyv2jXtwdqbo8tOeK-TwhHCoyMwcTcghIYN8WlHfroVuTrfnJ4mxBvGNguIXekrPfMqWgYrDnB06Qtx8569lDpDLSRaYAKT_g3YYZXLpj5Zx45ptQdYYRGdgRTX6v1r9w8meAFKFN50p3r1jrq-LozCfuJ7gaHs4eq7kkL2ldkXjPKB0-e1tFB_1EC8_Zd_UbhxdqXL_fvXSbfsIIM2BwIC8iw4CGSYQn5kz-QbdSZ5xjena4EBwPum1M", "width": 4032}], "place_id": "ChIJder6BO2KMYgRrF7S0YFSIXI", "plus_code": {"compound_code": "R4HW+H5 Ashtabula, Ohio", "global_code": "86HXR4HW+H5"}, "rating": 5, "reference": "ChIJder6BO2KMYgRrF7S0YFSIXI", "types": ["general_contractor", "point_of_interest", "establishment"], "user_ratings_total": 10}, {"business_status": "OPERATIONAL", "formatted_address": "3815 N Bend Rd, Ashtabula, OH 44004, United States", "geometry": {"location": {"lat": 41.8550288, "lng": -80.83415169999999}, "viewport": {"northeast": {"lat": 41.85617577989272, "lng": -80.83279997010727}, "southwest": {"lat": 41.85347612010727, "lng": -80.83549962989272}}}, "icon": "https://maps.gstatic.com/mapfiles/place_api/icons/v1/png_71/generic_business-71.png", "icon_background_color": "#7B9EB0", "icon_mask_base_uri": "https://maps.gstatic.com/mapfiles/place_api/icons/v2/generic_pinlet", "name": "Brobst Tree & Stump Service", "opening_hours": {"open_now": false}, "photos": [{"height": 3024, "html_attributions": ["<a href=\"https://maps.google.com/maps/contrib/108308892173649270927\">Gary Holbrook</a>"], "photo_reference": "AXQCQNQ1M3pC_OPbj_ZB48GjsGoHa_ouMbsukyF_5WIwWFL0yCCRkx6GOMrEzQxkvNr5Nnc_nCpEv-Lmbk9SeFwM1JGzI94koyaV_SJHaKHdwe2YB4vm23cHZmS84WRyt8ssk69mc3TS_Ot1HU2idIP8WMJhuphGbT_5dlT4NPBuvew8Cv-MqRza1Lokc9t1y4XLG3iDLwx9R-Kyjjo1UQSwtvq5QIv1E1KeX-SBF-pMJUUZl_0C97BduWo4N_RANTsSXJzQt9pY06G209GLL5KcKC3VgomYjPwCsb10NOAkN0OzoYQqp4KOmpTznCoMJd78QCTB9v0r4qmvd_0gAC0GUzDrmcgg6bsJyWwW76wmM4C_kGFi7dxK9mZaxGQTXEupj-SuPrDXZpqwK0sdNP3Jzx7wvzlBIdXpW-ozHmmaAYQlhK4ZN36ljFkP_49YAHpHYh5YgApSRRnT9XJHtiI-MqlKatheO5r_JDkcpBo7VW0o86sjanztxQL87Q1YYkjJDpC0WGVgtA47TRmlVQ1qvOlqtrsdX-HabzO9cxRPOMGLvuc-gmn0yu3peBj2pJWMLrkbrw", "width": 4032}], "place_id": "ChIJL3isRceKMYgRqGKnJxJsM2I", "plus_code": {"compound_code": "V548+38 Ashtabula, Ohio", "global_code": "86HXV548+38"}, "rating": 4.2, "reference": "ChIJL3isRceKMYgRqGKnJxJsM2I", "types": ["general_contractor", "store", "point_of_interest", "establishment"], "user_ratings_total": 77}, {"business_status": "OPERATIONAL", "formatted_address": "5231 Stark Ave, Ashtabula, OH 44004, United States", "geometry": {"location": {"lat": 41.8594641, "lng": -80.80317149999999}, "viewport": {"northeast": {"lat": 41.86081387989271, "lng": -80.80169662010728}, "southwest": {"lat": 41.85811422010727, "lng": -80.80439627989271}}}, "icon": "https://maps.gstatic.com/mapfiles/place_api/icons/v1/png_71/generic_business-71.png", "icon_background_color": "#7B9EB0", "icon_mask_base_uri": "https://maps.gstatic.com/mapfiles/place_api/icons/v2/generic_pinlet", "name": "Curb Appeal Landscape & Snow Removal", "opening_hours": {"open_now": true}, "photos": [{"height": 3024, "html_attributions": ["<a href=\"https://maps.google.com/maps/contrib/117860528804415181551\">A Google User</a>"], "photo_reference": "AXQCQNRu1kI_Jn8qR2cLv8i4dEK5l99DurQbPR5-Xi-qnE0HVU0KQt-qMvzBEvuG-mByZumeBaCDTCfNINaWMDJ-JAGnJde3go6do-rE7EDtipPIbauCJGCvuTkovu1mwsiSOb7M0sXR07nhIVTkDeJcg0-6tZlBcbgvsRit3hibDreMpuNwxpl0UDQJyGUzQOkQC_2EL-30rBQs8PdHlYBkVdk1TDzpN-61mPLxoPz5LPboGAXVnuTJHIDMe-SF5gXRH_XT0_80sGiOQq0bnKDCgV1HJQRPzIZ0BFiObp0gGM_0iMxS", "width": 4032}], "place_id": "ChIJk6KR3Y6qSIQRQ1FuaDucZ_A", "plus_code": {"compound_code": "V55W+QP Ashtabula, Ohio", "global_code": "86HXV55W+QP"}, "reference": "ChIJk6KR3Y6qSIQRQ1FuaDucZ_A", "types": ["general_contractor", "point_of_interest", "establishment"]}, {"business_status": "OPERATIONAL", "formatted_address": "6028 Mcnutt Ave, Ashtabula, OH 44004, United States", "geometry": {"location": {"lat": 41.8515018, "lng": -80.8203273}, "viewport": {"northeast": {"lat": 41.85283967989272, "lng": -80.81929792010727}, "southwest": {"lat": 41.85014002010728, "lng": -80.82199757989272}}}, "icon": "https://maps.gstatic.com/mapfiles/place_api/icons/v1/png_71/generic_business-71.png", "icon_background_color": "#7B9EB0", "icon_mask_base_uri": "https://maps.gstatic.com/mapfiles/place_api/icons/v2/generic_pinlet", "name": "A & T Lawncare LLC", "opening_hours": {"open_now": true}, "photos": [{"height": 4032, "html_attributions": ["<a href=\"https://maps.google.com/maps/contrib/114943501648548477765\">A Google User</a>"], "photo_reference": "AXQCQNQclmqlDNAAyHHy1bqjfyVZhmgc9CGAldX-ml7xXywykyZFR-Vei-E71hQrNPeoBWQEIAUbpt0AFd8Stz5ybZgqlqEIzJZ_P-3YVkWRDi7I2oxEHm5APdps6pBYZ80EzbYHuv1KmMmVwLzEevbEvgUwVN6WeSBRJGe8gd6YaUdNUCZrzHwrmXlcvD9JjwBu3VP4vjRIsnGOEUDfhDp0uNoY22lqgpdbBkAoZqQysR9hvwp7njCNq-9vV_BxZ9rUD5jStvHUcSaPq66Bgee9a07o_LoLd9U6RhTcfsGgdMsQDc8XPfJ0w7ZuHQWqlj2j85Ki4ZQR72w2DZ09kiVuswrO-MfKLX2WVVRO10FoN8eyjwZ0ADYdpBm-b-8CH9efzi6TD53aCyzYNrQLTT0__unLLJR_9663jNW2tMrrPBaX_CBiMoJOEoyyoeAg6BbhJ0YR1tmlj_IG4pYvthJ2TcV1bsarbfaiyXm3BFk9RzvM5WlJ_IsKxnE2MItLbjdCVauDIoKZA4twqqXkux6KvkfxQmkbXdT2anmMzxwJQl0FLDUOOIKr7SYo25b5GyHNutq8furV", "width": 3024}], "place_id": "ChIJ-3a62aKKMYgRQrwnd79EM-M", "plus_code": {"compound_code": "V52H+JV Ashtabula, Ohio", "global_code": "86HXV52H+JV"}, "rating": 4.5, "reference": "ChIJ-3a62aKKMYgRQrwnd79EM-M", "types": ["point_of_interest", "establishment"], "user_ratings_total": 6}, {"business_status": "OPERATIONAL", "formatted_address": "3095 Arcola Rd, Madison, OH 44057, United States", "geometry": {"location": {"lat": 41.7899417, "lng": -81.02227169999999}, "viewport": {"northeast": {"lat": 41.79130052989272, "lng": -81.02111737010726}, "southwest": {"lat": 41.78860087010727, "lng": -81.02381702989271}}}, "icon": "https://maps.gstatic.com/mapfiles/place_api/icons/v1/png_71/generic_business-71.png", "icon_background_color": "#7B9EB0", "icon_mask_base_uri": "https://maps.gstatic.com/mapfiles/place_api/icons/v2/generic_pinlet", "name": "Leasure Landscapes", "opening_hours": {"open_now": true}, "photos": [{"height": 1920, "html_attributions": ["<a href=\"https://maps.google.com/maps/contrib/109212325488106242064\">Leasure Landscapes</a>"], "photo_reference": "AXQCQNQp0MdwDuObpO-GhJnqmCB3mNYlZxQWdgFfw2fPljUJOr7UhSe5tlaGaBZOq4mxUIIXH9VXVo-uByFOp5-XRIYrzBobt36dNl-uijQHRj_GOWStH5oCNtX3H4rTjnGxp2Oyo7N5Et2YUxi43bZ5u4j89Rp4qZfS4ols2Jh6W6TTbrL5rU6XUIgMwiOiHMYEiaYEIpql1HExT7ESxLtmz7virZl2M1Qk0IlbZj4gUBgtGjQ2FV_rK-Hz6A63ixszIx6atzY2O7kaQ7jb7KK4rPqww7a85Eg30SqcsKotnjprW42x-rAQWAmfujSyk_1rLsT9mgkfp88Iue_flIb6cU8y9D_fnuxbAquZ0ANwtVyjFJuBWfmEqoTwcwP7t9VPqB380Iuwf-wHylCaj49_HTEyrGh_U57rz3pVywwx-bsBd_4txVzc7clSsX7q4qZXKy5hV3NyzXXMAJ7yq9-j8u3JsFUqIXb6v02NMBxrkmJ0m5IEjiWZxb97G32jBGPqgpzMQ6dPm7-_Or4mvtCaqzbEupYzflzANVnl7Hfz2-nqZUAdyoZ8WylChF13yLh4acBBgBat", "width": 2560}], "place_id": "ChIJ5TqaOjWSMYgRmmyp3z9tgIQ", "plus_code": {"compound_code": "QXQH+X3 Madison, Ohio", "global_code": "86HWQXQH+X3"}, "rating": 4.5, "reference": "ChIJ5TqaOjWSMYgRmmyp3z9tgIQ", "types": ["general_contractor", "point_of_interest", "establishment"], "user_ratings_total": 75}, {"business_status": "OPERATIONAL", "formatted_address": "2979 E Center St, Conneaut, OH 44030, United States", "geometry": {"location": {"lat": 41.9114108, "lng": -80.680256}, "viewport": {"northeast": {"lat": 41.91269877989272, "lng": -80.67884717010728}, "southwest": {"lat": 41.90999912010728, "lng": -80.68154682989272}}}, "icon": "https://maps.gstatic.com/mapfiles/place_api/icons/v1/png_71/generic_business-71.png", "icon_background_color": "#7B9EB0", "icon_mask_base_uri": "https://maps.gstatic.com/mapfiles/place_api/icons/v2/generic_pinlet", "name": "Sesler's Lawn & Landscape Pro\u2019s", "opening_hours": {"open_now": true}, "photos": [{"height": 1702, "html_attributions": ["<a href=\"https://maps.google.com/maps/contrib/109746427139655872525\">Sesler&#39;s Lawn &amp; Landscape Pro\u2019s</a>"], "photo_reference": "AXQCQNRm2wx19HlggtsGDqjHNGy1UpX6FNghMGeF-Oqqrtcxk8bvMXAHU15QmlZ4nB0dHusp_vmf1HZiNum0PWogkI8Jk7SZboczc_ZURONtZAOXBXu7Cmofa4PcApd2AwvLfhcng7U-5UMMmPGVNRXonx0mfbiG0qgyutU_aHgXmNxLDAO7xkIL0ym4BlwecFlYjjgEaRf5JG8uxl5HqlkH5sxptgQLBzibygQceMESjroVs1r4RScqdL_4c1v_579cafVSaxakWOyleOdMX8Airl2GAqfOFlZo0DtgV4JrZL6RHH6vrVg", "width": 3024}], "place_id": "ChIJj-fHxPAZMogR1nr-Zd-JQW4", "plus_code": {"compound_code": "W869+HV Conneaut, Ohio", "global_code": "86HXW869+HV"}, "rating": 4.5, "reference": "ChIJj-fHxPAZMogR1nr-Zd-JQW4", "types": ["point_of_interest", "establishment"], "user_ratings_total": 11}, {"business_status": "OPERATIONAL", "formatted_address": "721 W 30th St, Ashtabula, OH 44004, United States", "geometry": {"location": {"lat": 41.8756679, "lng": -80.7967645}, "viewport": {"northeast": {"lat": 41.87701582989272, "lng": -80.79542052010727}, "southwest": {"lat": 41.87431617010728, "lng": -80.79812017989272}}}, "icon": "https://maps.gstatic.com/mapfiles/place_api/icons/v1/png_71/generic_business-71.png", "icon_background_color": "#7B9EB0", "icon_mask_base_uri": "https://maps.gstatic.com/mapfiles/place_api/icons/v2/generic_pinlet", "name": "Basic Lawncare Pondcare & Snow", "opening_hours": {"open_now": true}, "photos": [{"height": 960, "html_attributions": ["<a href=\"https://maps.google.com/maps/contrib/106851973116954346749\">A Google User</a>"], "photo_reference": "AXQCQNTEmVRFBrExiA313qUcF3xn4U80qROuS60SWEuSqCdBudMTaELsVc_dnXYvkOFMn_4b4JTzgSLaQ9g3yzoNtH6AUHXVVExLe3RkU9dQFjMEb7tXmn42zeJ-plUuQj65FObSdGknMVqNSbX2BQ7Ass48qP5a6QgO88pK3D678PXGJ7GQ24EYEL2oLPu_x098R0YRAH8C0SfqObZ96BZfzrIxXJmEU6IMM7o4M2JTt8eRe0DVuVd5kM9EQkUdTk8X23zFApQEtMl_xaBj9ljuA90pR98a45x6VvAl7HZGqw1zhagSbDk", "width": 720}], "place_id": "ChIJ80t2VcUfMogRjOLw0vNPuEA", "plus_code": {"compound_code": "V6G3+78 Ashtabula, Ohio", "global_code": "86HXV6G3+78"}, "reference": "ChIJ80t2VcUfMogRjOLw0vNPuEA", "types": ["point_of_interest", "establishment"]}, {"business_status": "OPERATIONAL", "formatted_address": "Ashtabula, OH 44004, United States", "geometry": {"location": {"lat": 41.8651565, "lng": -80.7898719}, "viewport": {"northeast": {"lat": 41.86642517989272, "lng": -80.78852352010728}, "southwest": {"lat": 41.86372552010727, "lng": -80.79122317989273}}}, "icon": "https://maps.gstatic.com/mapfiles/place_api/icons/v1/png_71/generic_business-71.png", "icon_background_color": "#7B9EB0", "icon_mask_base_uri": "https://maps.gstatic.com/mapfiles/place_api/icons/v2/generic_pinlet", "name": "Basic Lawncare", "opening_hours": {"open_now": true}, "photos": [{"height": 960, "html_attributions": ["<a href=\"https://maps.google.com/maps/contrib/105282698258441536018\">Jr Cross</a>"], "photo_reference": "AXQCQNRpAzqc-aqZtB4JfyWyxW5iFCkQlKLKKToymclGWUtzH35pKY3FdICPovp5t79y4sWZdvWuprucjOX0YB6wnJrcTnynbqxpOgHI0WTRR1FzgZeV0igbEiTmtmmctlUssN0jJAzx89Af26-4Eo8Wyl674aUjSIXE3wsDXfxYEutIFxpFsNLvOvNXmLmB8MM08z1cRs40hI-gLZGFSIdXPKh2XXc6EwRSvlHFM_Ary7VyY2yz2Yx_L_0tfOO4DO4w1YJ02LW4gbWNc_iVstrnWoKtgfaBVfU7QEjL4wJ6jOcArsmP_S1Gnm4GCK8TyyU16i9_7q1JDlWrnH0YiVy-90b0tEWO7di-vLboFZXacHh-2a9kIH4sQ1Mfx09u62c_MpyckycqzcgdVX0VCLkP-hNbeqrBgg2mcWud9VbGU5ENrbqqmoPQxv7uL6dhQtWttBMiKh9Bs0rmk_jsQ7SqNsbKfeLclS2VmpTn7e-HdRt1qpQqqP7LU0wZSfg2pSy8ASYOGNKmlNe8-xzcCuO5-vVR_Rep90UnMkWSpHVjtTBsT0mWuDaiTzgue5uCn4T1kBXcONDEQ17ScA", "width": 720}], "place_id": "ChIJH4kPuR8gMogRpld8YJ0mu6w", "plus_code": {"compound_code": "V686+33 Ashtabula, Ohio", "global_code": "86HXV686+33"}, "rating": 3.8, "reference": "ChIJH4kPuR8gMogRpld8YJ0mu6w", "types": ["general_contractor", "point_of_interest", "establishment"], "user_ratings_total": 4}]