[{"business_status": "OPERATIONAL", "formatted_address": "23100 17 Mile Rd, Big Rapids Township, MI 49307, United States", "geometry": {"location": {"lat": 43.7158726, "lng": -85.5466826}, "viewport": {"northeast": {"lat": 43.71677002989271, "lng": -85.54530862010726}, "southwest": {"lat": 43.71407037010727, "lng": -85.54800827989271}}}, "icon": "https://maps.gstatic.com/mapfiles/place_api/icons/v1/png_71/generic_business-71.png", "icon_background_color": "#7B9EB0", "icon_mask_base_uri": "https://maps.gstatic.com/mapfiles/place_api/icons/v2/generic_pinlet", "name": "CR Construction, LLC", "opening_hours": {"open_now": true}, "photos": [{"height": 1816, "html_attributions": ["<a href=\"https://maps.google.com/maps/contrib/112706806995259951916\">A Google User</a>"], "photo_reference": "AXQCQNT2FG536CrI710wahVqpCfIhy4Wl8albTtinsnw_9kyQgcl_GXSOdnvQ-vhmewv8AI8ReCYww5gPORRLptx7V51_d5-LGfgucxbc1gEfdr70YKil9NvE4zO2sDLCtw6oS2ZudMK2-GvMjDLJzdoTXfrMsyLc_UQqDu9sHt1XuYBqsmoU4dga3lA3po7DESnzhn7DA0sywDGns8X8eMB-uz-WM6EELcSPvUbYjYMrPIYOsM1Ds7JM7yEZp1YDtOpUyWnvvaDXref_4rLIGSCIymmNVoi4wnTiwD4EFzHYCjUcSkUtzM", "width": 4032}], "place_id": "ChIJ1-jnoDItH4gRcssu1u12aqs", "plus_code": {"compound_code": "PF83+88 Big Rapids, Michigan", "global_code": "86MPPF83+88"}, "rating": 5, "reference": "ChIJ1-jnoDItH4gRcssu1u12aqs", "types": ["general_contractor", "point_of_interest", "establishment"], "user_ratings_total": 4}, {"business_status": "OPERATIONAL", "formatted_address": "22415 Woodward Ave, Big Rapids, MI 49307, United States", "geometry": {"location": {"lat": 43.6959202, "lng": -85.53113739999999}, "viewport": {"northeast": {"lat": 43.69738132989271, "lng": -85.52978752010728}, "southwest": {"lat": 43.69468167010727, "lng": -85.53248717989271}}}, "icon": "https://maps.gstatic.com/mapfiles/place_api/icons/v1/png_71/generic_business-71.png", "icon_background_color": "#7B9EB0", "icon_mask_base_uri": "https://maps.gstatic.com/mapfiles/place_api/icons/v2/generic_pinlet", "name": "Ouellette Construction LLC", "photos": [{"height": 960, "html_attributions": ["<a href=\"https://maps.google.com/maps/contrib/110683042487150924615\">Ouellette Construction LLC</a>"], "photo_reference": "AXQCQNReEeIhxks58Q0b52cGekhK33TuOwjZtMtgY43kDLaASvQcE16JmdboTNzokloS4tXq124cgGbXYyniTVy3V_F4Ot4PWGcm3D6pigzwDqxaZJmBricGcBppx5e8MJ2RMUkVjCALG_ShZnY2QPi8uuojKY4O9q_am3hgsehK0k9UGbrANwG8n-Zy-OS2UN3rwitiwwq_uCD3OoXgvClIJShzX_wONEhVhkHuw8mrErr4PoDmQemiv4w7lrosQA8DAhGkUWiL000V2jRKx9ky6wPflJLlZdcMvXq2OySFa7KjVcqesYc", "width": 1280}], "place_id": "ChIJ56O8V3zVGIgRzRd85q4Qv6U", "plus_code": {"compound_code": "MFW9+9G Big Rapids, Michigan", "global_code": "86MPMFW9+9G"}, "rating": 5, "reference": "ChIJ56O8V3zVGIgRzRd85q4Qv6U", "types": ["roofing_contractor", "general_contractor", "point_of_interest", "establishment"], "user_ratings_total": 6}, {"business_status": "OPERATIONAL", "formatted_address": "1220 N State St, Big Rapids, MI 49307, United States", "geometry": {"location": {"lat": 43.7133438, "lng": -85.48834889999999}, "viewport": {"northeast": {"lat": 43.71460877989272, "lng": -85.48716907010727}, "southwest": {"lat": 43.71190912010727, "lng": -85.4898687298927}}}, "icon": "https://maps.gstatic.com/mapfiles/place_api/icons/v1/png_71/generic_business-71.png", "icon_background_color": "#7B9EB0", "icon_mask_base_uri": "https://maps.gstatic.com/mapfiles/place_api/icons/v2/generic_pinlet", "name": "Convenient Roofing & Construction LLC", "opening_hours": {"open_now": true}, "photos": [{"height": 1939, "html_attributions": ["<a href=\"https://maps.google.com/maps/contrib/105844687173983776336\">A Google User</a>"], "photo_reference": "AXQCQNQa2JASb9Lwg4G3taH4wDSAcGsLEDMWTxDocM1_slUCpXQCvU33EA48LENO7SJh1js6w3qedLQJqUAYkWCzTXh7644Fjnln2C9WGX8N082XyOPdqhc2r94AokGwfrQgZVgYSS3egbvRa2AksSvaIww1wkuuS6Ce2HuN3nKZ-GHEW0_eYdO6-EybdDqmawudpdLeHYPfy7nLA13_VmCq1VNNrvP4IVwad8DF9LHY0ETmaz4_qPLapPyeqXselX9NAVMB0t-JbgFdVvvDI7gFQYS1NXWFpu4C5H0Eyy6yjxMBW6aNUDY", "width": 3448}], "place_id": "ChIJ4-ya6gYtH4gRSwMybNlBelQ", "plus_code": {"compound_code": "PG76+8M Big Rapids, Michigan", "global_code": "86MPPG76+8M"}, "rating": 5, "reference": "ChIJ4-ya6gYtH4gRSwMybNlBelQ", "types": ["roofing_contractor", "point_of_interest", "establishment"], "user_ratings_total": 21}, {"business_status": "OPERATIONAL", "formatted_address": "15181 172nd Ave, Big Rapids, MI 49307, United States", "geometry": {"location": {"lat": 43.6870566, "lng": -85.4304672}, "viewport": {"northeast": {"lat": 43.68840637989272, "lng": -85.42911407010727}, "southwest": {"lat": 43.68570672010728, "lng": -85.43181372989272}}}, "icon": "https://maps.gstatic.com/mapfiles/place_api/icons/v1/png_71/generic_business-71.png", "icon_background_color": "#7B9EB0", "icon_mask_base_uri": "https://maps.gstatic.com/mapfiles/place_api/icons/v2/generic_pinlet", "name": "Morningstar Enterprises Inc", "opening_hours": {"open_now": true}, "place_id": "ChIJW8gwo1vNGIgRxzg7GBT8zYM", "plus_code": {"compound_code": "MHP9+RR Big Rapids, Michigan", "global_code": "86MPMHP9+RR"}, "rating": 4.5, "reference": "ChIJW8gwo1vNGIgRxzg7GBT8zYM", "types": ["general_contractor", "point_of_interest", "establishment"], "user_ratings_total": 14}, {"business_status": "OPERATIONAL", "formatted_address": "13440 Northland Dr, Big Rapids, MI 49307, United States", "geometry": {"location": {"lat": 43.6619739, "lng": -85.4823411}, "viewport": {"northeast": {"lat": 43.66332862989272, "lng": -85.48139042010727}, "southwest": {"lat": 43.66062897010728, "lng": -85.48409007989272}}}, "icon": "https://maps.gstatic.com/mapfiles/place_api/icons/v1/png_71/generic_business-71.png", "icon_background_color": "#7B9EB0", "icon_mask_base_uri": "https://maps.gstatic.com/mapfiles/place_api/icons/v2/generic_pinlet", "name": "Iltis Construction Inc.", "opening_hours": {"open_now": false}, "place_id": "ChIJ8_wyQETTGIgRf7iDo1jbYYE", "plus_code": {"compound_code": "MG69+Q3 Big Rapids, Michigan", "global_code": "86MPMG69+Q3"}, "rating": 3, "reference": "ChIJ8_wyQETTGIgRf7iDo1jbYYE", "types": ["general_contractor", "point_of_interest", "establishment"], "user_ratings_total": 4}, {"business_status": "OPERATIONAL", "formatted_address": "19937 Park Rd, Big Rapids, MI 49307, United States", "geometry": {"location": {"lat": 43.6221055, "lng": -85.4821686}, "viewport": {"northeast": {"lat": 43.62355557989271, "lng": -85.48080062010727}, "southwest": {"lat": 43.62085592010727, "lng": -85.48350027989271}}}, "icon": "https://maps.gstatic.com/mapfiles/place_api/icons/v1/png_71/generic_business-71.png", "icon_background_color": "#7B9EB0", "icon_mask_base_uri": "https://maps.gstatic.com/mapfiles/place_api/icons/v2/generic_pinlet", "name": "MNG Concrete Construction LLC", "opening_hours": {"open_now": true}, "photos": [{"height": 1080, "html_attributions": ["<a href=\"https://maps.google.com/maps/contrib/100672057514656506715\">Joe Aguirre</a>"], "photo_reference": "AXQCQNSXtYFYbe9Og7NekALETTkgMAZQ-6a9xmKwgCGjpBmYYym5GcLmx9YqDVAF8KSznxdVvZnrW9HFkbiLMN88Cd_N_isp73DPs8xNDa6Y4eIRr2U3YKDqdqIHbpbjl6Nwvzx_QK5NeBUIFuB_iA5fWvHxwUD5xR7wV-kj-2Wwc2Q8nW8JggSiOazhdv163tje6MctI_ztmTrjnLQrKoUHFOPkhXfGtLs0rCfULD1FnOnfvvTu3eeX80Ype7iJeqZ5pUOP3i2tSjb08ru2VWjgx-JeqG-ZzYws49xvsoZW5iSxtTuobpubQc0d8GIwQ4UhXy-aI-IDVWT9uAfGcVxn1pR7DuVqrVDg96VhIQjXWlG13V3dbuBWX8pnO70TmzGjFHrbezTxX1YwJxywAw0q30Lqi4i1xMPhb_0uBQsCzv9uqzNViuzfMznuik97ZPX51N2wJMfBGTM7P73zqWcvAj8Fq9moUBYP3TVctYZ6siZ1F6Oset_lfgcICChNpToNm8eaTgMcTY_Pffk6MSN04AJ1tbsWJaGXVf1sbsc-bpLEcQp-DLBPYzypNlCMStDFkzhlAnVtW3Rxfw", "width": 1920}], "place_id": "ChIJrWxn6krRGIgRODgHHBIGa7Q", "plus_code": {"compound_code": "JGC9+R4 Big Rapids, Michigan", "global_code": "86MPJGC9+R4"}, "rating": 5, "reference": "ChIJrWxn6krRGIgRODgHHBIGa7Q", "types": ["general_contractor", "point_of_interest", "establishment"], "user_ratings_total": 13}, {"business_status": "OPERATIONAL", "formatted_address": "103 1st St Ste. 3, Elk Rapids, MI 49629, United States", "geometry": {"location": {"lat": 44.8935782, "lng": -85.4111035}, "viewport": {"northeast": {"lat": 44.89520177989272, "lng": -85.40976987010728}, "southwest": {"lat": 44.89250212010728, "lng": -85.41246952989272}}}, "icon": "https://maps.gstatic.com/mapfiles/place_api/icons/v1/png_71/generic_business-71.png", "icon_background_color": "#7B9EB0", "icon_mask_base_uri": "https://maps.gstatic.com/mapfiles/place_api/icons/v2/generic_pinlet", "name": "Bogard & Sons Construction", "opening_hours": {"open_now": true}, "photos": [{"height": 4032, "html_attributions": ["<a href=\"https://maps.google.com/maps/contrib/104563173484120956507\">A Google User</a>"], "photo_reference": "AXQCQNSbX1W9LWrfVeZIk-fDHhi9cJI348IPmKLdJE4FwkCPwcS5hDVCunNgoPKOLMP9qIJa8FfyJT09VXP2dmHDtSyQqLYA38-fRrnS8Sq1PDt5hesG3S6VUqdfoUJRg7UqqqltGc6LBqdWtB9yH6Zobgx97LoTrcnWB9kw70pZQCPCyERKM6sBRxTDkHccajUQDiyY5sfQFskiGs1MeQegpb1IKEX0p9-r9IoXMozCpV5pnRCVUYqqb-YuOzEjzB2thE1QPhkILBSNBEbxMiaRB14fUt84Y8Se4uwjZ5PLnETo8iPkG5N4qx6dbpM2EtSOZVKgHXqfxHDu567kZ9Oq6ZPUQct35d9oFrcgCRETaJqWc7mXS_lv1D3Ven3DchOxp3JdKbIAWLKE9SCvp3CAALQiqiQP9fykgUoFMau8ckqxQYCo5sIQ1z6i5jDxffFqM_vZhB_8TiundG5TfY3tdUy8f0ZuEFPn5-dXEFqGJgPfTXuMvivhctzvqQ66W7CVa7pegTahmHxNsAW87OHUL2TYuVCrJQ195e51kCuAvDmICCvtXKKkTRvKMRXmbb_jg1YmzsVNHvj5KQ", "width": 3024}], "place_id": "ChIJbyW2pkffH4gRQqucOPUWvKA", "plus_code": {"compound_code": "VHVQ+CH Elk Rapids, Michigan", "global_code": "86PPVHVQ+CH"}, "rating": 4.9, "reference": "ChIJbyW2pkffH4gRQqucOPUWvKA", "types": ["home_goods_store", "general_contractor", "store", "point_of_interest", "establishment"], "user_ratings_total": 62}, {"business_status": "OPERATIONAL", "formatted_address": "5060 Broadmoor Ave SE, Grand Rapids, MI 49512, United States", "geometry": {"location": {"lat": 42.8716569, "lng": -85.55504499999999}, "viewport": {"northeast": {"lat": 42.87295507989273, "lng": -85.55365507010727}, "southwest": {"lat": 42.87025542010728, "lng": -85.55635472989272}}}, "icon": "https://maps.gstatic.com/mapfiles/place_api/icons/v1/png_71/generic_business-71.png", "icon_background_color": "#7B9EB0", "icon_mask_base_uri": "https://maps.gstatic.com/mapfiles/place_api/icons/v2/generic_pinlet", "name": "Amber Valley Construction", "opening_hours": {"open_now": true}, "photos": [{"height": 480, "html_attributions": ["<a href=\"https://maps.google.com/maps/contrib/115269719489758129600\">Amber Valley Construction</a>"], "photo_reference": "AXQCQNTQbIAd37CFLAtHj-4Ng59mwwEMN7JUzl5pCyyWq2kh-fhIQkdNXmYJjHfQwK361T7NJw6XcNkg4hGSDYYpxjaV_djJttOkREXqiaHd4amoNb89UM21CNJyEm9Whyx9Wq6sfowFveUCua6ersQ4jMJPlGrI8LLdyySiGCkCHGc4s4VhKneCgQVEDUnT6WY5xwGfZgZojoosv4miozCrHVumN-4o9FkBxrqOQ9slBPFn19uZTkiIFuuGcwLLWxJOWtF3bJAsXipDrpJmmqD3wdCYDV-I2QG3Z7QCwyknaHKLVoxCGhw", "width": 640}], "place_id": "ChIJ-3zQKN2xGYgR5e0xky1udqs", "plus_code": {"compound_code": "VCCV+MX Grand Rapids, Michigan", "global_code": "86JPVCCV+MX"}, "rating": 4.5, "reference": "ChIJ-3zQKN2xGYgR5e0xky1udqs", "types": ["general_contractor", "roofing_contractor", "home_goods_store", "store", "point_of_interest", "establishment"], "user_ratings_total": 48}, {"business_status": "OPERATIONAL", "formatted_address": "22505 15 Mile Rd, Big Rapids, MI 49307, United States", "geometry": {"location": {"lat": 43.6856027, "lng": -85.5344239}, "viewport": {"northeast": {"lat": 43.68717132989273, "lng": -85.53307092010726}, "southwest": {"lat": 43.68447167010728, "lng": -85.53577057989271}}}, "icon": "https://maps.gstatic.com/mapfiles/place_api/icons/v1/png_71/generic_business-71.png", "icon_background_color": "#7B9EB0", "icon_mask_base_uri": "https://maps.gstatic.com/mapfiles/place_api/icons/v2/generic_pinlet", "name": "Defever Construction", "place_id": "ChIJ0VBgbb7UGIgRbwYokwtXlEo", "plus_code": {"compound_code": "MFP8+66 Big Rapids, Michigan", "global_code": "86MPMFP8+66"}, "rating": 5, "reference": "ChIJ0VBgbb7UGIgRbwYokwtXlEo", "types": ["general_contractor", "point_of_interest", "establishment"], "user_ratings_total": 1}, {"business_status": "OPERATIONAL", "formatted_address": "110 N Bronson Ave, Big Rapids, MI 49307, United States", "geometry": {"location": {"lat": 43.7030109, "lng": -85.46303809999999}, "viewport": {"northeast": {"lat": 43.70436012989272, "lng": -85.46198567010727}, "southwest": {"lat": 43.70166047010728, "lng": -85.4646853298927}}}, "icon": "https://maps.gstatic.com/mapfiles/place_api/icons/v1/png_71/generic_business-71.png", "icon_background_color": "#7B9EB0", "icon_mask_base_uri": "https://maps.gstatic.com/mapfiles/place_api/icons/v2/generic_pinlet", "name": "Big Rapids Roofing", "opening_hours": {"open_now": true}, "photos": [{"height": 3024, "html_attributions": ["<a href=\"https://maps.google.com/maps/contrib/103311003719736943302\">David Sibley</a>"], "photo_reference": "AXQCQNQZRnDhJDraRi8Azthkpbne_EHDlD_jmIrt3DMndlA8o_vC420HSMoRwTq3GloSeR-hvpCocJoQkcWR2STZtYBs2KSbStEkzXTJbY4NhUL03rCfl49GJseuMcizMjS92qhm2mlLCAtD2-FsyFOQg22Ue_Mn_ALV6sRBoHKlfxd7CFlU5jcF27dvx65-BbX83gfN4CARCTHnAsdUlK5WFa10-sVFcEUEkc9XWDhKExYzH1a13trgtUZwOi6EfffGuu3pLHY1KfZCwrZpVK8OpmRvocSnnxH2qJJP58eLfoNGbJRCcTohkXrwDXU-S39J8fQjbz6rVhWspgkDBjCj-4lQBpsqqPoCvt6Cn2IptsLoUl1L8WIaOAtZa_XPvaJ62OMBbz8FjIUb78ye2ZGTE0lV1fs2ldmy6OeN1ycA7CyXIGbsHKbv7fhJlEmoyT2I4b1pJy5BsZ_9Esr_BQ-P6Vt_Lci-kUkME3JVbiUPIno_Wp3xtulT5po5dyYiI1lXP_YF2F4QsoNSNFiaQR7QimLe67tOHTim4vM_jpi2n0R3iS2b8iJ2mfDBB1CiUOTXDxxxkVXJ", "width": 4032}], "place_id": "ChIJR65YnNbNGIgRF0N04QF5VSY", "plus_code": {"compound_code": "PG3P+6Q Big Rapids, Michigan", "global_code": "86MPPG3P+6Q"}, "rating": 4.7, "reference": "ChIJR65YnNbNGIgRF0N04QF5VSY", "types": ["roofing_contractor", "point_of_interest", "establishment"], "user_ratings_total": 52}, {"business_status": "OPERATIONAL", "formatted_address": "1010 E Madison St, Big Rapids, MI 49307, United States", "geometry": {"location": {"lat": 43.7050944, "lng": -85.4743366}, "viewport": {"northeast": {"lat": 43.70656617989273, "lng": -85.47309607010726}, "southwest": {"lat": 43.70386652010728, "lng": -85.47579572989271}}}, "icon": "https://maps.gstatic.com/mapfiles/place_api/icons/v1/png_71/generic_business-71.png", "icon_background_color": "#7B9EB0", "icon_mask_base_uri": "https://maps.gstatic.com/mapfiles/place_api/icons/v2/generic_pinlet", "name": "Next Day Construction & Roofing", "opening_hours": {"open_now": true}, "place_id": "ChIJjecpPh0tH4gRBAkRId8gm3I", "plus_code": {"compound_code": "PG4G+27 Big Rapids, Michigan", "global_code": "86MPPG4G+27"}, "rating": 5, "reference": "ChIJjecpPh0tH4gRBAkRId8gm3I", "types": ["roofing_contractor", "point_of_interest", "establishment"], "user_ratings_total": 1}, {"business_status": "OPERATIONAL", "formatted_address": "15432 220th Ave, Big Rapids, MI 49307, United States", "geometry": {"location": {"lat": 43.6933891, "lng": -85.5278057}, "viewport": {"northeast": {"lat": 43.69476502989272, "lng": -85.52648457010727}, "southwest": {"lat": 43.69206537010728, "lng": -85.52918422989272}}}, "icon": "https://maps.gstatic.com/mapfiles/place_api/icons/v1/png_71/generic_business-71.png", "icon_background_color": "#7B9EB0", "icon_mask_base_uri": "https://maps.gstatic.com/mapfiles/place_api/icons/v2/generic_pinlet", "name": "Dale Dukes & Sons Inc.", "opening_hours": {}, "place_id": "ChIJ16-yJNnTGIgRDagLTtGLiao", "plus_code": {"compound_code": "MFVC+9V Big Rapids, Michigan", "global_code": "86MPMFVC+9V"}, "rating": 5, "reference": "ChIJ16-yJNnTGIgRDagLTtGLiao", "types": ["general_contractor", "point_of_interest", "establishment"], "user_ratings_total": 2}, {"business_status": "OPERATIONAL", "formatted_address": "708 Maple St, Big Rapids, MI 49307, United States", "geometry": {"location": {"lat": 43.7000325, "lng": -85.4738937}, "viewport": {"northeast": {"lat": 43.70147307989271, "lng": -85.47256267010728}, "southwest": {"lat": 43.69877342010727, "lng": -85.47526232989273}}}, "icon": "https://maps.gstatic.com/mapfiles/place_api/icons/v1/png_71/generic_business-71.png", "icon_background_color": "#7B9EB0", "icon_mask_base_uri": "https://maps.gstatic.com/mapfiles/place_api/icons/v2/generic_pinlet", "name": "Jess Arquette Builders", "opening_hours": {"open_now": true}, "photos": [{"height": 3024, "html_attributions": ["<a href=\"https://maps.google.com/maps/contrib/118129750564622246741\">Shelley Waldron</a>"], "photo_reference": "AXQCQNR1NoVYueoh-yFR_ZR1d9Avbwrnnmw9on6agwZ8wKcSVhvPk4bOli1OLfk3hKOBDw8BpQiM5pOOChpirDhYi5DMY-CTxrY3Yobu3XrW1281eLxHqZKUmRngYCnZEwHM2utZBn0mv1tcRRXJGgj8XJ7nk5NvfrPg4ot5uFAnv7eHF23qDwhpg7D-A-L4z9CqisZ8Sl2c2zp7EUSvNA-NY0UKOwcDsujUA3SeZYXGWOVnHGY6CK_I8Xz-ehwckfzoJUV2YPDUCqk-UxgBX5ZjUlPTKrb8nZm7ny9tavsPWJ2cEJAbrze7S273747ftheACEKCq5BQdWURJRtwjjARn2dZxmJo3MUQ3pwOcVvPq21sdk1bhR9oSKn5WHpVx1rLnGcGrHSvfXd-5wX4gMAT1Ngp449_wtUydkqe4-WUtyc7Ib20qBTp0xz1tuIY6pfGxFRH65t1e3mxmL6DMaNFw8rO3JZZ4ymdlTqm9ZnP8XE3cQp1gwvUo0QkhEblkMMz6ogtz1U5ZnAz52VX0m2su-MG9NBLFRgRp0t-rLiKBnEsR4l8jdSQVHtUJ7aApk3YR0FfOR44", "width": 4032}], "place_id": "ChIJIZBZabwqGYgRRlVihWj-jOk", "plus_code": {"compound_code": "PG2G+2C Big Rapids, Michigan", "global_code": "86MPPG2G+2C"}, "rating": 4, "reference": "ChIJIZBZabwqGYgRRlVihWj-jOk", "types": ["roofing_contractor", "general_contractor", "point_of_interest", "establishment"], "user_ratings_total": 11}, {"business_status": "OPERATIONAL", "formatted_address": "250 Monroe Ave NW Suite 400B, Grand Rapids, MI 49503, United States", "geometry": {"location": {"lat": 42.9681529, "lng": -85.67181339999999}, "viewport": {"northeast": {"lat": 42.96949957989272, "lng": -85.67065837010728}, "southwest": {"lat": 42.96679992010728, "lng": -85.67335802989273}}}, "icon": "https://maps.gstatic.com/mapfiles/place_api/icons/v1/png_71/generic_business-71.png", "icon_background_color": "#7B9EB0", "icon_mask_base_uri": "https://maps.gstatic.com/mapfiles/place_api/icons/v2/generic_pinlet", "name": "Grand Rapids Construction, LLC", "opening_hours": {"open_now": true}, "photos": [{"height": 1080, "html_attributions": ["<a href=\"https://maps.google.com/maps/contrib/103586913241245477830\">A Google User</a>"], "photo_reference": "AXQCQNTLFjY9S2gHX08tTHoq9fyCbXuEy7LXMBvwDww0dT0_0Uzpwq3z5NZvy3nNIEvJNeWGNjbwpUklhSpAZSs_GFqk4paRA6Ip_ylrUBgoW9VXb2NAsWs0jFiHIJ1QgIe9Ox6zY2D1NLPVf10xb2A920G8xh-roPp2LydFfgwYnjgSABwZ9pHCD4Plr4P038UGvATNlWUhHw0VpadgkTtIv8_votNzK1BnsCyw11S7dBs4iSKJDb0bHPFbm47WPwn5ZHLWksJe1hx1AwIZh3uZnwbkMsjeQ8l0D5e9Na4Ybv3-uGCChL8", "width": 1413}], "place_id": "ChIJHxFTwairGYgRYRIyzgDXFoI", "plus_code": {"compound_code": "X89H+77 Grand Rapids, Michigan", "global_code": "86JPX89H+77"}, "rating": 4.6, "reference": "ChIJHxFTwairGYgRYRIyzgDXFoI", "types": ["roofing_contractor", "home_goods_store", "general_contractor", "store", "point_of_interest", "establishment"], "user_ratings_total": 66}, {"business_status": "OPERATIONAL", "formatted_address": "14932 Old Millpond Rd, Big Rapids, MI 49307, United States", "geometry": {"location": {"lat": 43.6834145, "lng": -85.4601022}, "viewport": {"northeast": {"lat": 43.68463517989272, "lng": -85.45869027010727}, "southwest": {"lat": 43.68193552010727, "lng": -85.46138992989272}}}, "icon": "https://maps.gstatic.com/mapfiles/place_api/icons/v1/png_71/shopping-71.png", "icon_background_color": "#4B96F3", "icon_mask_base_uri": "https://maps.gstatic.com/mapfiles/place_api/icons/v2/shopping_pinlet", "name": "Revamped, LLC", "opening_hours": {"open_now": true}, "photos": [{"height": 900, "html_attributions": ["<a href=\"https://maps.google.com/maps/contrib/100927768361484196780\">Revamped, LLC</a>"], "photo_reference": "AXQCQNTElpe2HcpDZxeuTe15ZEL8iM0mY9SUiFIgG7UYnNBmUmtJjqx7p6kfDLNqpNS_-sKMYb8_Gu0UNsm9Ww2ZgQTCArz1DmwyBZcSJIMGMwZK29dbPW54eFUdb7De1dzm3TmvZ-zkSldHbsf4nCi1ntqP3_RXpSbYbtYGDAPuMxh6MmwEmx81T4EItOuUevNxX8JzQzL1K-aWvH_JIWnX0UGGNdEqO2_N75soEGXVXNZljZZK80nyrpjqkkjSoifr0hTRkCdjdyUW6KP5pWZ-UYLflQDS7gcIayl9ql9rNWv4wV30t6I", "width": 1200}], "place_id": "ChIJr5Mv7sXSGIgR6Cd21kTp7zw", "plus_code": {"compound_code": "MGMQ+9X Big Rapids, Michigan", "global_code": "86MPMGMQ+9X"}, "rating": 4.1, "reference": "ChIJr5Mv7sXSGIgR6Cd21kTp7zw", "types": ["furniture_store", "home_goods_store", "general_contractor", "store", "point_of_interest", "establishment"], "user_ratings_total": 8}, {"business_status": "OPERATIONAL", "formatted_address": "20960 19 Mile Rd, Big Rapids, MI 49307, United States", "geometry": {"location": {"lat": 43.7427714, "lng": -85.502683}, "viewport": {"northeast": {"lat": 43.74400972989272, "lng": -85.50123452010727}, "southwest": {"lat": 43.74131007010728, "lng": -85.50393417989271}}}, "icon": "https://maps.gstatic.com/mapfiles/place_api/icons/v1/png_71/generic_business-71.png", "icon_background_color": "#7B9EB0", "icon_mask_base_uri": "https://maps.gstatic.com/mapfiles/place_api/icons/v2/generic_pinlet", "name": "Stratz Heating & Cooling, Inc.", "opening_hours": {"open_now": true}, "photos": [{"height": 750, "html_attributions": ["<a href=\"https://maps.google.com/maps/contrib/113320425183514843127\">Jacob S</a>"], "photo_reference": "AXQCQNSAj6SK6sj6P6bZDAaJCvAEiysg6-gVjqOTbpgvuz_1ULkDq61pn-HZaoSugPg9eLev4iTfQl_Dkw9Tu4AFNf64M7faAXOg6_Id7w1i1OrteTAhOjRm51NBoy4G_A0b8-CNMdGnQPxhWyDDIfcWCjxsgIAnzoDTIZiCy61zVtJMDuvle16_24BWrter2vbeYaAQTF7NPdbt-40VhncUIOKoTO8mZKdP67tXSvUM2GxnpSS_rxGwMDwppXrgb9vnVuSm359gkMhYNC4trss7SqTlfCLdj780gXW6E_0eiZJ9Oj6h2991FdNiTmldDWK4T21EbD82-ZDa6m9NrZSbhKj0JFFzxiG-A34tOvuLUubwhazWeP6s5JLV3Aw5mYV8Pni4npkUKCu8o4ZnDWoqeTJ6OkagrZJozf57-awrfPkWVoLvOsVq-BaMAepicwJrn_jaIZ5aJGBoIFCxptmBL58FPBhZnazmC2xhr6Cq3ECeai6ytohw_hcH7VuzPe56hp5-PShqmCAfO6nFE_FevBzVyA3Gvwwq-ey7Dduu5qZGHR39lmpyhjPYp-l9GwNIthnKkZhrDuZ07w", "width": 1334}], "place_id": "ChIJNYFXUaYsH4gRKFVVRPyGXlU", "plus_code": {"compound_code": "PFVW+4W Big Rapids, Michigan", "global_code": "86MPPFVW+4W"}, "rating": 4.9, "reference": "ChIJNYFXUaYsH4gRKFVVRPyGXlU", "types": ["general_contractor", "store", "point_of_interest", "establishment"], "user_ratings_total": 586}, {"business_status": "OPERATIONAL", "formatted_address": "119 Locust St, Big Rapids, MI 49307, United States", "geometry": {"location": {"lat": 43.6945624, "lng": -85.48285109999999}, "viewport": {"northeast": {"lat": 43.69580277989272, "lng": -85.48149937010729}, "southwest": {"lat": 43.69310312010727, "lng": -85.48419902989272}}}, "icon": "https://maps.gstatic.com/mapfiles/place_api/icons/v1/png_71/generic_business-71.png", "icon_background_color": "#7B9EB0", "icon_mask_base_uri": "https://maps.gstatic.com/mapfiles/place_api/icons/v2/generic_pinlet", "name": "Backus Construction", "place_id": "ChIJR23a1ijTGIgRTaozp_wjgxE", "plus_code": {"compound_code": "MGV8+RV Big Rapids, Michigan", "global_code": "86MPMGV8+RV"}, "rating": 3, "reference": "ChIJR23a1ijTGIgRTaozp_wjgxE", "types": ["general_contractor", "point_of_interest", "establishment"], "user_ratings_total": 2}, {"business_status": "OPERATIONAL", "formatted_address": "5824 Linden Ave, Newaygo, MI 49337, United States", "geometry": {"location": {"lat": 43.449552, "lng": -85.671544}, "viewport": {"northeast": {"lat": 43.45090712989272, "lng": -85.67023997010729}, "southwest": {"lat": 43.44820747010728, "lng": -85.67293962989272}}}, "icon": "https://maps.gstatic.com/mapfiles/place_api/icons/v1/png_71/generic_business-71.png", "icon_background_color": "#7B9EB0", "icon_mask_base_uri": "https://maps.gstatic.com/mapfiles/place_api/icons/v2/generic_pinlet", "name": "Michigan Roofing and Restoration/Ladd Construction, LLC", "opening_hours": {"open_now": true}, "photos": [{"height": 761, "html_attributions": ["<a href=\"https://maps.google.com/maps/contrib/115555359319273733156\">Michigan Roofing and Restoration/Ladd Construction, LLC</a>"], "photo_reference": "AXQCQNTkmV2TQPl3XVWbB_pivgFXLFaX3oCYq4HeKgqv5UDyfn85pcUrZgD34cNP1hYeFy7ES9rOXXapEfLnxu_3-BVkNI1fy55I6QndnZZeB2jJVFBlvtwozZKuSybM984R9EYlrwjYHf_s9pE7CCArBwkAA10TeZthITCiX2272rRsz-OVk_KhaCNR_tyR3Y-qzk5D5RDR1GXxC0uSaoKuzg_4UiAlKehF-SyNSYFB9XV_3tzBOB1gl1m-zkrbeG-PgWtTF-ejTvh4VgxvF9zE57dA5J2pn8MYwE8gRWT85Ck-1uqJeL0", "width": 1056}], "place_id": "ChIJKWAC0nEhGYgR7udtxS6RXtg", "plus_code": {"compound_code": "C8XH+R9 Newaygo, Michigan", "global_code": "86MPC8XH+R9"}, "rating": 4.4, "reference": "ChIJKWAC0nEhGYgR7udtxS6RXtg", "types": ["roofing_contractor", "general_contractor", "point_of_interest", "establishment"], "user_ratings_total": 28}, {"business_status": "OPERATIONAL", "formatted_address": "15151 Old Millpond Rd, Big Rapids, MI 49307, United States", "geometry": {"location": {"lat": 43.685754, "lng": -85.46207609999999}, "viewport": {"northeast": {"lat": 43.68714597989272, "lng": -85.46056132010726}, "southwest": {"lat": 43.68444632010728, "lng": -85.46326097989271}}}, "icon": "https://maps.gstatic.com/mapfiles/place_api/icons/v1/png_71/generic_business-71.png", "icon_background_color": "#7B9EB0", "icon_mask_base_uri": "https://maps.gstatic.com/mapfiles/place_api/icons/v2/generic_pinlet", "name": "SRM Concrete", "opening_hours": {"open_now": true}, "photos": [{"height": 2080, "html_attributions": ["<a href=\"https://maps.google.com/maps/contrib/106900603336812321557\">Manuel Medellin</a>"], "photo_reference": "AXQCQNSGqwGoI9MG4E65JCIImE-xT-frqDmeq1MMm2DOUW3B40F4NyeoMCo78MDRhoky0yEf56joOMiSfnGXA3H7AvmgH4iPr6Hunh1fYNkSE0qjxCfyYTOsqrlGrKOOg9bCOrQo9T642teDw65KMy00rGuI81L6NE-EsLuIbRnDRX5IKjdHartbEwfroK3K8eJtuPuZIA3PM5xBCH6DHreEqYsE5sG8IWUY0Vb87LJOML_e0ZzX3E4LB06MlBw_1PsTW6sFC4CaXIDAdUOo4Ao8J1sqpdDqWikZM8ZZ_qOdtRIxs2nyyTroyP2Nw3wlcWcakYLd3S1OrANFhjCUsmtZxBjFFvpH2W32nQ_Jt_Fs048nYLTMdQj_0ZVTncY3KlYEIsYvB3_zPOAqHxcNzL9EEyNjnILglH-o3ptEW3A1Z9Xj2_257UZUgS3inPP1OY0gqiNFAhqqCTe71FkPDo0GSL4QFKqwzA4EUOqPq48F-NVLDt59A0jnt4BL10eq5xPlgW21r2mKMvD-P9MsncAASOyc1hZiWMOF32BEcdTCPTTsknWAglF0_YKhWCWbElnMmpRx_wxR", "width": 4160}], "place_id": "ChIJJ-pfm8bSGIgREbMqtW0jpt0", "plus_code": {"compound_code": "MGPQ+85 Big Rapids, Michigan", "global_code": "86MPMGPQ+85"}, "rating": 4.7, "reference": "ChIJJ-pfm8bSGIgREbMqtW0jpt0", "types": ["general_contractor", "point_of_interest", "establishment"], "user_ratings_total": 15}, {"business_status": "OPERATIONAL", "formatted_address": "12900 190th Ave, Big Rapids, MI 49307, United States", "geometry": {"location": {"lat": 43.6548078, "lng": -85.4634373}, "viewport": {"northeast": {"lat": 43.65615632989272, "lng": -85.46226117010727}, "southwest": {"lat": 43.65345667010727, "lng": -85.46496082989272}}}, "icon": "https://maps.gstatic.com/mapfiles/place_api/icons/v1/png_71/generic_business-71.png", "icon_background_color": "#7B9EB0", "icon_mask_base_uri": "https://maps.gstatic.com/mapfiles/place_api/icons/v2/generic_pinlet", "name": "Heights Construction", "place_id": "ChIJz4tmZ1vSGIgR6kfRMz4tPpo", "plus_code": {"compound_code": "MG3P+WJ Big Rapids, Michigan", "global_code": "86MPMG3P+WJ"}, "rating": 3, "reference": "ChIJz4tmZ1vSGIgR6kfRMz4tPpo", "types": ["general_contractor", "point_of_interest", "establishment"], "user_ratings_total": 2}]