[{"business_status": "OPERATIONAL", "formatted_address": "2117 1st Ave N, Birmingham, AL 35203, United States", "geometry": {"location": {"lat": 33.515318, "lng": -86.80351139999999}, "viewport": {"northeast": {"lat": 33.51673077989273, "lng": -86.80219457010728}, "southwest": {"lat": 33.51403112010728, "lng": -86.80489422989271}}}, "icon": "https://maps.gstatic.com/mapfiles/place_api/icons/v1/png_71/generic_business-71.png", "icon_background_color": "#7B9EB0", "icon_mask_base_uri": "https://maps.gstatic.com/mapfiles/place_api/icons/v2/generic_pinlet", "name": "Magic City Dentistry", "opening_hours": {"open_now": true}, "photos": [{"height": 3840, "html_attributions": ["<a href=\"https://maps.google.com/maps/contrib/110942720240763827984\">Magic City Dentistry</a>"], "photo_reference": "AXQCQNSaVanbkIcIMfD9rYiZ5HLKpCCwRTN6weJZ05sl1kDllrabPFK8sGM8V5LVgeLepNv-BtF5_Mbm8Y_W0GCivz6bpuPRb5or1njPOVhk7AYYZOlX0B2ePecAq6UJKYKqOFNz3mJLFvSMYyFwXYxFHm4apPPteAF9bAj0mAeWmHJ1INN3UGu744aDOkTQyJe-jzq1F00SWRKK5dJbDdMhJ2zyf7Cktim-bOg431OYbU7EVu3227Cj23Mp1QxG7Bm61kievy_EdAiV45-k2mIi6QNaebLDuafhwN9oac7zLl4eS2K1AwY", "width": 5760}], "place_id": "ChIJ-TGOWjEbiYgRccH5nfCiO4g", "plus_code": {"compound_code": "G58W+4H Birmingham, Alabama", "global_code": "865MG58W+4H"}, "rating": 4.9, "reference": "ChIJ-TGOWjEbiYgRccH5nfCiO4g", "types": ["dentist", "health", "point_of_interest", "establishment"], "user_ratings_total": 539}, {"business_status": "OPERATIONAL", "formatted_address": "2930 4th Ave S, Birmingham, AL 35233, United States", "geometry": {"location": {"lat": 33.515632, "lng": -86.788921}, "viewport": {"northeast": {"lat": 33.51689037989273, "lng": -86.78759642010728}, "southwest": {"lat": 33.51419072010729, "lng": -86.79029607989271}}}, "icon": "https://maps.gstatic.com/mapfiles/place_api/icons/v1/png_71/generic_business-71.png", "icon_background_color": "#7B9EB0", "icon_mask_base_uri": "https://maps.gstatic.com/mapfiles/place_api/icons/v2/generic_pinlet", "name": "Birmingham Family Dental Services", "opening_hours": {"open_now": false}, "photos": [{"height": 352, "html_attributions": ["<a href=\"https://maps.google.com/maps/contrib/104346094274300269487\">Birmingham Family Dental Services</a>"], "photo_reference": "AXQCQNQU__cd5Bzs4T4j61ehs1cSRM1nS5lA5dsnVrUOF08ldtkU8_wISndi-74yneH6QLC9kXbLh_OFWkPXvgN76lCzpI1n6nYeeKFadNFT25JE_bi3Mu4L7ieRL86JhzrfX8yj6eMOWIeXfFWtDV5rinSMNsjCPBzZppHqyXBG_BExb51hoyXqsD7iZ0F6K_ZbV2rONrkvL2KCCnrnQnC_ERqxqZswvJBfG3zftXHHDOUakmPl4WdViFQggM9kVGtIjy4uKUnX-mvv6KMpf0jNJ5wW4bqJ4FJac3dF80Q2Emjllszp1Ik", "width": 547}], "place_id": "ChIJvSQnO7EbiYgRPmJ_VWQE4nY", "plus_code": {"compound_code": "G686+7C Birmingham, Alabama", "global_code": "865MG686+7C"}, "rating": 4.8, "reference": "ChIJvSQnO7EbiYgRPmJ_VWQE4nY", "types": ["dentist", "health", "point_of_interest", "establishment"], "user_ratings_total": 1227}, {"business_status": "OPERATIONAL", "formatted_address": "4960 Valleydale Rd Ste 100, Birmingham, AL 35242, United States", "geometry": {"location": {"lat": 33.4013705, "lng": -86.7129363}, "viewport": {"northeast": {"lat": 33.40268937989271, "lng": -86.71156542010728}, "southwest": {"lat": 33.39998972010727, "lng": -86.71426507989271}}}, "icon": "https://maps.gstatic.com/mapfiles/place_api/icons/v1/png_71/generic_business-71.png", "icon_background_color": "#7B9EB0", "icon_mask_base_uri": "https://maps.gstatic.com/mapfiles/place_api/icons/v2/generic_pinlet", "name": "Southern Dental Birmingham", "opening_hours": {"open_now": true}, "photos": [{"height": 3024, "html_attributions": ["<a href=\"https://maps.google.com/maps/contrib/109271248567465904427\">Billy Rose</a>"], "photo_reference": "AXQCQNRFQBJyhWVzgYv2G27NmQjAGrRxkV-ED1QdBeqmt1r0DU0qkMOq8e4fTAsMWl-glv1ArtiT_Wpvg-6NXu4-KIg1rBm578g3UIjk2HFuSpzJW6dfzZynDwqYVWnL__LWRl9tyvwbkBDOwPZa5mJVHiSBe0DhSjzmkbR_dNvxmj4as37CBsC0Q-PeD3GSP2bt5ofFIjl5uX472c2pIv2ZZ_-LycmHTxcJTXYBSwlH7PF9c6jvNI9nm4nlhmnB-d8OeKfJmIIlIoTkpaacTmv35LgS7giWCi0BuEwnX4Jn89Pun7norD5zwjad8V02slPCGuBQb-H1P-3kDDHtWIEqo8VHaJhVY-PV_6npUM0YycRrZ4KkLFIeQvuz0sGAQ3m9_sT4mFkZXDgxIICpVVKpox6JtkrZID92q6y-s_iIHmzCbeAKVM5OOuRjfBGY5lVpe1tEkm0a5l41oJCRhHT2KKoWs8hRBuEIfbawHsjd3Rn2Vw8Aq0cZgKWR-Bhp9qJNOMGKxs5OCJwXKLuYGmW_fS2K3zXrMWtrBQ87q72yT-agQzAIgvwwyYJee3bjtQvGF3o0dA", "width": 4032}], "place_id": "ChIJ6WXDNzEWiYgRq2K2YIBIx6E", "plus_code": {"compound_code": "C72P+HR Birmingham, Alabama", "global_code": "865MC72P+HR"}, "rating": 5, "reference": "ChIJ6WXDNzEWiYgRq2K2YIBIx6E", "types": ["dentist", "doctor", "health", "point_of_interest", "establishment"], "user_ratings_total": 848}, {"business_status": "OPERATIONAL", "formatted_address": "716 32nd St S, Birmingham, AL 35233, United States", "geometry": {"location": {"lat": 33.5128338, "lng": -86.78323130000001}, "viewport": {"northeast": {"lat": 33.51426942989272, "lng": -86.78172627010728}, "southwest": {"lat": 33.51156977010728, "lng": -86.78442592989273}}}, "icon": "https://maps.gstatic.com/mapfiles/place_api/icons/v1/png_71/generic_business-71.png", "icon_background_color": "#7B9EB0", "icon_mask_base_uri": "https://maps.gstatic.com/mapfiles/place_api/icons/v2/generic_pinlet", "name": "Clairmont Cosmetic & Family Dentistry", "opening_hours": {"open_now": true}, "photos": [{"height": 1192, "html_attributions": ["<a href=\"https://maps.google.com/maps/contrib/103901970547124667635\">A Google User</a>"], "photo_reference": "AXQCQNQH6mvSrhMfVpt3IdETL9Wqkgd8SMZH1ddDb4Ek5dLoiRB4Zstj-eP8aWJdAcDnpArbdtk5uiSiwZRRoac273Uw0K-9aDHwGBV9fPYTNx45gFpTJ274a8ujQGewju3KdQX36gd1P-Wmg-LfWbNy00ZohsPe7Ame9We_tTKZW0lSZWip9T1DCXEVsXi3HDb3aWqcJRsjJdtK5zLsUvc64wf56ZGP7W5fI0eDdx4Xxj57_bfLQYS0P5XpwU-_OBhz5dmeyNttvd1l_E2rtRb_nDINsoRG4yMaXouOFCtUWMNQybVKtEo", "width": 2119}], "place_id": "ChIJQ6mR6rQbiYgRkz1LtmkaFTM", "plus_code": {"compound_code": "G678+4P Birmingham, Alabama", "global_code": "865MG678+4P"}, "rating": 4.8, "reference": "ChIJQ6mR6rQbiYgRkz1LtmkaFTM", "types": ["dentist", "health", "point_of_interest", "establishment"], "user_ratings_total": 712}, {"business_status": "OPERATIONAL", "formatted_address": "6807 Tattersall Way, Birmingham, AL 35242, United States", "geometry": {"location": {"lat": 33.4245792, "lng": -86.6686864}, "viewport": {"northeast": {"lat": 33.42588977989273, "lng": -86.66732037010728}, "southwest": {"lat": 33.42319012010728, "lng": -86.67002002989271}}}, "icon": "https://maps.gstatic.com/mapfiles/place_api/icons/v1/png_71/generic_business-71.png", "icon_background_color": "#7B9EB0", "icon_mask_base_uri": "https://maps.gstatic.com/mapfiles/place_api/icons/v2/generic_pinlet", "name": "Gooch Family Dental", "opening_hours": {"open_now": true}, "photos": [{"height": 825, "html_attributions": ["<a href=\"https://maps.google.com/maps/contrib/115181751011204110621\">A Google User</a>"], "photo_reference": "AXQCQNQjU8nhpbDVSVtQ9dDZvbWgZnHQhWaXyVhnffpGLfbS8twT0hZ0JHbRTkIPlDwyw7p69BqFMT0jTsS8lPB5c2yq_hPMlywayEZ2wAnMZq8Ulqc8K_6ajvkOXEfXP45l9y8bGl7pelom2EbZfcbeJmr4LZ8aykti6vjBHzpuG4rdwdcc9qDI_vttm0vvZglytfazmXmEmggqZijorHBROydWBXpT8OlKliKhe5qOYId0s_ISByYYKrZCsfw0PxJafVt0dGqQAVSjXyWIwMGOJIwTnFq8zW21qgYuzILvBMhNzIQ251o", "width": 1440}], "place_id": "ChIJXaBzQQkWiYgRl7ekvgJe-c4", "plus_code": {"compound_code": "C8FJ+QH Birmingham, Alabama", "global_code": "865MC8FJ+QH"}, "rating": 4.9, "reference": "ChIJXaBzQQkWiYgRl7ekvgJe-c4", "types": ["dentist", "doctor", "health", "point_of_interest", "establishment"], "user_ratings_total": 1304}, {"business_status": "OPERATIONAL", "formatted_address": "5891 Valley Rd, Birmingham, AL 35235, United States", "geometry": {"location": {"lat": 33.6376426, "lng": -86.6189754}, "viewport": {"northeast": {"lat": 33.63894757989272, "lng": -86.61757817010728}, "southwest": {"lat": 33.63624792010728, "lng": -86.62027782989273}}}, "icon": "https://maps.gstatic.com/mapfiles/place_api/icons/v1/png_71/generic_business-71.png", "icon_background_color": "#7B9EB0", "icon_mask_base_uri": "https://maps.gstatic.com/mapfiles/place_api/icons/v2/generic_pinlet", "name": "Boyd Family Dentistry", "opening_hours": {"open_now": true}, "photos": [{"height": 2272, "html_attributions": ["<a href=\"https://maps.google.com/maps/contrib/108070080127225416828\">Boyd Family Dentistry</a>"], "photo_reference": "AXQCQNT1WdrzCsldjEPsvm2tJJ0eIuIw01WjuYgY56hAHIGIoQZYmVTycrfRPLqCOW9_AF0gzQZdQgyFFfWaaXbWPqnrbr-BoKknpbFRCd8NNtbcYoRFgazdD1i6v5fygtujTn57VNID8YojAvC-ZyfJSzRr-yMKQ2c3ntEKNzNIfp-qMj9vu0yeYWKUw8D0R1UMUmXMbHm8wxEQLTXm9UFw3XEDJQV7atSjoEd_9ZYZeiBvSb4XCgo9NKlwLz1oJeANRRQY6WHwB9Y8YncrXZp0DZEkF-VVwfdUua27rQFi-k811yPe7w8", "width": 2969}], "place_id": "ChIJR2X1y3194RQRU5jFCJI0Ojc", "plus_code": {"compound_code": "J9QJ+39 Birmingham, Alabama", "global_code": "865MJ9QJ+39"}, "rating": 4.9, "reference": "ChIJR2X1y3194RQRU5jFCJI0Ojc", "types": ["dentist", "health", "point_of_interest", "establishment"], "user_ratings_total": 748}, {"business_status": "OPERATIONAL", "formatted_address": "1520 7th Ave N Ste 100, Birmingham, AL 35203, United States", "geometry": {"location": {"lat": 33.5176522, "lng": -86.8159075}, "viewport": {"northeast": {"lat": 33.51899987989272, "lng": -86.81455217010728}, "southwest": {"lat": 33.51630022010728, "lng": -86.81725182989273}}}, "icon": "https://maps.gstatic.com/mapfiles/place_api/icons/v1/png_71/generic_business-71.png", "icon_background_color": "#7B9EB0", "icon_mask_base_uri": "https://maps.gstatic.com/mapfiles/place_api/icons/v2/generic_pinlet", "name": "Dental Wellness Center of Birmingham", "opening_hours": {"open_now": true}, "photos": [{"height": 875, "html_attributions": ["<a href=\"https://maps.google.com/maps/contrib/104232184770300468282\">Dental Wellness Center of Birmingham</a>"], "photo_reference": "AXQCQNSXtB0AWK13KVDKKMtOnpa3h5C-Zj0gTnbjZ5FyIXpe8AbvDjc1pNXRRWwYGcBhMpa8KY90Lx5Wj_T_fSm-xhXV0bNlzstO84Ytawfe-MfvgO8Uq0YxjVJibj417VpemYrtXF4oyJHVF177EhbTsldrLwPwaW4__Rwl_piKw8SpNPVdpYt2mzBqLChNVxYykj2ZCPSWir63r3LfF6ZFrUFxvQG-6DPspJ5-i9WqoLxejZ_xSBzmJdcNyVw7dCoBMvjQ6ftJMxKYmcTFwjmMXM-SQvXy6GRQCjGvzZmjYiqyi8xZzRg", "width": 1112}], "place_id": "ChIJA03iXZAbiYgR1GdGu8HQqjw", "plus_code": {"compound_code": "G59M+4J Birmingham, Alabama", "global_code": "865MG59M+4J"}, "rating": 5, "reference": "ChIJA03iXZAbiYgR1GdGu8HQqjw", "types": ["dentist", "health", "point_of_interest", "establishment"], "user_ratings_total": 174}, {"business_status": "OPERATIONAL", "formatted_address": "2660 10th Ave S #632, Birmingham, AL 35205, United States", "geometry": {"location": {"lat": 33.5070714, "lng": -86.7882326}, "viewport": {"northeast": {"lat": 33.50837747989272, "lng": -86.78675022010728}, "southwest": {"lat": 33.50567782010728, "lng": -86.78944987989273}}}, "icon": "https://maps.gstatic.com/mapfiles/place_api/icons/v1/png_71/generic_business-71.png", "icon_background_color": "#7B9EB0", "icon_mask_base_uri": "https://maps.gstatic.com/mapfiles/place_api/icons/v2/generic_pinlet", "name": "AdVance Dental, P.C.", "opening_hours": {"open_now": true}, "photos": [{"height": 2400, "html_attributions": ["<a href=\"https://maps.google.com/maps/contrib/104722988290269717649\">AdVance Dental, P.C.</a>"], "photo_reference": "AXQCQNQr_FtpxvqmPbjevB12yIjQLubtun_TrAJ9lUxxQopkpzD6yB2UajxTfkb1Q530G5hzANWw7JWoKXEo0be0HuWCK9RMlGZ44Xx0zBCybfYEeJ5jYSUodRP1RITY7-t8aAHVRt-HkhBd1AspyUYXpr6xuYEa88G9ngRPw5DAeE5KG7FMBE9rYkusDo_cZiwrZVNyZsg4jgbiAllCJBh1aYH2C6wZ6hzQuja6T1umYzCxw2twGIRRtksrZqvArwh1MTooyGbzjMlTIc25p7xfXzZ39orcN9YGsY408FGTmizVx9SvF7E", "width": 3600}], "place_id": "ChIJj0bO8LgeiYgRnlMaFQgWv9s", "plus_code": {"compound_code": "G646+RP Birmingham, Alabama", "global_code": "865MG646+RP"}, "rating": 4.9, "reference": "ChIJj0bO8LgeiYgRnlMaFQgWv9s", "types": ["dentist", "health", "point_of_interest", "establishment"], "user_ratings_total": 143}, {"business_status": "OPERATIONAL", "formatted_address": "6930 Cahaba Valley Rd #200, Birmingham, AL 35242, United States", "geometry": {"location": {"lat": 33.4166328, "lng": -86.6737383}, "viewport": {"northeast": {"lat": 33.41794427989272, "lng": -86.67227537010727}, "southwest": {"lat": 33.41524462010727, "lng": -86.67497502989272}}}, "icon": "https://maps.gstatic.com/mapfiles/place_api/icons/v1/png_71/generic_business-71.png", "icon_background_color": "#7B9EB0", "icon_mask_base_uri": "https://maps.gstatic.com/mapfiles/place_api/icons/v2/generic_pinlet", "name": "Oak Mountain Pediatric Dentistry", "opening_hours": {"open_now": true}, "photos": [{"height": 2700, "html_attributions": ["<a href=\"https://maps.google.com/maps/contrib/102853875932753067865\">A Google User</a>"], "photo_reference": "AXQCQNSN5jy9c_0-2PwtbXsvFTIE_p0Jg3bGVdfKzz3dFDyK1zA71_Z4o9B6nDVS1HURA-OuBVUCFvickdnxT0UELODpl6a2-blKjmv7cw0zIOiCzUOsAqxXBxF2TxUKYI6jqFPctphSz4wfvbc3ZzNneivu8CkBkaaW28HzWZ1gdAPEWQHSpXhV7P9yzV7unksgjhedHBhHCXq6za7BoVrhVZraJAYLpvNJzkDE9-PZgtad0NfzF3owaBDea44dKi6KK1rxKEytwkFVFRRz5zACYRxeN1SHTJ4pFQ2h0ANevV7O6TRqt0I", "width": 1800}], "place_id": "ChIJRVfo1WwWiYgRgu8nS33P0ss", "plus_code": {"compound_code": "C88G+MG Birmingham, Alabama", "global_code": "865MC88G+MG"}, "rating": 5, "reference": "ChIJRVfo1WwWiYgRgu8nS33P0ss", "types": ["dentist", "doctor", "health", "point_of_interest", "establishment"], "user_ratings_total": 976}, {"business_status": "OPERATIONAL", "formatted_address": "3928 Montclair Rd Suit 120, Mountain Brook, AL 35213, United States", "geometry": {"location": {"lat": 33.5080495, "lng": -86.75911769999999}, "viewport": {"northeast": {"lat": 33.50928737989272, "lng": -86.75772832010728}, "southwest": {"lat": 33.50658772010727, "lng": -86.76042797989273}}}, "icon": "https://maps.gstatic.com/mapfiles/place_api/icons/v1/png_71/generic_business-71.png", "icon_background_color": "#7B9EB0", "icon_mask_base_uri": "https://maps.gstatic.com/mapfiles/place_api/icons/v2/generic_pinlet", "name": "StoneCreek Dental Care - Birmingham Montclair", "opening_hours": {"open_now": true}, "photos": [{"height": 1398, "html_attributions": ["<a href=\"https://maps.google.com/maps/contrib/111285129510511292438\">StoneCreek Dental Care - Birmingham Montclair</a>"], "photo_reference": "AXQCQNTbbf-h0GAFuLPEmYI97idefhwad81fElDpi0XgqMeXe8o-dpLteb6LKRTM8QSQk2wquWPNu6GifYo_w5G_-ujYyHsWz4fu6G1x-nolH5AbW3ZG7_bpE-Kn-mCJTUoErh064wl3ygej7nRrkY2ULkcuSw_UCKhdRlWFxiqb0f-yXE8UQx41L0m6tQZnJPo18-NOjWOlrVsTN7Hh__YmKDMfuS7NPxspqEjy0Mtl-X9aCiF_CMJHRHq0-uyCrVkiycwrLJ1p6TGOv-37_pKedOFfO0u193AgY3N2IodBEXp5FACx", "width": 2048}], "place_id": "ChIJh82ZnowQiYgRVA1UY9XYzJQ", "plus_code": {"compound_code": "G65R+69 Mountain Brook, Alabama", "global_code": "865MG65R+69"}, "rating": 4.9, "reference": "ChIJh82ZnowQiYgRVA1UY9XYzJQ", "types": ["dentist", "health", "point_of_interest", "establishment"], "user_ratings_total": 395}, {"business_status": "OPERATIONAL", "formatted_address": "1018 17th St S, Birmingham, AL 35205, United States", "geometry": {"location": {"lat": 33.4990925, "lng": -86.8011381}, "viewport": {"northeast": {"lat": 33.50049647989272, "lng": -86.79968732010728}, "southwest": {"lat": 33.49779682010728, "lng": -86.80238697989273}}}, "icon": "https://maps.gstatic.com/mapfiles/place_api/icons/v1/png_71/generic_business-71.png", "icon_background_color": "#7B9EB0", "icon_mask_base_uri": "https://maps.gstatic.com/mapfiles/place_api/icons/v2/generic_pinlet", "name": "Doug Lewis Dentistry", "opening_hours": {"open_now": true}, "photos": [{"height": 800, "html_attributions": ["<a href=\"https://maps.google.com/maps/contrib/109925541548682501876\">Doug Lewis Dentistry</a>"], "photo_reference": "AXQCQNSMG4lcOepYqPemXrjMSFoLQ_brTpID74Fz6hbeaNZwzPBSovCIQwYdhcfDEZBfR3zSnT0cveeQxUK8tNVlpbFPIVguMLsT4wWzUDZDkUZTbqjBqMa8fLAZvo7OS6lcOizKyGmfNe8o5d5lcAbU4HQqEhw1E22gCNCwuLKFOXT34-ceDkxHxJdh6hZzXKcVtb4Ypij4uYxfRDnw_BN90zsMfKb9HXdNIu8MUca1ruLDcgRkN1hSIwCsXYzecpMMilUcoTXkjlLLXLXjnMk-TyXzLbl9MI0XfJ4d8a104FhQeYJRCDY", "width": 1200}], "place_id": "ChIJo-x0u8IbiYgRNz4GgyshV6o", "plus_code": {"compound_code": "F5XX+JG Birmingham, Alabama", "global_code": "865MF5XX+JG"}, "rating": 4.9, "reference": "ChIJo-x0u8IbiYgRNz4GgyshV6o", "types": ["dentist", "health", "point_of_interest", "establishment"], "user_ratings_total": 289}, {"business_status": "OPERATIONAL", "formatted_address": "2901 Central Ave, Birmingham, AL 35209, United States", "geometry": {"location": {"lat": 33.4785709, "lng": -86.79548559999999}, "viewport": {"northeast": {"lat": 33.47994307989272, "lng": -86.79421337010727}, "southwest": {"lat": 33.47724342010728, "lng": -86.7969130298927}}}, "icon": "https://maps.gstatic.com/mapfiles/place_api/icons/v1/png_71/generic_business-71.png", "icon_background_color": "#7B9EB0", "icon_mask_base_uri": "https://maps.gstatic.com/mapfiles/place_api/icons/v2/generic_pinlet", "name": "Central Avenue Dentistry", "opening_hours": {"open_now": true}, "photos": [{"height": 543, "html_attributions": ["<a href=\"https://maps.google.com/maps/contrib/103696167591578468782\">A Google User</a>"], "photo_reference": "AXQCQNTyjkK8L8-txsmFuqqCoYEnL_rrnJm1lMWkGo6_G1WY3zfl-aAe6860pDOAF6gz7TxaSusat8YH2NUNWh7N97-AYpfLR1JCjeVn2Kv3RN9QHLx_FiIAH_SA__ZWC5ZoofeN9pGmG5N8DvSER3ZQS00wlM_0FJ1ng2QcJEUr4Q0bpmnC1qYf8p1tsXpIIGvMK-db4WT5tHBWsKaA-xxIRCv6L2p09-SAam-oYnGmH-heJdKXUGt088tqdFS3vKwUE8ZbA6QkSsxqqN4ASw-mz5Zcyz8Cy_Z0kLp3PnNuFHGLJ1iMxKA", "width": 1428}], "place_id": "ChIJR19-TGQZiYgRrLhwuUhteF4", "plus_code": {"compound_code": "F6H3+CR Birmingham, Alabama", "global_code": "865MF6H3+CR"}, "rating": 5, "reference": "ChIJR19-TGQZiYgRrLhwuUhteF4", "types": ["dentist", "health", "point_of_interest", "establishment"], "user_ratings_total": 181}, {"business_status": "OPERATIONAL", "formatted_address": "140 Village St Suite 203, Birmingham, AL 35242, United States", "geometry": {"location": {"lat": 33.4157412, "lng": -86.6621383}, "viewport": {"northeast": {"lat": 33.41710657989272, "lng": -86.66079887010727}, "southwest": {"lat": 33.41440692010728, "lng": -86.66349852989272}}}, "icon": "https://maps.gstatic.com/mapfiles/place_api/icons/v1/png_71/generic_business-71.png", "icon_background_color": "#7B9EB0", "icon_mask_base_uri": "https://maps.gstatic.com/mapfiles/place_api/icons/v2/generic_pinlet", "name": "Greystone Smile Design", "opening_hours": {"open_now": true}, "photos": [{"height": 295, "html_attributions": ["<a href=\"https://maps.google.com/maps/contrib/116368775974871912509\">Greystone Smile Design</a>"], "photo_reference": "AXQCQNSorGlKLAPr8VOGC3eQbuMi5II7tOpybVsQlh15jafpdtjdWKkz1gvTOAr2P7AqQ6cGWbvc4Zs4IKTLtHprTlxKkahTWkJz1GcM2Mr5gtKWGhl_if1pLlSDf5iuzTJntlE6gCltelcwmMoSUuuG5TK6YDDuLbvI3Wibj2jQgPFriQkEf3oy3dgcFVL5ypmROhbwAZe-WvMyInTaixWls92zb9jrpRXphujSaoU_AGmBoJR0DlDfPulJAbUK26CCnTEAh-AyDduNp8BevMgGeI0QowsZgEzQH6tumQk_nogx-zvlOfo", "width": 705}], "place_id": "ChIJzY_rpgoWiYgRXECjNDWEWc0", "plus_code": {"compound_code": "C88Q+85 Birmingham, Alabama", "global_code": "865MC88Q+85"}, "rating": 4.9, "reference": "ChIJzY_rpgoWiYgRXECjNDWEWc0", "types": ["dentist", "health", "point_of_interest", "establishment"], "user_ratings_total": 215}, {"business_status": "OPERATIONAL", "formatted_address": "2121 14th Ave S, Birmingham, AL 35205, United States", "geometry": {"location": {"lat": 33.498501, "lng": -86.79199}, "viewport": {"northeast": {"lat": 33.49969732989272, "lng": -86.79063282010728}, "southwest": {"lat": 33.49699767010728, "lng": -86.79333247989271}}}, "icon": "https://maps.gstatic.com/mapfiles/place_api/icons/v1/png_71/generic_business-71.png", "icon_background_color": "#7B9EB0", "icon_mask_base_uri": "https://maps.gstatic.com/mapfiles/place_api/icons/v2/generic_pinlet", "name": "Complete Dental Care, PC", "opening_hours": {"open_now": true}, "photos": [{"height": 3840, "html_attributions": ["<a href=\"https://maps.google.com/maps/contrib/108097786669180265789\">Complete Dental Care, PC</a>"], "photo_reference": "AXQCQNTodRM_8G6w3Ro4FLMqJpn86lwMOKS8oukAJYEFaG-Jl93yKPbJNprHXfMv9UNRdNhowMOhgo5LO-xNioCejNPyAPqjmZxFDteTNrka5pINg4QWuJwYzNXPHa1-JzNpdYCxvqXW7yVmMRuuCLDbuDZIv9eLyduk8unEFbZJzBZJFlGxbVt-Dz2DuuQAwSvv2ziCgX_F2G0kl3UdKQCzEUx-RtPOahJIwCp-PtCbfmSiPKUflb74BcxCv7BsYvOTK4vpJNQPvPPaY0APwwrz0Bp4B7_4MqVac34xRsOF7JTS09Lr", "width": 5760}], "place_id": "ChIJa23dV8UbiYgRB5Py1i3biZ4", "plus_code": {"compound_code": "F6X5+C6 Birmingham, Alabama", "global_code": "865MF6X5+C6"}, "rating": 4.6, "reference": "ChIJa23dV8UbiYgRB5Py1i3biZ4", "types": ["dentist", "doctor", "health", "point_of_interest", "establishment"], "user_ratings_total": 45}, {"business_status": "OPERATIONAL", "formatted_address": "6930 Cahaba Valley Rd, Birmingham, AL 35242, United States", "geometry": {"location": {"lat": 33.41665, "lng": -86.673765}, "viewport": {"northeast": {"lat": 33.41795342989273, "lng": -86.67228842010728}, "southwest": {"lat": 33.41525377010728, "lng": -86.67498807989271}}}, "icon": "https://maps.gstatic.com/mapfiles/place_api/icons/v1/png_71/generic_business-71.png", "icon_background_color": "#7B9EB0", "icon_mask_base_uri": "https://maps.gstatic.com/mapfiles/place_api/icons/v2/generic_pinlet", "name": "Hall Cosmetic & Family Dentistry", "opening_hours": {"open_now": true}, "photos": [{"height": 4480, "html_attributions": ["<a href=\"https://maps.google.com/maps/contrib/104725920832758283381\">Hall Cosmetic &amp; Family Dentistry</a>"], "photo_reference": "AXQCQNQbiJVkxneyFgecfGMCJKgl747K0f9qwCeJgg2BpaFzUHV8881AchPHNC1wZ-Eu6MvXNec_VSQAXIAEuG2-CM03yylkKVxiqv5Jabay7OcPRnim57pyh-lgMlw6yZrkONilw8npNhz2KYNJGKEvJWha_qpduOIY5SVHVkTwXq76V4ZnX4ubbcU2BmipHLf9oGSMLAXk56tbcda7lEpkFmT3coqvwBIeVkPI8Nz7oZdVxO97nOnKgOBJrvvsgW4gj_4-QAaSeczZD0WJZpIVIi-t3bZUeUVaMIBqWffXktzkvcQOFCI", "width": 6720}], "place_id": "ChIJ0-Xo1WwWiYgR18i988W4OUE", "plus_code": {"compound_code": "C88G+MF Birmingham, Alabama", "global_code": "865MC88G+MF"}, "rating": 5, "reference": "ChIJ0-Xo1WwWiYgR18i988W4OUE", "types": ["dentist", "doctor", "health", "point_of_interest", "establishment"], "user_ratings_total": 888}, {"business_status": "OPERATIONAL", "formatted_address": "4005 Crosshaven Dr, Birmingham, AL 35243, United States", "geometry": {"location": {"lat": 33.4599172, "lng": -86.7309044}, "viewport": {"northeast": {"lat": 33.46112672989271, "lng": -86.72965932010729}, "southwest": {"lat": 33.45842707010727, "lng": -86.73235897989272}}}, "icon": "https://maps.gstatic.com/mapfiles/place_api/icons/v1/png_71/generic_business-71.png", "icon_background_color": "#7B9EB0", "icon_mask_base_uri": "https://maps.gstatic.com/mapfiles/place_api/icons/v2/generic_pinlet", "name": "Cahaba Heights Dental Care", "opening_hours": {"open_now": true}, "photos": [{"height": 500, "html_attributions": ["<a href=\"https://maps.google.com/maps/contrib/113849204257348757670\">Dr. Bruce T. Spink, DMD</a>"], "photo_reference": "AXQCQNSjvfMpXYzEriUwHpfu-2JAcxt18uM-K1ZA92HYCeen2XYcg4PK0QF85lfnzG9p2LXt9HgP38A4VsLWPoRxduEA1O_mN5NlyLDlt5ZDj8J_p8keVJ_Q3s_OMtJ3smsnFoOKx1CEa16iiLeLboIiW2mBLX4veu3a0iZBfmoX1TA_34tWgyVzMvM_pijZElaJnn1d7G2Yj065LvEfj4Z5QxF7iVjGAjwBH3wCYP670xvcdpVoHOSGBuKbBFytIEY1BPYm2PNHleix7wvqvIHiHjTF0JAHquZ7_aChS8Cx5owsp8Qy0DY", "width": 783}], "place_id": "ChIJ9fPMiWgXiYgRugNKWXhfZJw", "plus_code": {"compound_code": "F759+XJ Birmingham, Alabama", "global_code": "865MF759+XJ"}, "rating": 4.9, "reference": "ChIJ9fPMiWgXiYgRugNKWXhfZJw", "types": ["dentist", "health", "point_of_interest", "establishment"], "user_ratings_total": 390}, {"business_status": "OPERATIONAL", "formatted_address": "123 N Chalkville Rd Suite 1 Suite 1, Trussville, AL 35173, United States", "geometry": {"location": {"lat": 33.6219842, "lng": -86.6088651}, "viewport": {"northeast": {"lat": 33.62335142989272, "lng": -86.60763947010727}, "southwest": {"lat": 33.62065177010728, "lng": -86.61033912989272}}}, "icon": "https://maps.gstatic.com/mapfiles/place_api/icons/v1/png_71/generic_business-71.png", "icon_background_color": "#7B9EB0", "icon_mask_base_uri": "https://maps.gstatic.com/mapfiles/place_api/icons/v2/generic_pinlet", "name": "Marshall Family Dentistry", "opening_hours": {"open_now": true}, "photos": [{"height": 1152, "html_attributions": ["<a href=\"https://maps.google.com/maps/contrib/109325070999541395752\">Marshall Family Dentistry</a>"], "photo_reference": "AXQCQNSLHYXxb5lFgBDGhESR8Xc1YWv4jH2MsY8RGTVOAvdIdvUmIwKv9CK4Bh9kAijiVCUhMWpI0QKIGctzGMlTjrtGnSeWk_hCVHoG9XY-QLa16bj1UZ41KsSzxTt99fYJHitH1l6p41GEutcwfuMPuLdQbVc7sf9fHkiycNvFV_aQ1uR3RKhwzUX-j7-lok_1wcva6840OYvIKHkEJl2ueOVPumVFhWkm3k98k2T-U2KBdUGs7B0Hn2vgxmrl4i4zlW8DwtlwC2CvFY8ZsG2lfYA9ocC7IGCWpctz1NJwHg1uGRnRu78", "width": 2048}], "place_id": "ChIJRxgmgSAMiYgRIbG_RZjEQQ8", "plus_code": {"compound_code": "J9CR+QF Trussville, Alabama", "global_code": "865MJ9CR+QF"}, "rating": 4.9, "reference": "ChIJRxgmgSAMiYgRIbG_RZjEQQ8", "types": ["dentist", "health", "point_of_interest", "establishment"], "user_ratings_total": 1076}, {"business_status": "OPERATIONAL", "formatted_address": "100 Heatherbrooke Park Dr RD, Birmingham, AL 35242, United States", "geometry": {"location": {"lat": 33.425949, "lng": -86.7004091}, "viewport": {"northeast": {"lat": 33.42725082989272, "lng": -86.69911922010728}, "southwest": {"lat": 33.42455117010728, "lng": -86.70181887989271}}}, "icon": "https://maps.gstatic.com/mapfiles/place_api/icons/v1/png_71/generic_business-71.png", "icon_background_color": "#7B9EB0", "icon_mask_base_uri": "https://maps.gstatic.com/mapfiles/place_api/icons/v2/generic_pinlet", "name": "Healthy Smiles of Birmingham", "opening_hours": {"open_now": true}, "photos": [{"height": 3362, "html_attributions": ["<a href=\"https://maps.google.com/maps/contrib/111594276473711122927\">Healthy Smiles of Birmingham</a>"], "photo_reference": "AXQCQNSnuEel-MZGZxcRj1w5ZQku1HccX714y9_-ZCXMRDCFiNLZbYsdSUkKVucxwdI5mLcWRoGHn4dIV-JAYFSiQqaRtnbpbviMcVWVWj1M1dCR-L1H2EA8I87evJO_TWQNCF66qNGSnyfXEPhDyf5zIkj1RLOsThtliI0YXA4IWIhDZDkW0E9R2q5F_i881oV9xM5hvlA6q7esuo9PA5PK5_ynGE_h1btGcQwG77VqPI_COwrl-WUpv1WFoecciA177bIuWP_MQb7ZpeoSSa6EPohqU4HMDsl9khZLrxif6bWNqjpuLF4", "width": 5043}], "place_id": "ChIJl_aSI00WiYgRo7HeGDC95Gg", "plus_code": {"compound_code": "C7GX+9R Birmingham, Alabama", "global_code": "865MC7GX+9R"}, "rating": 4.9, "reference": "ChIJl_aSI00WiYgRo7HeGDC95Gg", "types": ["dentist", "health", "point_of_interest", "establishment"], "user_ratings_total": 161}, {"business_status": "OPERATIONAL", "formatted_address": "2940 Clairmont Ave, Birmingham, AL 35205, United States", "geometry": {"location": {"lat": 33.511375, "lng": -86.78479290000001}, "viewport": {"northeast": {"lat": 33.51261432989272, "lng": -86.78340807010727}, "southwest": {"lat": 33.50991467010727, "lng": -86.78610772989272}}}, "icon": "https://maps.gstatic.com/mapfiles/place_api/icons/v1/png_71/generic_business-71.png", "icon_background_color": "#7B9EB0", "icon_mask_base_uri": "https://maps.gstatic.com/mapfiles/place_api/icons/v2/generic_pinlet", "name": "Lakeview Dental and Wellness", "opening_hours": {"open_now": true}, "photos": [{"height": 1500, "html_attributions": ["<a href=\"https://maps.google.com/maps/contrib/110802876987532657134\">A Google User</a>"], "photo_reference": "AXQCQNR43_2YGF9cIoWLEXFdvrXtP36yeduyyjnp9IOXgTNiuol-zZzbkNx-LxZSQy7pAmawv79VkUsldcBhsNXAl24XgaAIAkmh027AnHKRyKDM3E6hjKqmpeoB85uzz2F-wbL8O3ZCrpDaDVn93HfwMFAvrWn_NENkihAGvpYJMWfriJPCW-u7-RXvWM9fi0XBPD5ixsYWPkY2hd_CLL_GBDBY39SyTyuDEbDlF_WBci6OYUyndLjK17YglyTJ5YwCUiQlRKOPmaFWJxbUrMj19U9oU699suzMYgWYKibv1lihOozBNSg", "width": 2250}], "place_id": "ChIJGTo4rLUbiYgR8eENK4jNSkI", "plus_code": {"compound_code": "G668+H3 Birmingham, Alabama", "global_code": "865MG668+H3"}, "rating": 4.7, "reference": "ChIJGTo4rLUbiYgR8eENK4jNSkI", "types": ["dentist", "health", "point_of_interest", "establishment"], "user_ratings_total": 200}, {"business_status": "OPERATIONAL", "formatted_address": "4616 Montevallo Rd Ste 100, Birmingham, AL 35210, United States", "geometry": {"location": {"lat": 33.52376539999999, "lng": -86.7231046}, "viewport": {"northeast": {"lat": 33.52509932989272, "lng": -86.72165902010728}, "southwest": {"lat": 33.52239967010728, "lng": -86.72435867989273}}}, "icon": "https://maps.gstatic.com/mapfiles/place_api/icons/v1/png_71/generic_business-71.png", "icon_background_color": "#7B9EB0", "icon_mask_base_uri": "https://maps.gstatic.com/mapfiles/place_api/icons/v2/generic_pinlet", "name": "Luma Dentistry - Birmingham/Montevallo Rd", "opening_hours": {"open_now": true}, "photos": [{"height": 2961, "html_attributions": ["<a href=\"https://maps.google.com/maps/contrib/105064657113956369840\">Luma Dentistry - Birmingham/Montevallo Rd</a>"], "photo_reference": "AXQCQNQBUG8GsauoCQHK4LeKbKy3TiEaKGXIjGjOWSYtvY_8nS3Xc2u8_NirbARP3QVTR3_kDOyOi_q2MT3TTPcHrOFBOyVlyBlERNCEBRzNokSXKXrRzOiKt47gaZxw7qKA_icdVCNHvJpi5q33N1osuYYwTS_BGeb4v6MY_23eq8n-xeTXig12Lt7kdzgnbn_lsYhtW17s1Vmh5dXZONwnRXJF8TvdpSCvPKs3nO4JDopKdVT-oGtLaCpRe_nUALTQEEfccdWqRKokYSldqZyfcPbFERnEzun1smuydINxAyMpsTBAgkE", "width": 1908}], "place_id": "ChIJY3zj-tARiYgRXXb0UNdbqWM", "plus_code": {"compound_code": "G7FG+GQ Birmingham, Alabama", "global_code": "865MG7FG+GQ"}, "rating": 4.9, "reference": "ChIJY3zj-tARiYgRXXb0UNdbqWM", "types": ["dentist", "health", "point_of_interest", "establishment"], "user_ratings_total": 237}]